Time,SetPointAngle,SensorAngleRow,SensorAngleWidth,Angle,IntegralAngle,DeltaAngle,BaseSpeed,SetPointError,SensorErrorRow,SensorErrorWidth,Error,IntegralError,DeltaError,DeltaSpeed,LeftSpeed,RightSpeed,X,Y,Z,Roll,Pitch,Yaw
0.032,0,4,1,0.5729386976839008,0.5729386976839008,0.5729386976839008,5,160,9,1,0,0,0,0.0,5.0,5.0,-0.5615000000000011,0.12999999999999848,-6.397122042420787e-05,-4.3620539166896293e-07,1.0325584285277141e-07,9.779364542073948
0.064,0,4,1,0.5729386976839008,1.1458773953678016,0.0,5,160,9,1,0,0,0,0.0,5.0,5.0,-0.561499996739057,0.12680109296498548,-3.263914291996156e-05,3.7579497635417187,8.897202280819815e-08,9.64512742633478
0.096,0,4,1,0.5729386976839008,1.7188160930517025,0.0,5,160,9,1,0,0,0,0.0,5.0,5.0,-0.5614999947000867,0.1236003150931888,-6.060561528481445e-05,0.3191902424301975,-1.8210926045531859e-06,9.729227420831176
0.128,0,4,1,0.5729386976839008,2.2917547907356033,0.0,5,160,9,1,0,0,0,0.0,5.0,5.0,-0.5614999911226087,0.12040014458707818,-7.257757618374557e-05,-0.017214297471852238,1.0166536936848522e-06,9.854175303916646
0.16,0,4,1,0.5729386976839008,2.864693488419504,0.0,5,160,9,1,0,0,0,0.0,5.0,5.0,-0.5614999889363259,0.11720022556435067,-6.725878973419357e-05,0.14824926400395147,-1.7789991359439242e-06,9.84417617741369
0.192,0,4,1,0.5729386976839008,3.4376321861034045,0.0,5,160,9,1,0,0,0,0.0,5.0,5.0,-0.5614999867967562,0.11400028608192181,-6.714329775520285e-05,0.06788157514060202,-5.386636713652554e-07,9.797799232779543
0.224,0,4,1,0.5729386976839008,4.010570883787305,0.0,5,160,9,1,0,0,0,0.0,5.0,5.0,-0.5614999830096895,0.11080031163529276,-6.704602567158928e-05,-0.01663109538510546,1.2122609117260864e-06,9.81650508228959
0.256,0,4,1,0.5729386976839008,4.583509581471206,0.0,5,160,9,1,0,0,0,0.0,5.0,5.0,-0.5614999807239672,0.10760033650096032,-6.608108707778851e-05,-0.016655982557130373,-1.7548906347795873e-06,9.79112760147034
0.28800000000000003,0,4,1,0.5729386976839008,5.156448279155106,0.0,5,160,9,1,0,0,0,0.0,5.0,5.0,-0.5614999771061885,0.10440035409365987,-6.565456306365826e-05,-0.015437235731243297,1.0676984661421045e-06,9.789620632407132
0.32,0,4,1,0.5729386976839008,5.729386976839007,0.0,5,160,9,1,0,0,0,0.0,5.0,5.0,-0.5614999735657255,0.10120036817211985,-6.53171517516829e-05,-0.013467794996917448,-2.6323157679371096e-07,9.775886401114537
0.352,0,4,1,0.5729386976839008,6.3023256745229075,0.0,5,160,9,1,0,0,0,0.0,5.0,5.0,-0.5614999700863456,0.098000379440376,-6.504955045568556e-05,-0.01063105725415253,-2.1402216276463182e-07,9.859748666178643
0.384,0,4,1,0.5729386976839008,6.875264372206808,0.0,5,160,9,1,0,0,0,0.0,5.0,5.0,-0.5614999666549921,0.09480038846157302,-6.483631558055862e-05,-0.007155856749049228,-1.731406622899333e-07,9.803599419913851
0.41600000000000004,0,4,1,0.5729386976839008,7.448203069890709,0.0,5,160,9,1,0,0,0,0.0,5.0,5.0,-0.5614999632611979,0.09160039568669937,-6.466489771511999e-05,-0.0032384516433583733,-1.42341690268669e-07,9.878274472984575
0.448,0,4,1,0.5729386976839008,8.02114176757461,0.0,5,160,9,1,0,0,0,0.0,5.0,5.0,-0.5614999598965751,0.08840040147715958,-6.452545552191463e-05,0.0008564472282221878,-1.1853595207413114e-07,9.752616639235951
0.48,0,4,1,0.5729386976839008,8.59408046525851,0.0,5,160,9,1,0,0,0,0.0,5.0,5.0,-0.5614999565544131,0.08520040612232452,-6.441066124762175e-05,0.004862175926026114,-9.984357390086319e-08,9.735781462826486
0.512,0,4,1,0.5729386976839008,9.167019162942411,0.0,5,160,9,1,0,0,0,0.0,5.0,5.0,-0.5614999532293574,0.08200040985318176,-6.431541696202796e-05,0.008677571607934004,-8.523047120245055e-08,9.74465375389305
0.544,0,4,1,0.5729386976839008,9.739957860626312,0.0,5,160,9,1,0,0,0,0.0,5.0,5.0,-0.5614999499171563,0.0788004128532037,-6.423644783900423e-05,0.011898002798641834,-7.361357471549395e-08,9.85205426562279
0.5760000000000001,0,4,1,0.5729386976839008,10.312896558310213,0.0,5,160,9,1,0,0,0,0.0,5.0,5.0,-0.5614999466144571,0.07560041526737865,-6.417178781662446e-05,0.01441042017036407,-6.353928444445948e-08,9.814013024140499
0.608,0,4,1,0.5729386976839008,10.885835255994113,0.0,5,160,9,1,0,0,0,0.0,5.0,5.0,-0.5614999434333621,0.0724004174158182,-6.41185313836317e-05,0.014384682944800083,-1.638590448900572e-07,9.845506378733372
0.64,0,4,1,0.5729386976839008,11.458773953678014,0.0,5,160,9,1,0,0,0,0.0,5.0,5.0,-0.5614999401126014,0.06920041894016084,-6.408548563741068e-05,0.013470107680305585,9.482596530303564e-08,9.802242996609687
0.672,0,4,1,0.5729386976839008,12.031712651361914,0.0,5,160,9,1,0,0,0,0.0,5.0,5.0,-0.5614999368002688,0.06600042015823165,-6.406150440036243e-05,0.01174683729659554,-4.559056761158034e-08,9.789060979821597
0.704,0,4,1,0.5729386976839008,12.604651349045815,0.0,5,160,9,1,0,0,0,0.0,5.0,5.0,-0.5614999334943064,0.06280042112930065,-6.40441017166482e-05,0.009397298664790301,-4.05413934980179e-08,9.826779270240264
0.736,0,4,1,0.5729386976839008,13.177590046729716,0.0,5,160,9,1,0,0,0,0.0,5.0,5.0,-0.5614999301931598,0.0596004219009876,-6.403088108049466e-05,0.006347055092672389,-3.522165546016326e-08,9.793391614564344
0.768,0,4,1,0.5729386976839008,13.750528744413616,0.0,5,160,9,1,0,0,0,0.0,5.0,5.0,-0.5614999268956973,0.05640042251129514,-6.401976063039397e-05,0.0030223601694032653,-3.020606453757816e-08,9.824292776736502
0.8,0,4,1,0.5729386976839008,14.323467442097517,0.0,5,160,9,1,0,0,0,0.0,5.0,5.0,-0.5614999236011319,0.053200422990435633,-6.400920314737941e-05,-0.0005012157431210428,-2.5083580714192456e-08,9.871987924104705
0.8320000000000001,0,4,1,0.5729386976839008,14.896406139781417,0.0,5,160,9,1,0,0,0,0.0,5.0,5.0,-0.5614999203089581,0.05000042336261207,-6.399836990888218e-05,-0.004009928973779974,-2.0316713447186105e-08,9.842130225073129
0.864,0,4,1,0.5729386976839008,15.469344837465318,0.0,5,160,9,1,0,0,0,0.0,5.0,5.0,-0.5614999170188961,0.046800423647697806,-6.398715177421618e-05,-0.007274718149059493,-1.5480144288172384e-08,9.818117959090024
0.896,0,4,1,0.5729386976839008,16.04228353514922,0.0,5,160,9,1,0,0,0,0.0,5.0,5.0,-0.5614999137308418,0.04360042386262385,-6.397606188326792e-05,-0.010117939403941362,-1.0798728723442789e-08,9.798244419080142
0.928,0,4,1,0.5729386976839008,16.615222232833123,0.0,5,160,9,1,0,0,0,0.0,5.0,5.0,-0.5614999104448248,0.04040042402227922,-6.396600855207955e-05,-0.012394252204373563,-6.078879749617827e-09,9.803387066811807
0.96,0,4,1,0.5729386976839008,17.188160930517025,0.0,5,160,9,1,0,0,0,0.0,5.0,5.0,-0.5614999071609705,0.037200424139858274,-6.395799648114056e-05,-0.013805832548634782,-1.514545870802604e-09,9.804797938744171
0.992,0,4,1,0.5729386976839008,17.761099628200927,0.0,5,160,9,1,0,0,0,0.0,5.0,5.0,-0.5614999038794669,0.03400042422677503,-6.395282231056246e-05,-0.014388650427297749,2.886997126897534e-09,9.814858953481178
1.024,0,4,1,0.5729386976839008,18.33403832588483,0.0,5,160,9,1,0,0,0,0.0,5.0,5.0,-0.5614999006005357,0.030800424292410634,-6.395083274366581e-05,-0.014277393017682546,7.065581263027433e-09,9.866016619403604
1.056,0,4,1,0.5729386976839008,18.906977023568732,0.0,5,160,9,1,0,0,0,0.0,5.0,5.0,-0.561499897324408,0.02760042434398546,-6.395179941958394e-05,-0.013221186550374919,1.0950427920075319e-08,9.76519661198964
1.088,0,4,1,0.5729386976839008,19.479915721252635,0.0,5,160,9,1,0,0,0,0.0,5.0,5.0,-0.5614998940513015,0.02440042438673996,-6.39549377922221e-05,-0.011326875681153406,1.444125333829888e-08,9.856217052700977
1.12,0,4,1,0.5729386976839008,20.052854418936537,0.0,5,160,9,1,0,0,0,0.0,5.0,5.0,-0.561499890781403,0.02120042442441545,-6.395906383322922e-05,-0.008867893087040835,1.7510243312076274e-08,9.83342011256429
1.1520000000000001,0,4,1,0.5729386976839008,20.62579311662044,0.0,5,160,9,1,0,0,0,0.0,5.0,5.0,-0.5614998875148549,0.018000424459852192,-6.396285029148206e-05,-0.005803084432736061,2.002506605861848e-08,9.846195099054597
1.184,0,4,1,0.5729386976839008,21.19873181430434,0.0,5,160,9,1,0,0,0,0.0,5.0,5.0,-0.5614998842517431,0.014800424495448394,-6.396512111652049e-05,-0.0024116848451275047,2.21266438364997e-08,9.84169737159434
1.216,0,4,1,0.5729386976839008,21.771670511988244,0.0,5,160,9,1,0,0,0,0.0,5.0,5.0,-0.5614998809920887,0.011600424533291432,-6.39651138749156e-05,0.0011293548804794972,2.3469045405185252e-08,9.814322239991446
1.248,0,4,1,0.5729386976839008,22.344609209672146,0.0,5,160,9,1,0,0,0,0.0,5.0,5.0,-0.5614998777358431,0.008400424574942592,-6.396264771248855e-05,0.00461072017378888,2.41389742684979e-08,9.802104087875644
1.28,0,4,1,0.5729386976839008,22.91754790735605,0.0,5,160,9,1,0,0,0,0.0,5.0,5.0,-0.5614998744828854,0.005200424621038428,-6.395815677796325e-05,0.0078101250713614985,2.449718889603095e-08,9.793644707087081
1.312,0,4,1,0.5729386976839008,23.49048660503995,0.0,5,160,9,1,0,0,0,0.0,5.0,5.0,-0.5614998712330227,0.002000424670974257,-6.395258078111671e-05,0.010583725950425124,2.406246037153221e-08,9.809409477396922
1.344,0,4,1,0.5729386976839008,24.063425302723854,0.0,5,160,9,1,0,0,0,0.0,5.0,5.0,-0.5614998679859923,-0.0011995752771011055,-6.394713807573657e-05,0.012594960842786386,2.273333369229064e-08,9.770079951550262
1.3760000000000001,0,4,1,0.5729386976839008,24.636364000407756,0.0,5,160,9,1,0,0,0,0.0,5.0,5.0,-0.5614998647414673,-0.004399575225904447,-6.394303435097205e-05,0.013998867841037637,2.1046919714567947e-08,9.756498166995971
1.408,0,4,1,0.5729386976839008,25.20930269809166,0.0,5,160,9,1,0,0,0,0.0,5.0,5.0,-0.5614998614990627,-0.007599575178370617,-6.39411752436786e-05,0.014494245866077365,1.8905817681054484e-08,9.8116494893621
1.44,0,4,1,0.5729386976839008,25.78224139577556,0.0,5,160,9,1,0,0,0,0.0,5.0,5.0,-0.5614998582583437,-0.010799575136993731,-6.394195028550272e-05,0.014142099874391164,1.6169683402965982e-08,9.842614134703908
1.472,0,4,1,0.5729386976839008,26.355180093459463,0.0,5,160,9,1,0,0,0,0.0,5.0,5.0,-0.5614998550188365,-0.013999575103418082,-6.394513887177447e-05,0.012963282644996042,1.2911889720952622e-08,9.80854933698748
1.504,0,4,1,0.5729386976839008,26.928118791143365,0.0,5,160,9,1,0,0,0,0.0,5.0,5.0,-0.5614998517800387,-0.017199575078416556,-6.394996024770144e-05,0.010959194668298746,9.436808071535592e-09,9.81020160951234
1.536,0,4,1,0.5729386976839008,27.501057488827268,0.0,5,160,9,1,0,0,0,0.0,5.0,5.0,-0.5614998485414318,-0.020399575062200068,-6.395525566192488e-05,0.008381266984079178,5.732508788136799e-09,9.808351160914752
1.568,0,4,1,0.5729386976839008,28.07399618651117,0.0,5,160,9,1,0,0,0,0.0,5.0,5.0,-0.5614998453024931,-0.023599575054842493,-6.395975975242996e-05,0.005241800378595646,1.8340605499063155e-09,9.81666783788571
1.6,0,4,1,0.5729386976839008,28.646934884195073,0.0,5,160,9,1,0,0,0,0.0,5.0,5.0,-0.56149984206271,-0.026799575056558424,-6.396239726060363e-05,0.001803828756005321,-2.1043213799024456e-09,9.799626749955513
1.6320000000000001,0,4,1,0.5729386976839008,29.219873581878975,0.0,5,160,9,1,0,0,0,0.0,5.0,5.0,-0.5614998388215915,-0.029999575067662813,-6.396253521326854e-05,-0.0017432621841665494,-6.001117983532815e-09,9.7785648074014
1.6640000000000001,0,4,1,0.5729386976839008,29.792812279562877,0.0,5,160,9,1,0,0,0,0.0,5.0,5.0,-0.5614998355786815,-0.03319957508822184,-6.396013120858399e-05,-0.00518415471432646,-9.747702895841778e-09,9.828376039867608
1.696,0,4,1,0.5729386976839008,30.36575097724678,0.0,5,160,9,1,0,0,0,0.0,5.0,5.0,-0.5614998323335703,-0.03639957511758049,-6.395574288533233e-05,-0.008307803686029465,-1.3291046261459375e-08,9.807045167312875
1.728,0,4,1,0.5729386976839008,30.938689674930682,0.0,5,160,9,1,0,0,0,0.0,5.0,5.0,-0.5614998290859045,-0.039599575154032736,-6.395039632426693e-05,-0.010986160934369845,-1.642774584713405e-08,9.857422750688492
1.76,0,4,1,0.5729386976839008,31.511628372614584,0.0,5,160,9,1,0,0,0,0.0,5.0,5.0,-0.5614998258353968,-0.04279957519484017,-6.394534431956173e-05,-0.012884255637442544,-1.9068346765328368e-08,9.834471764133466
1.792,0,4,1,0.5729386976839008,32.08456707029848,0.0,5,160,9,1,0,0,0,0.0,5.0,5.0,-0.5614998225818327,-0.04599957523663863,-6.394177138177234e-05,-0.014025298841083056,-2.1351417517113367e-08,9.79180567142185
1.824,0,4,1,0.5729386976839008,32.657505767982386,0.0,5,160,9,1,0,0,0,0.0,5.0,5.0,-0.5614998193250775,-0.049199575276080154,-6.394051485589074e-05,-0.01451254973932538,-2.3036637593179376e-08,9.817250778376783
1.856,0,4,1,0.5729386976839008,33.23044446566629,0.0,5,160,9,1,0,0,0,0.0,5.0,5.0,-0.5614998160650773,-0.05239957531044254,-6.394186775657631e-05,-0.014005838943766225,-2.4219244529207794e-08,9.803643513848275
1.8880000000000001,0,4,1,0.5729386976839008,33.80338316335019,0.0,5,160,9,1,0,0,0,0.0,5.0,5.0,-0.5614998128018616,-0.05559957533795771,-6.394550970200384e-05,-0.01265289244598649,-2.4768903550777007e-08,9.777833496627304
1.92,0,4,1,0.5729386976839008,34.37632186103409,0.0,5,160,9,1,0,0,0,0.0,5.0,5.0,-0.5614998095355427,-0.05879957535775121,-6.395058218095807e-05,-0.010607510548958636,-2.450322875165095e-08,9.815104935470295
1.952,0,4,1,0.5729386976839008,34.949260558717995,0.0,5,160,9,1,0,0,0,0.0,5.0,5.0,-0.5614998062663115,-0.06199957536948246,-6.395589044813806e-05,-0.00783778858709809,-2.3924440741803964e-08,9.807018169004797
1.984,0,4,1,0.5729386976839008,35.5221992564019,0.0,5,160,9,1,0,0,0,0.0,5.0,5.0,-0.561499802994433,-0.06519957537291841,-6.39601845383482e-05,-0.004670066351250726,-2.2575258933403006e-08,9.818226200865189
2.016,0,4,1,0.5729386976839008,36.0951379540858,0.0,5,160,9,1,0,0,0,0.0,5.0,5.0,-0.5614997997202397,-0.06839957536769638,-6.396245328825316e-05,-0.001185297278143172,-2.0621989347480246e-08,9.813596527535342
2.048,0,4,1,0.5729386976839008,36.6680766517697,0.0,5,160,9,1,0,0,0,0.0,5.0,5.0,-0.5614997964441222,-0.07159957535341886,-6.396216218748467e-05,0.0023557713889526895,-1.8084121315274468e-08,9.743722280097188
2.08,0,4,1,0.5729386976839008,37.241015349453605,0.0,5,160,9,1,0,0,0,0.0,5.0,5.0,-0.5614997931665199,-0.07479957533003734,-6.395937909942778e-05,0.005733207523652034,-1.531100962934139e-08,9.803544601345296
2.112,0,4,1,0.5729386976839008,37.81395404713751,0.0,5,160,9,1,0,0,0,0.0,5.0,5.0,-0.5614997898879092,-0.0779995752983149,-6.395475827308296e-05,0.008870932510872237,-1.1951919628429613e-08,9.78631272254123
2.144,0,4,1,0.5729386976839008,38.38689274482141,0.0,5,160,9,1,0,0,0,0.0,5.0,5.0,-0.5614997866087917,-0.08119957526010343,-6.394938640162662e-05,0.011399817253518262,-8.366885203073928e-09,9.76003501122431
2.176,0,4,1,0.5729386976839008,38.95983144250531,0.0,5,160,9,1,0,0,0,0.0,5.0,5.0,-0.5614997833296823,-0.08439957521825153,-6.394452694747851e-05,0.013202554226010604,-4.573801974284774e-09,9.78978151228505
2.208,0,4,1,0.5729386976839008,39.532770140189214,0.0,5,160,9,1,0,0,0,0.0,5.0,5.0,-0.5614997800510949,-0.08759957517613916,-6.394132288659211e-05,0.01424217467231109,-6.374062363881609e-10,9.81079082910964
2.24,0,4,1,0.5729386976839008,40.10570883787312,0.0,5,160,9,1,0,0,0,0.0,5.0,5.0,-0.561499776773531,-0.09079957512445888,-6.394026371599713e-05,0.014297746936759384,2.3032302328483246e-09,9.808067321134986
2.2720000000000002,0,4,1,0.5729386976839008,40.67864753555702,0.0,5,160,9,1,0,0,0,0.0,5.0,5.0,-0.5614997734974626,-0.09399957509373916,-6.394285494270777e-05,0.013396999783789797,6.342751128924495e-09,9.792022169317102
2.3040000000000003,0,4,1,0.5729386976839008,41.25158623324092,0.0,5,160,9,1,0,0,0,0.0,5.0,5.0,-0.5614997702233271,-0.09719957507016388,-6.394733345879006e-05,0.011718902609831218,1.0164289744692758e-08,9.78319752115405
2.336,0,4,1,0.5729386976839008,41.824524930924824,0.0,5,160,9,1,0,0,0,0.0,5.0,5.0,-0.5614997669515158,-0.10039957505434718,-6.395268567343203e-05,0.009321084038982302,1.3752449169786451e-08,9.782219931819656
2.368,0,4,1,0.5729386976839008,42.397463628608726,0.0,5,160,9,1,0,0,0,0.0,5.0,5.0,-0.5614997636823611,-0.10359957504656542,-6.395768598465613e-05,0.0064037443705596735,1.686233474625487e-08,9.781480983573813
2.4,0,4,1,0.5729386976839008,42.97040232629263,0.0,5,160,9,1,0,0,0,0.0,5.0,5.0,-0.5614997604161273,-0.10679957504711436,-6.396118488711036e-05,0.0030957561590343238,1.9449723491080004e-08,9.818985621986439
2.432,0,4,1,0.5729386976839008,43.54334102397653,0.0,5,160,9,1,0,0,0,0.0,5.0,5.0,-0.5614997571530045,-0.1099995750564026,-6.39623807471134e-05,-0.00040109413469243657,2.167318373314779e-08,9.788856233898812
2.464,0,4,1,0.5729386976839008,44.11627972166043,0.0,5,160,9,1,0,0,0,0.0,5.0,5.0,-0.5614997538931032,-0.11319957507471788,-6.396100946956008e-05,-0.0038715139271956536,2.3354921124922243e-08,9.856291332643234
2.496,0,4,1,0.5729386976839008,44.689218419344336,0.0,5,160,9,1,0,0,0,0.0,5.0,5.0,-0.5614997506364514,-0.1163995751017905,-6.395740748464142e-05,-0.007181071721842924,2.428871738770223e-08,9.827494397228355
2.528,0,4,1,0.5729386976839008,45.26215711702824,0.0,5,160,9,1,0,0,0,0.0,5.0,5.0,-0.5614997473829932,-0.11959957513639592,-6.39524332798052e-05,-0.009935573447113369,2.476190423319308e-08,9.802006984029875
2.56,0,4,1,0.5729386976839008,45.83509581471214,0.0,5,160,9,1,0,0,0,0.0,5.0,5.0,-0.5614997441325921,-0.12279957517623548,-6.394726597286869e-05,-0.01223711152115396,2.44360959339492e-08,9.85149060344736
2.592,0,4,1,0.5729386976839008,46.40803451239604,0.0,5,160,9,1,0,0,0,0.0,5.0,5.0,-0.561499740885032,-0.12599957521820113,-6.394312834222607e-05,-0.013682115740117098,2.3426448232456014e-08,9.818184525444687
2.624,0,4,1,0.5729386976839008,46.980973210079945,0.0,5,160,9,1,0,0,0,0.0,5.0,5.0,-0.5614997376400247,-0.1291995752589439,-6.394099949883977e-05,-0.014357913438030744,2.1822949347533045e-08,9.797996697392747
2.656,0,4,1,0.5729386976839008,47.55391190776385,0.0,5,160,9,1,0,0,0,0.0,5.0,5.0,-0.5614997343972171,-0.13239957529551397,-6.394138481585591e-05,-0.01415991380605437,1.9789363895392754e-08,9.819608571605077
2.688,0,4,1,0.5729386976839008,48.12685060544775,0.0,5,160,9,1,0,0,0,0.0,5.0,5.0,-0.5614997311561996,-0.13559957532580763,-6.394419725672291e-05,-0.01309666819820278,1.7150642413491333e-08,9.833366648293595
2.72,0,4,1,0.5729386976839008,48.69978930313165,0.0,5,160,9,1,0,0,0,0.0,5.0,5.0,-0.5614997279165174,-0.13879957534865517,-6.394877803047282e-05,-0.011345673766282248,1.4065114394555635e-08,9.794067185883247
2.7520000000000002,0,4,1,0.5729386976839008,49.272728000815555,0.0,5,160,9,1,0,0,0,0.0,5.0,5.0,-0.5614997246776817,-0.14199957536356297,-6.395405172697141e-05,-0.008887565724174009,1.0699483381065231e-08,9.788758333853433
2.7840000000000003,0,4,1,0.5729386976839008,49.84566669849946,0.0,5,160,9,1,0,0,0,0.0,5.0,5.0,-0.5614997214391833,-0.14519957537029593,-6.395877943877158e-05,-0.0058520267475887094,7.09603492014917e-09,9.839730562978826
2.816,0,4,1,0.5729386976839008,50.41860539618336,0.0,5,160,9,1,0,0,0,0.0,5.0,5.0,-0.561499718200504,-0.14839957536855466,-6.396185032641992e-05,-0.002493362931123276,3.2582807681608338e-09,9.769878862292586
2.848,0,4,1,0.5729386976839008,50.99154409386726,0.0,5,160,9,1,0,0,0,0.0,5.0,5.0,-0.5614997149611325,-0.15159957535794194,-6.396254303621743e-05,0.0010207645022156427,-6.834796011263956e-10,9.80414576823206
2.88,0,4,1,0.5729386976839008,51.564482791551164,0.0,5,160,9,1,0,0,0,0.0,5.0,5.0,-0.5614997117205739,-0.15479957533824598,-6.39606954724193e-05,0.004458899765658108,-4.595240661842259e-09,9.791723975464272
2.912,0,4,1,0.5729386976839008,52.13742148923507,0.0,5,160,9,1,0,0,0,0.0,5.0,5.0,-0.5614997084783638,-0.15799957530989026,-6.39567429845285e-05,0.007645820513274791,-8.42708989970825e-09,9.805662943912726
2.944,0,4,1,0.5729386976839008,52.71036018691897,0.0,5,160,9,1,0,0,0,0.0,5.0,5.0,-0.5614997052340807,-0.16119957527429732,-6.395161598391624e-05,0.010388487259990871,-1.20019711152947e-08,9.827811078945352
2.976,0,4,1,0.5729386976839008,53.28329888460287,0.0,5,160,9,1,0,0,0,0.0,5.0,5.0,-0.5614997019873549,-0.16439957523394386,-6.394652108798402e-05,0.012524707780619862,-1.5229628190439707e-08,9.837025692773032
3.008,0,4,1,0.5729386976839008,53.856237582286774,0.0,5,160,9,1,0,0,0,0.0,5.0,5.0,-0.5614996987378794,-0.1675995751920321,-6.394265727113074e-05,0.013839586611988726,-1.8123561863834676e-08,9.813173755706613
3.04,0,4,1,0.5729386976839008,54.429176279970676,0.0,5,160,9,1,0,0,0,0.0,5.0,5.0,-0.5614996954854156,-0.17079957515188923,-6.394093381317106e-05,0.014340307031875056,-2.0685802645963125e-08,9.791430222526811
3.072,0,4,1,0.5729386976839008,55.00211497765458,0.0,5,160,9,1,0,0,0,0.0,5.0,5.0,-0.5614996922298007,-0.1739995751163436,-6.394175639772015e-05,0.013913794225006002,-2.2628851721908333e-08,9.860122667338404
3.104,0,4,1,0.5729386976839008,55.57505367533848,0.0,5,160,9,1,0,0,0,0.0,5.0,5.0,-0.5614996889709516,-0.17719957508733306,-6.394493168256944e-05,0.012894710496313707,-2.3899111575672122e-08,9.744941462005277
3.136,0,4,1,0.5729386976839008,56.14799237302238,0.0,5,160,9,1,0,0,0,0.0,5.0,5.0,-0.5614996857088669,-0.18039957506588478,-6.394971280002625e-05,0.010976363398105468,-2.463044726977517e-08,9.762997095417445
3.168,0,4,1,0.5729386976839008,56.720931070706285,0.0,5,160,9,1,0,0,0,0.0,5.0,5.0,-0.5614996824436279,-0.18359957505241775,-6.395497507349565e-05,0.008395228254466638,-2.46316837748502e-08,9.78919932373532
3.2,0,4,1,0.5729386976839008,57.29386976839019,0.0,5,160,9,1,0,0,0,0.0,5.0,5.0,-0.5614996791753957,-0.18679957504716277,-6.395948062006343e-05,0.005262655359751777,-2.4338458316870688e-08,9.804520304946838
3.232,0,4,1,0.5729386976839008,57.86680846607409,0.0,5,160,9,1,0,0,0,0.0,5.0,5.0,-0.5614996759044071,-0.18999957505044446,-6.396216958222921e-05,0.0018853980126697784,-2.2968304777943228e-08,9.832729274826546
3.2640000000000002,0,4,1,0.5729386976839008,58.43974716375799,0.0,5,160,9,1,0,0,0,0.0,5.0,5.0,-0.5614996726309703,-0.1931995750626563,-6.396240947618287e-05,-0.001634481508584664,-2.137124179990352e-08,9.783436458266033
3.2960000000000003,0,4,1,0.5729386976839008,59.012685861441895,0.0,5,160,9,1,0,0,0,0.0,5.0,5.0,-0.5614996693554567,-0.19639957508393285,-6.396014399205271e-05,-0.005021970176665292,-1.9017474905526458e-08,9.815538048941338
3.3280000000000003,0,4,1,0.5729386976839008,59.5856245591258,0.0,5,160,9,1,0,0,0,0.0,5.0,5.0,-0.5614996660782898,-0.199599575113696,-6.395590623872044e-05,-0.00821966012981312,-1.6310252811673685e-08,9.814685693058916
3.36,0,4,1,0.5729386976839008,60.1585632568097,0.0,5,160,9,1,0,0,0,0.0,5.0,5.0,-0.5614996627999363,-0.202799575150332,-6.395069331994671e-05,-0.010781141837143585,-1.3133250288583337e-08,9.787705652010617
3.392,0,4,1,0.5729386976839008,60.7315019544936,0.0,5,160,9,1,0,0,0,0.0,5.0,5.0,-0.5614996595208933,-0.20599957519120346,-6.394573174658448e-05,-0.01270997945233294,-9.620447840501365e-09,9.77246702848391
3.424,0,4,1,0.5729386976839008,61.304440652177504,0.0,5,160,9,1,0,0,0,0.0,5.0,5.0,-0.5614996562416753,-0.2091995752330392,-6.394218887968012e-05,-0.014086827591912595,-5.850813264491052e-09,9.751237718218245
3.456,0,4,1,1.1457628381751443,62.45020349035265,0.5728241404912435,5,160,9,1,0,0,0,0.0,5.0,5.0,-0.561499652962802,-0.2123995752725584,-6.394089828957311e-05,-0.014361783085802536,-1.9355681792508613e-09,9.827920808828024
3.488,0,4,1,1.7183580016555007,64.16856149200815,0.5725951634803563,5,160,9,1,0,0,0,0.0,5.0,5.0,-0.5614996496847836,-0.21559957530707038,-6.394216364606457e-05,-0.013825688697913585,2.0129070168252988e-09,9.8346622010278
3.52,0,4,1,2.862405226111651,67.0309667181198,1.1440472244561504,5,160,9,1,0,0,0,0.0,5.0,5.0,-0.5614996464081082,-0.21879957533480643,-6.394568727567836e-05,-0.01251805692062159,5.876732887341478e-09,9.795231255328694
3.552,0,4,1,4.573921259900898,71.6048879780207,1.7115160337892465,5,160,9,1,0,0,0,0.0,5.0,5.0,-0.561499643133229,-0.22199957535487455,-6.395064019292657e-05,-0.010556514405868666,9.680098381503591e-09,9.800879779327488
3.584,0,4,1,6.277298489597548,77.88218646761825,1.7033772296966507,5,160,9,1,0,0,0,0.0,5.0,5.0,-0.5614996398605531,-0.22519957536691826,-6.395585713364627e-05,-0.00782952673174009,1.3161407531442768e-08,9.803929739215164
3.616,0,4,1,9.090276920822312,86.97246338844056,2.8129784312247637,5,160,9,1,0,0,0,0.0,5.0,5.0,-0.5614996365904316,-0.22839957537070338,-6.39601107005252e-05,-0.004709608387189129,1.631453265587299e-08,9.834536208039207
3.648,0,4,1,11.309932474020227,98.28239586246079,2.2196555531979154,5,160,9,1,0,0,0,0.0,5.0,5.0,-0.5614996333231492,-0.23159957536588158,-6.396240013012422e-05,-0.001263490330844058,1.904323068327777e-08,9.83277321920158
3.68,0,4,1,14.574216198038746,112.85661206049953,3.2642837240185187,5,160,9,1,0,0,0,0.0,5.0,5.0,-0.5614996300589191,-0.23479957535207432,-6.396218673917695e-05,0.002244914467594097,2.13369183260341e-08,9.79176015423947
3.712,0,4,1,18.262889942194125,131.11950200269365,3.6886737441553787,5,160,9,1,0,0,0,0.0,5.0,5.0,-0.5614996267978777,-0.23799957532923938,-6.395952066426229e-05,0.005616918268388885,2.3030251757884757e-08,9.816746488611413
3.744,0,4,1,21.80140948635181,152.92091148904547,3.538519544157687,5,160,9,1,-1,-1,-1,-0.0595,4.9405,5.0595,-0.5614996235400789,-0.24119957529812064,-6.395502906795907e-05,0.008618410955649556,2.4246690706766196e-08,9.837548707839492
3.7760000000000002,0,4,1,25.641005824305285,178.56191731335076,3.8395963379534734,5,160,9,1,-1,-2,0,-0.060000000000000005,4.94,5.06,-0.5614995940682999,-0.24439957522914582,-6.394976840654737e-05,0.011217796047360326,2.6487988508599695e-05,9.823168304714017
3.8080000000000003,0,4,1,28.810793742973065,207.37271105632382,3.1697879186677795,5,160,9,1,-3,-5,-2,-0.18400000000000002,4.816,5.184,-0.5614948472928107,-0.24759958596956244,-6.394620313608657e-05,0.012960566758416994,0.0046019926155801225,9.793326790086043
3.84,0,4,1,31.798912824294433,239.17162388061826,2.9881190813213685,5,160,9,1,-4,-9,-1,-0.2495,4.7505,5.2495,-0.5614853042072505,-0.25079962703793274,-6.39503432963446e-05,0.014044393250998145,0.004756157134818971,9.808748109920694
3.872,0,4,1,34.99202019855866,274.16364407917695,3.1931073742642297,5,160,9,1,-6,-15,-2,-0.38400000000000006,4.616,5.384,-0.5614612489330485,-0.2539997484119367,-6.397879991635637e-05,0.014292818959239359,0.014337100941692592,9.815414721900119
3.904,0,4,1,37.95423087513251,312.11787495430946,2.9622106765738465,5,160,9,1,-7,-22,-1,-0.4645,4.5355,5.4645,-0.5614175982341116,-0.2571999754466526,-6.407494212566645e-05,0.013630410969808831,0.019542738237052045,9.805610885989031
3.936,0,4,1,41.023269024922435,353.1411439792319,3.0690381497899253,5,160,9,1,-8,-30,-1,-0.5545,4.4455,5.5545,-0.5613439656499053,-0.2604001675252409,-6.429655623134585e-05,0.012424577706271745,0.03009225717798911,9.791500679319237
3.968,0,4,1,42.92282523483718,396.06396921406906,1.899556209914742,5,160,9,1,-9,-39,-1,-0.6495,4.3505,5.6495,-0.5612342984549572,-0.26359996040707157,-6.472299371288251e-05,0.010307757977212118,0.0366785191753647,9.765454735737418
4.0,0,4,1,44.71208393344291,440.77605314751196,1.7892586986057353,5,160,9,1,-10,-49,-1,-0.7494999999999999,4.2505,5.7495,-0.5610818844883312,-0.26679876701571886,-6.543919268862594e-05,0.007625444382072858,0.04415672826076293,9.778516275256443
4.032,0,4,1,45.85509739626673,486.6311505437787,1.1430134628238164,5,160,9,1,-11,-60,-1,-0.8545,4.1455,5.8545,-0.5608797612100573,-0.2699957153228425,-6.653510324626868e-05,0.004309016594927654,0.05201882623759142,9.815248426753332
4.064,0,4,1,46.68468431789629,533.315834861675,0.8295869216295628,5,160,9,1,-12,-72,-1,-0.9645,4.0355,5.9645,-0.5606206769079264,-0.2731895835879502,-6.810412353341726e-05,0.00042807546531124633,0.061070425585400906,9.809453157952502
4.096,0,4,1,47.489552921999156,580.8053877836741,0.8048686041028645,5,160,9,1,-12,-84,0,-1.02,3.98,6.02,-0.5602966665409245,-0.2763807988762654,-7.024205030721313e-05,-0.0016110532798355637,0.0706531851611721,9.807221352942188
4.128,0,4,1,48.01278750418334,628.8181752878575,0.5232345821841875,5,160,9,1,-13,-97,-1,-1.1395,3.8605,6.1395,-0.5598993752686472,-0.2795623868986529,-7.290959104212791e-05,-0.0028968402611670306,0.08100761063790361,9.787041285883191
4.16,0,4,1,49.06631877480598,677.8844940626634,1.053531270622635,5,160,9,1,-13,-110,0,-1.2000000000000002,3.8,6.2,-0.5594249341882496,-0.28273649712388155,-7.631263834927647e-05,0.005082062106266825,0.08730593683546362,9.823676032636122
4.192,0,4,1,49.80795396303047,727.6924480256939,0.7416351882244925,5,160,9,1,-13,-123,0,-1.2650000000000001,3.735,6.265000000000001,-0.5588648508595263,-0.2859001410717905,-8.032317262220666e-05,0.009751140851927069,0.0985644822343533,9.813025583860288
4.224,0,4,1,50.29008120537127,777.9825292310652,0.48212724234080184,5,160,9,1,-12,-135,1,-1.2705000000000002,3.7295,6.2705,-0.5582443100029411,-0.28889958879224126,-8.14222398480089e-05,-0.14064046734584684,0.11018752052082793,9.79619090443341
4.256,0,4,1,49.398705354995535,827.3812345860607,-0.8913758503757379,5,160,9,1,-25,-160,-13,-2.1085,2.8915,6.28,-0.5577300718186043,-0.2910190711434652,-8.278572523358341e-05,-0.8579021073264025,0.10172223254922722,9.816410960539155
4.288,0,4,1,48.43363036245053,875.8148649485113,-0.9650749925450057,5,160,9,1,-38,-198,-13,-2.9485,2.0515,6.28,-0.557372516535804,-0.2924786962137564,-8.49754844653057e-05,-0.6603446756353427,0.0008355879871510125,9.838536350483334
4.32,0,4,1,47.36137465817562,923.1762396066869,-1.0722557042749088,5,160,9,1,-48,-246,-10,-3.6750000000000003,1.3249999999999997,6.28,-0.5571304652820286,-0.29353384801561405,-8.718624190834877e-05,-0.40799873625261823,-0.013555258791711405,9.856427589691293
4.352,0,4,1,47.950779109006355,971.1270187156932,0.5894044508307346,5,160,9,1,-48,-294,0,-3.87,1.13,6.28,-0.5568890234569356,-0.2947014968273076,-8.864205589225078e-05,0.10805570156148735,-0.0037702847981335476,9.791871581631682
4.384,0,4,1,49.9937439858234,1021.1207627015166,2.042964876817045,5,160,9,1,-33,-327,15,-3.2175000000000002,1.7824999999999998,6.28,-0.5563995930501373,-0.29701612466183586,-8.897056082534348e-05,1.1392267942969057,-0.04163586778867254,9.81007227110139
4.416,0,4,1,51.45881637871865,1072.5795790802351,1.4650723928952516,5,160,9,1,-23,-350,10,-2.8550000000000004,2.1449999999999996,6.28,-0.5557073418268621,-0.2995143600352702,-8.877615945382562e-05,0.23366511690104053,0.15028901211957799,9.850047327097633
4.448,0,4,1,52.76516601842533,1125.3447450986605,1.3063496397066814,5,160,9,1,-14,-364,9,-2.4795,2.5205,6.28,-0.5548548332199104,-0.3020470872666359,-8.949385564377757e-05,0.08842337592853765,0.15097622216111686,9.835824865179193
4.48,0,4,1,52.38604315126727,1177.7307882499279,-0.37912286715805976,5,160,9,1,-22,-386,-8,-3.0660000000000003,1.9339999999999997,6.28,-0.5542467490609022,-0.30354389305059976,-9.141771482087252e-05,-1.0320653497165098,0.1549133373932145,9.71113817723717
4.5120000000000005,0,4,1,51.581944655178006,1229.3127329051058,-0.8040984960892672,5,160,9,1,-33,-419,-11,-3.7945,1.2054999999999998,6.28,-0.5538796805486953,-0.30437203687257874,-9.443403252919896e-05,-0.6943162856531897,0.02351650887326466,9.880935111653672
4.5440000000000005,0,4,1,50.84892164592896,1280.1616545510349,-0.7330230092490453,5,160,9,1,-40,-459,-7,-4.3265,0.6734999999999998,6.28,-0.5536529065071029,-0.3048940603928061,-9.73016598407369e-05,-0.3281119969896926,-0.008397909071697544,9.816864527038344
4.5760000000000005,0,4,1,50.9061411137705,1331.0677956648053,0.057219467841541416,5,160,9,1,-43,-502,-3,-4.6735,0.32650000000000023,6.28,-0.5535243549414582,-0.3051858426903784,-9.90448991856005e-05,-0.24464871143833397,0.0040967849119438625,9.79959044369671
4.6080000000000005,0,4,1,51.155168343274006,1382.2229640080793,0.2490272295035041,5,160,9,1,-42,-544,1,-4.8155,0.1844999999999999,6.28,-0.5533773296918456,-0.3055636549453626,-9.936319812132652e-05,0.08483450760235164,0.00686097102712415,9.850092726428091
4.64,0,4,1,53.350752532331406,1435.5737165404107,2.1955841890573993,5,160,9,1,-21,-565,21,-3.7805,1.2195,6.28,-0.5526696113020495,-0.30748273671493037,-9.848257445293183e-05,1.5895551736693885,-0.09011908237799439,9.785479990787227
4.672,0,4,1,54.58294472353257,1490.1566612639433,1.2321921912011646,5,160,9,1,-5,-570,16,-3.028,1.972,6.28,-0.5517416805528823,-0.3095512455839216,-9.737380434623327e-05,0.22897847251009598,0.14054860833319277,9.774508487286456
4.704,0,4,1,55.850104629797386,1546.0067658937407,1.2671599062648156,5,160,9,1,6,-564,11,-2.4704999999999995,2.5295000000000005,6.28,-0.550551091092309,-0.31177884343294276,-9.75906523443381e-05,0.2648943193692164,0.15873253175429192,9.855495556569847
4.736,0,4,1,54.86580694308437,1600.8725728368252,-0.9842976867130133,5,160,9,1,-8,-572,-14,-3.323,1.677,6.28,-0.54993037194722,-0.31267028987817147,-0.00010046226890422089,-1.4057613073992454,0.17336725603478395,9.832928870074262
4.768,0,4,1,54.13017648227869,1655.002749319104,-0.7356304608056803,5,160,9,1,-19,-591,-11,-3.9545000000000003,1.0454999999999997,6.28,-0.5495723715504172,-0.3131729069834312,-0.00010307737030561433,-0.45796732023784786,-0.026142057840881083,9.847174806958847
4.8,0,4,1,53.350752532331406,1708.3535018514353,-0.7794239499472866,5,160,9,1,-27,-618,-8,-4.475999999999999,0.5240000000000009,6.28,-0.5493520792964973,-0.3134870621607062,-0.0001050274402040266,-0.2251828368213048,-0.013619778533452887,9.842611346992046
4.832,0,4,1,53.20470619156868,1761.558208043004,-0.14604634076272305,5,160,9,1,-30,-648,-3,-4.7535,0.24650000000000016,6.28,-0.5492238591380352,-0.3136760673584764,-0.00010547055879454176,-0.15003543726094826,-0.0037991556827034387,9.80320501136153
4.864,0,4,1,53.99925104583929,1815.5574590888432,0.7945448542706046,5,160,9,1,-22,-670,8,-4.414000000000001,0.5859999999999994,6.28,-0.5488454412204691,-0.31437241834311286,-0.00010433408086204382,0.5512313063587043,-0.00893170924478643,9.797115882109782
4.896,0,4,1,55.091057238888915,1870.648516327732,1.091806193049628,5,160,9,1,-2,-672,20,-3.37,1.63,6.28,-0.5478592014596786,-0.316148898348386,-0.00010225028671041053,1.2009113511560994,-0.060672404094107873,9.808598015299545
4.928,0,4,1,55.762537223142466,1926.4110535508746,0.6714799842535513,5,160,9,1,10,-662,12,-2.7560000000000002,2.2439999999999998,6.28,-0.5465319652492007,-0.3181661666363323,-0.00010060926854477646,0.38833148156853836,0.1452797206769284,9.801506798457746
4.96,0,4,1,55.85950323532199,1982.2705567861965,0.0969660121795215,5,160,9,1,16,-646,6,-2.4029999999999996,2.5970000000000004,6.28,-0.5450266251673398,-0.32015352875192854,-0.00010059309663052948,0.08709022805494122,0.1701655241246844,9.88180385262027
4.992,0,4,1,54.619727799698865,2036.8902845858954,-1.2397754356231232,5,160,9,1,0,-646,-16,-3.302,1.698,6.28,-0.5442924382547494,-0.32090993702547577,-0.00010312656165917776,-1.4170033659096815,0.15421319818725396,9.823648598240036
5.024,0,4,1,53.689750289139575,2090.580034875035,-0.92997751055929,5,160,9,1,-11,-657,-11,-3.8845,1.1155,6.28,-0.5438306130586402,-0.32139939256699446,-0.00010524058327131616,-0.3699493173696816,-0.03869533478448479,9.840666978324338
5.056,0,4,1,52.91416450904766,2143.4941993840825,-0.7755857800919159,5,160,9,1,-19,-676,-8,-4.366,0.6340000000000003,6.28,-0.5435205573027626,-0.3217397151626789,-0.00010655879978338154,-0.20644123385354352,-0.01422785756407918,9.790694170547354
5.088,0,4,1,52.47573738554823,2195.9699367696307,-0.43842712349943014,5,160,9,1,-23,-699,-4,-4.663,0.33699999999999974,6.28,-0.5433428391588108,-0.3219321677197055,-0.00010640044751593185,-0.19343623547108368,-0.0010394913531672407,9.788683467548926
5.12,0,4,1,53.408911732600714,2249.3788485022314,0.9331743470524856,5,160,9,1,-8,-707,15,-3.8675,1.1324999999999998,6.28,-0.5424766384436341,-0.32310973428732276,-0.0001047525234434462,1.1699797471504214,-0.06182774563208121,9.8486519780082
5.152,0,4,1,53.94758475481564,2303.326433257047,0.5386730222149225,5,160,9,1,6,-701,14,-3.142,1.858,6.28,-0.5410771979821938,-0.32484424595275746,-0.000102510656824319,0.7498239658631372,0.03397547132931384,9.80643998622207
5.184,0,4,1,54.14708038487515,2357.473513641922,0.19949563005951632,5,160,9,1,15,-686,9,-2.6395,2.3605,6.28,-0.5393817957695252,-0.32667452759180465,-0.00010124986960050042,0.272076546215414,0.15211885589385105,9.813995069998454
5.216,0,4,1,52.49585763972986,2409.969371281652,-1.65122274514529,5,160,9,1,0,-686,-15,-3.4975,1.5025,6.28,-0.5387087036714167,-0.327349115599139,-0.00010290645537799209,-1.5041681613990916,0.0941427044860875,9.838925774789034
5.248,0,4,1,51.170175095029606,2461.1395463766817,-1.325682544700257,5,160,9,1,-11,-697,-11,-4.0845,0.9154999999999998,6.28,-0.5382814478956797,-0.3277753016943478,-0.00010413327038268257,-0.33988883218295335,0.01153803552278818,9.862222822914784
5.28,0,4,1,50.241819946979554,2511.381366323661,-0.928355148050052,5,160,9,1,-17,-714,-6,-4.447,0.5529999999999999,6.28,-0.5380202411950199,-0.3280350661557859,-0.00010486282791195324,-0.23075933175624497,0.011167886487231783,9.864346509788513
5.312,0,4,1,49.76364169072618,2561.1450080143873,-0.47817825625337207,5,160,9,1,-20,-734,-3,-4.6834999999999996,0.31650000000000045,6.28,-0.5377909798918504,-0.32825455829026223,-0.00010443900804711637,-0.050701585579300455,0.02188326573786485,9.763185563595133
5.344,0,4,1,51.620776082314975,2612.765784096702,1.8571343915887937,5,160,9,1,1,-733,21,-3.5205,1.4794999999999998,6.28,-0.5364805979278845,-0.3296371400552451,-0.00010284627913762119,1.5554964115603074,-0.09919854628537561,9.792344383962265
5.376,0,4,1,50.42809718611073,2663.193881282813,-1.1926788962042423,5,160,9,1,13,-720,12,-2.8960000000000004,2.1039999999999996,6.28,-0.534747120415354,-0.3312341016440017,-0.00010112607135141262,0.4508797491514816,0.1165156381632601,9.832450783830826
5.408,0,4,1,48.742988295687134,2711.9368695785,-1.6851088904235993,5,160,9,1,22,-698,9,-2.3495,2.6505,6.28,-0.5327395955165063,-0.3328381245128031,-0.00010081790787221101,0.22018797663837117,0.16931964227782223,9.809849857555571
5.44,0,4,1,48.239700296102136,2760.176569874602,-0.5032879995849981,5,160,9,1,6,-692,-16,-3.232,1.7679999999999998,6.28,-0.5318379868377829,-0.3335146777397667,-0.00010316065854906395,-1.4076642843935607,0.07510858936375255,9.79119271943269
5.472,0,4,1,47.72631099390626,2807.9028808685084,-0.5133893021958755,5,160,9,1,-6,-698,-12,-3.844,1.1560000000000001,6.28,-0.5313067496715417,-0.3339371881831142,-0.00010516656807608299,-0.4353490751708975,-0.01334352701885653,9.805996667272959
5.5040000000000004,0,4,1,47.202598161765806,2855.105479030274,-0.523712832140454,5,160,9,1,-13,-711,-7,-4.2365,0.7634999999999996,6.28,-0.5309237282588775,-0.3342424800270644,-0.00010643767347460857,-0.18532764744908137,0.016462074185357178,9.855990962111022
5.5360000000000005,0,4,1,46.95568139752289,2902.061160427797,-0.24691676424291842,5,160,9,1,-18,-729,-5,-4.5675,0.4325000000000001,6.28,-0.5306702662761291,-0.33444475352935704,-0.00010627418329961849,-0.16236268104347398,0.015993188266548088,9.830858034894133
5.5680000000000005,0,4,1,46.12330271407542,2948.1844631418726,-0.832378683447466,5,160,9,1,-3,-732,15,-3.7425,1.2574999999999998,6.28,-0.5295005014484692,-0.3353918688049289,-0.00010465234578607013,1.1552558261244814,-0.03366433907645615,9.852454338266872
5.6000000000000005,0,4,1,44.421274434392245,2992.605737576265,-1.7020282796831765,5,160,9,1,13,-719,16,-2.873,2.127,6.28,-0.5276778861561502,-0.33674224461897184,-0.00010243878814833463,0.7490978634783688,0.0339117279664824,9.833932175082868
5.632,0,4,1,42.614055969611194,3035.219793545876,-1.8072184647810516,5,160,9,1,24,-695,11,-2.2255,2.7745,6.28,-0.5255027262396633,-0.33813946201562667,-0.00010115618694281,0.3221846194344872,0.14984429437518287,9.817687749252189
5.664,0,4,1,41.66908261954995,3076.888876165426,-0.9449733500612467,5,160,9,1,16,-679,-8,-2.631,2.369,6.28,-0.5239435370797668,-0.3389979048429301,-0.00010141551981018154,-0.7863862676688484,0.1712915932421122,9.84803295600163
5.696,0,4,1,41.023269024922435,3117.9121451903484,-0.6458135946275121,5,160,9,1,4,-675,-12,-3.2289999999999996,1.7710000000000004,6.28,-0.5230326004785617,-0.33953190613308554,-0.00010277207797871474,-0.7057713210931967,-0.03707158093627463,9.776899269116784
5.728,0,4,1,40.69553103949202,3158.6076762298403,-0.3277379854304172,5,160,9,1,-5,-680,-9,-3.6905,1.3094999999999999,6.28,-0.5223626645687579,-0.33994153539554167,-0.00010396137065778188,-0.26428410809073377,-0.0023239956449169433,9.800299273673268
5.76,0,4,1,40.36453657309736,3198.9722128029375,-0.3309944663946567,5,160,9,1,-12,-692,-7,-4.091500000000001,0.9084999999999992,6.28,-0.5218731525959888,-0.34024980335491034,-0.00010406597801840625,-0.20203879753747023,0.00778849066205578,9.831206304099334
5.792,0,4,1,39.00747255212105,3237.979685355059,-1.3570640209763098,5,160,9,1,1,-691,13,-3.3465000000000003,1.6534999999999997,6.28,-0.5204375580882183,-0.34114337987539406,-0.00010281176237993302,1.0836628341341505,-0.022681330635441775,9.819258076711412
5.824,0,4,1,37.95423087513251,3275.9339162301912,-1.0532416769885415,5,160,9,1,17,-674,16,-2.448,2.552,6.28,-0.5183478600588263,-0.342330609539136,-0.00010085009186595363,0.7000923456130566,0.04338931475872563,9.839654534142795
5.856,0,4,1,36.50144112050633,3312.4353573506974,-1.4527897546261812,5,160,9,1,28,-646,11,-1.7804999999999997,3.2195,6.28,-0.51589659160985,-0.34353124096214094,-9.95717246401219e-05,0.3306708241722267,0.14641750000929687,9.790698732508156
5.888,0,4,1,35.37475184387608,3347.8101091945737,-1.1266892766302448,5,160,9,1,30,-616,2,-1.5710000000000002,3.429,6.28,-0.5134798484602364,-0.3445540770221297,-9.951005726912404e-05,-0.09670456357721485,0.16484257704814345,9.83392563174383
5.92,0,4,1,34.605675551638576,3382.4157847462125,-0.7690762922375072,5,160,9,1,17,-599,-13,-2.2035,2.7965,6.28,-0.5119525774027516,-0.3451473954134581,-0.00010034804875999094,-0.9605189292200673,0.056815247511909854,9.766398161310331
5.952,0,4,1,33.82208521749396,3416.2378699637065,-0.7835903341446198,5,160,9,1,5,-594,-12,-2.774,2.226,6.28,-0.510747721497883,-0.34567700906468085,-0.00010145860871800874,-0.31337541979101396,-0.05471437668898618,9.797313672219612
5.984,0,4,1,33.02386755579664,3449.261737519503,-0.7982176616973149,5,160,9,1,-5,-599,-10,-3.29,1.71,6.28,-0.5098051936739187,-0.34611502732024135,-0.00010180256225490215,-0.2693786390248232,-0.009511095119202107,9.7497044786625
6.016,0,4,1,32.210927723673755,3481.472665243177,-0.8129398321228862,5,160,9,1,0,-599,5,-2.9725,2.0275,6.28,-0.5082870014296538,-0.3468182325692162,-0.00010088533497455004,0.6195542525496456,0.008641606167233926,9.801383166347545
6.048,0,4,1,30.96375653207352,3512.4364217752504,-1.2471711916002342,5,160,9,1,15,-584,15,-2.1025,2.8975,6.28,-0.505978477251004,-0.34784421794064047,-9.890676349368945e-05,0.8352027715206323,-0.002277042444250444,9.804560658116367
6.08,0,4,1,30.11373315098243,3542.550154926233,-0.8500233810910913,5,160,9,1,26,-558,11,-1.4405,3.5595,6.28,-0.5033188127857701,-0.34885084145279693,-9.697061539417316e-05,0.320389950324662,0.14325955465024062,9.801820325351184
6.112,0,4,1,29.683140179123296,3572.2332951053563,-0.43059297185913437,5,160,9,1,34,-524,8,-0.8839999999999999,4.116,5.884,-0.5003934869788307,-0.3498113771309763,-9.587538316348405e-05,0.23770246743186965,0.13340255852860294,9.795556447939168
6.144,0,4,1,28.369046293278583,3600.602341398635,-1.3140938858447129,5,160,9,1,37,-487,3,-0.5715,4.4285,5.5715,-0.497362337352159,-0.3506895257678173,-9.510294548609882e-05,0.07937083689651452,0.12077575771186896,9.848301141740388
6.176,0,4,1,27.474431626277134,3628.076773024912,-0.8946146670014485,5,160,9,1,34,-453,-3,-0.5784999999999999,4.4215,5.5785,-0.49446993809736534,-0.351442947273014,-9.411038087723915e-05,-0.16201189373484448,0.10158170016113457,9.848577847718023
6.208,0,4,1,26.565051177077994,3654.6418242019904,-0.9093804491991406,5,160,9,1,28,-425,-6,-0.7519999999999999,4.248,5.752,-0.49178913400333296,-0.35212451788884064,-9.30163190365485e-05,-0.21749773192610497,0.03353112169502094,9.821544276663483
6.24,0,4,1,25.641005824305285,3680.282830026296,-0.9240453527727084,5,160,9,1,20,-405,-8,-1.061,3.939,6.061,-0.48936763290724383,-0.35274989899506376,-9.203168657160969e-05,-0.2573904154806378,0.005878731659236253,9.822168774758815
6.272,0,4,1,24.702430227771313,3704.9852602540673,-0.9385755965339726,5,160,9,1,15,-390,-5,-1.2225,3.7775,6.2225,-0.48693224634462967,-0.353406969336349,-9.128193125086843e-05,0.02119471761554454,-0.005370128117509639,9.786110597492279
6.304,0,4,1,23.749494492866766,3728.734754746934,-0.9529357349045462,5,160,9,1,22,-368,7,-0.7085,4.2915,5.7085,-0.4839251272788077,-0.3542388001098271,-9.030588944650489e-05,0.5864631430292752,-0.012458062271255467,9.787031536103985
6.336,0,4,1,23.26770481005697,3752.0024595569907,-0.48178968280979717,5,160,9,1,24,-344,2,-0.5109999999999998,4.489,5.511,-0.48085865421534,-0.3549845144811947,-8.835216684241129e-05,0.03846552826442185,0.11478105351706326,9.799290403104537
6.368,0,4,1,22.293629159694085,3774.2960887166846,-0.9740756503628845,5,160,9,1,24,-320,0,-0.3999999999999999,4.6,5.4,-0.47776275377742755,-0.3556790055976823,-8.623739924611476e-05,0.017888262220460593,0.07458728461534074,9.84631197941923
6.4,0,4,1,21.305783617828766,3795.6018723345132,-0.9878455418653189,5,160,9,1,23,-297,-1,-0.33949999999999997,4.6605,5.3395,-0.4746566527989102,-0.3563350660646201,-8.410561781803383e-05,0.0025222843520045606,0.05828287779290649,9.82109111193833
6.432,0,4,1,20.304473709960448,3815.9063460444736,-1.0013099078683183,5,160,9,1,22,-275,-1,-0.2794999999999999,4.7205,5.2795,-0.47154088559795965,-0.35696101870815944,-8.203446680205874e-05,0.003828226596269093,0.04971194777549532,9.785742750184468
6.464,0,4,1,19.79887635452493,3835.7052223989986,-0.5055973554355191,5,160,9,1,21,-254,-1,-0.22449999999999998,4.7755,5.2245,-0.46841664860604065,-0.35756180226421225,-8.005010881391265e-05,0.0037519856735070576,0.0442598405690918,9.834139512723743
6.496,0,4,1,18.778033222445536,3854.483255621444,-1.020843132079392,5,160,9,1,19,-235,-2,-0.23399999999999999,4.766,5.234,-0.46528078111198307,-0.35814338936855034,-7.819097553636925e-05,0.007901765320163862,0.038566702273546145,9.8263622549531
6.5280000000000005,0,4,1,17.744671625056924,3872.227927246501,-1.0333615973886126,5,160,9,1,17,-218,-2,-0.249,4.751,5.249,-0.46214433848917985,-0.3587088572126091,-7.656713013609769e-05,-0.0020734219051248177,0.03321870568029398,9.80528836066281
6.5600000000000005,0,4,1,17.22343619113144,3889.4513634376326,-0.521235433925483,5,160,9,1,16,-202,-1,-0.21449999999999997,4.7855,5.2145,-0.4590077192865995,-0.3592574267591252,-7.519322081126281e-05,-0.002523924161864691,0.03353499229371711,9.806047088718161
6.5920000000000005,0,4,1,16.17215901578257,3905.6235224534153,-1.051277175348872,5,160,9,1,14,-188,-2,-0.249,4.751,5.249,-0.4558652361175886,-0.3597878410785336,-7.384840839703803e-05,0.0028505232644683628,0.03503749584581329,9.78310520627744
6.6240000000000006,0,4,1,15.642246457208763,3921.265768910624,-0.5299125585738054,5,160,9,1,13,-175,-1,-0.22949999999999998,4.7705,5.2295,-0.452718999330886,-0.360302712876242,-7.261417904009734e-05,0.0012556965062779177,0.031423407159957395,9.797081209724821
6.656000000000001,0,4,1,15.109575122340447,3936.3753440329647,-0.5326713348683167,5,160,9,1,12,-163,-1,-0.21949999999999997,4.7805,5.2195,-0.44956815349437773,-0.36079934426895,-7.144766786745631e-05,0.0017635711397525513,0.033366948913304155,9.800709848809094
6.688,0,4,1,14.036243467926484,3950.411587500891,-1.0733316544139626,5,160,9,1,10,-153,-2,-0.274,4.726,5.274,-0.44641307384400325,-0.3612792110048245,-7.039069900014253e-05,0.0018588220390261785,0.031047298325400995,9.785125122329157
6.72,0,4,1,14.036243467926484,3964.4478309688175,0.0,5,160,9,1,10,-143,0,-0.21499999999999997,4.785,5.215,-0.4432536459547827,-0.361743090129783,-6.952491812349179e-05,0.0026050901142712682,0.02946374645414306,9.8431542788368
6.752,0,4,1,12.95276451337554,3977.400595482193,-1.0834789545509445,5,160,9,1,8,-135,-2,-0.28400000000000003,4.716,5.284,-0.44009055927052565,-0.3621867456281888,-6.872966612877368e-05,0.0018776224993503465,0.032830245859615956,9.840385562161696
6.784,0,4,1,12.407418527400745,3989.8080140095935,-0.5453459859747944,5,160,9,1,8,-127,0,-0.235,4.765,5.235,-0.43692357120928826,-0.36261477476844417,-6.813521495975701e-05,0.0034761743080074497,0.027582152494460506,9.827303723036708
6.816,0,4,1,11.859779120947966,4001.6677931305417,-0.5476394064527792,5,160,9,1,8,-119,0,-0.19499999999999995,4.805,5.195,-0.4337533559289461,-0.3630218500625007,-6.761551810741118e-05,0.0027713889512324718,0.032177015448879284,9.76822372150056
6.848,0,4,1,11.309932474020227,4012.977725604562,-0.5498466469277385,5,160,9,1,7,-112,-1,-0.21450000000000002,4.7855,5.2145,-0.4305804828342704,-0.3634118048900002,-6.717236553683073e-05,0.0031309236756372344,0.02763092671812546,9.75404098234034
6.88,0,4,1,10.757967088390043,4023.735692692952,-0.5519653856301847,5,160,9,1,6,-106,-1,-0.2345,4.7655,5.2345,-0.42740505517613875,-0.3637878018528944,-6.683952098694192e-05,0.0037712496486439584,0.024100524529448865,9.781488865315145
6.912,0,4,1,10.203973721731703,4033.939666414684,-0.5539933666583394,5,160,9,1,6,-100,0,-0.19999999999999996,4.8,5.2,-0.4242271471798226,-0.36414836049291965,-6.659646256396666e-05,0.003763158955750632,0.025197846463291637,9.845028257967883
6.944,0,4,1,10.203973721731703,4044.143640136416,0.0,5,160,9,1,6,-94,0,-0.16999999999999998,4.83,5.17,-0.42104722765826297,-0.3644919422508078,-6.638318409213362e-05,0.003092116407534232,0.02618687407097979,9.823096951700178
6.976,0,4,1,9.648045316098152,4053.791685452514,-0.5559284056335514,5,160,9,1,5,-89,-1,-0.1995,4.8004999999999995,5.1995000000000005,-0.4178656169695303,-0.36482124489457934,-6.619281551886909e-05,0.0027371194116624373,0.023244484406761103,9.810502441386138
7.008,0,4,1,9.090276920822312,4062.881962373336,-0.5577683952758399,5,160,9,1,5,-84,0,-0.16999999999999998,4.83,5.17,-0.414682108505084,-0.3651386191399193,-6.606109538807511e-05,0.002704448032478631,0.020734790638574103,9.7972757644398
7.04,0,4,1,8.530765609948096,4071.412727983284,-0.5595113108742158,5,160,9,1,4,-80,-1,-0.20450000000000002,4.7955,5.2045,-0.4114972302512979,-0.36544177511943626,-6.592949617848821e-05,0.0012633591965039443,0.0226911790144004,9.803839750756882
7.072,0,4,1,8.530765609948096,4079.9434935932322,0.0,5,160,9,1,4,-76,0,-0.18,4.82,5.18,-0.40831041303687526,-0.3657330105840554,-6.584297253928693e-05,0.0012892257714660952,0.020198946717512788,9.82329184425879
7.104,0,4,1,7.969610394321354,4087.9131039875538,-0.5611552156267425,5,160,9,1,4,-72,0,-0.15999999999999998,4.84,5.16,-0.40512231559029105,-0.3660096423802251,-6.57513159560072e-05,-0.0004710063894954747,0.022492242717134785,9.815682064149986
7.136,0,4,1,7.406912128495223,4095.320016116049,-0.562698265826131,5,160,9,1,3,-69,-1,-0.1995,4.8004999999999995,5.1995000000000005,-0.40193317602298534,-0.3662735569324916,-6.565741632359907e-05,-0.0015323679706231322,0.020422491606088406,9.76167026201714
7.168,0,4,1,7.406912128495223,4102.726928244544,0.0,5,160,9,1,4,-65,1,-0.1205,4.8795,5.1205,-0.3987430955067901,-0.3665262719612861,-6.56008278092611e-05,-0.0025241974460366657,0.01863342487386231,9.837801749583326
7.2,0,4,1,6.842773412630916,4109.569701657175,-0.5641387158643063,5,160,9,1,3,-62,-1,-0.16449999999999998,4.8355,5.1645,-0.3955519937093466,-0.3667646647038939,-6.54959097833429e-05,-0.0036535895811006984,0.021425387644005704,9.78056327907841
7.232,0,4,1,6.842773412630916,4116.412475069806,0.0,5,160,9,1,3,-59,0,-0.14499999999999996,4.855,5.145,-0.392360270020537,-0.36699489448603645,-6.54282270524352e-05,-0.004437120187398741,0.015262135340315564,9.810691858794387
7.264,0,4,1,6.277298489597548,4122.689773559403,-0.565474923033368,5,160,9,1,3,-56,0,-0.13,4.87,5.13,-0.38916774004468774,-0.3672134535529055,-6.535045544913722e-05,-0.005209509909254434,0.018522800602237533,9.771436652832934
7.296,0,4,1,6.277298489597548,4128.967072049,0.0,5,160,9,1,3,-53,0,-0.11499999999999999,4.885,5.115,-0.38597454767499406,-0.36742183416864055,-6.526723679481372e-05,-0.005718966385649426,0.016766722220291023,9.821531632969599
7.328,0,4,1,5.710593137499568,4134.6776651865,-0.5667053520979799,5,160,9,1,2,-51,-1,-0.1595,4.8405,5.1595,-0.3827807968858917,-0.36762117122672033,-6.51787673066808e-05,-0.006026749557695986,0.01551392570494628,9.775078948099264
7.36,0,4,1,5.142764557884225,4139.8204297443845,-0.5678285796153437,5,160,9,1,2,-49,0,-0.145,4.855,5.145,-0.37958652281510025,-0.36781261356102,-6.512009291607078e-05,-0.005903644740289284,0.014094705984702105,9.770161417533497
7.392,0,4,1,5.142764557884225,4144.963194302269,0.0,5,160,9,1,3,-46,1,-0.07549999999999998,4.9245,5.0755,-0.37639156781234046,-0.36799257451403095,-6.50564481271803e-05,-0.005549042655242883,0.017394199050756502,9.799824513792972
7.424,0,4,1,5.142764557884225,4150.105958860153,0.0,5,160,9,1,2,-44,-1,-0.1245,4.8755,5.1245,-0.3731961028514869,-0.3681621465013978,-6.496162810219232e-05,-0.0050759585810023905,0.016138956946773274,9.80680053494886
7.456,0,4,1,4.573921259900898,4154.679880120054,-0.5688432979833271,5,160,9,1,2,-42,0,-0.10999999999999999,4.89,5.11,-0.370000351755543,-0.3683268172163602,-6.489999287406442e-05,-0.004155571154671613,0.010579168058097025,9.823223957278563
7.488,0,4,1,4.573921259900898,4159.253801379955,0.0,5,160,9,1,2,-40,0,-0.1,4.9,5.1,-0.3668041577403979,-0.36848264493445937,-6.483456141990335e-05,-0.0031309872213693413,0.01424206440454235,9.810345005425873
7.5200000000000005,0,4,1,4.004172940709389,4163.257974320664,-0.5697483191915085,5,160,9,1,2,-38,0,-0.09,4.91,5.09,-0.36360759928251113,-0.3686307333188085,-6.476920399790635e-05,-0.001958742501383469,0.01297164834067069,9.795599820764776
7.5520000000000005,0,4,1,4.004172940709389,4167.262147261374,0.0,5,160,9,1,2,-36,0,-0.07999999999999999,4.92,5.08,-0.36041072983075473,-0.3687718318924421,-6.470420242925788e-05,-0.0007099497265092051,0.012002905862991221,9.806986887349476
7.5840000000000005,0,4,1,4.004172940709389,4171.266320202083,0.0,5,160,9,1,2,-34,0,-0.07,4.93,5.07,-0.3572135965372665,-0.36890668965624057,-6.463956235213189e-05,0.0005360159325794664,0.011018281733297216,9.83477077967036
7.6160000000000005,0,4,1,3.4336303624506144,4174.6999505645335,-0.5705425782587747,5,160,9,1,1,-33,-1,-0.11950000000000001,4.8805,5.1195,-0.3540162411190401,-0.369036053344547,-6.457531488677885e-05,0.0017191662489692023,0.010076909443809656,9.859664739910766
7.648000000000001,0,4,1,3.4336303624506144,4178.133580926984,0.0,5,160,9,1,2,-31,1,-0.050499999999999996,4.9495,5.0505,-0.3508186654804164,-0.369160661655384,-6.453503708116724e-05,0.002815813029644821,0.009206587541977455,9.807276006979617
7.68,0,4,1,2.862405226111651,4180.995986153096,-0.5712251363389633,5,160,9,1,1,-30,-1,-0.1045,4.8955,5.1045,-0.34762078370290683,-0.369276567075319,-6.447279332709964e-05,0.0036479161005123547,0.012761562260023798,9.837418121889732
7.712,0,4,1,3.4336303624506144,4184.4296165155465,0.5712251363389633,5,160,9,1,2,-28,1,-0.03550000000000001,4.9645,5.0355,-0.34442275824418284,-0.3693891817275626,-6.4436643225467e-05,0.004304322575192422,0.0073772043548051705,9.848036582047541
7.744,0,4,1,2.862405226111651,4187.292021741659,-0.5712251363389633,5,160,9,1,1,-27,-1,-0.08950000000000001,4.9105,5.0895,-0.34122450150135525,-0.36949421886582773,-6.438168068033032e-05,0.0045878164013641995,0.011304478207735318,9.810231310924411
7.776,0,4,1,2.862405226111651,4190.154426967771,0.0,5,160,9,1,1,-26,0,-0.08,4.92,5.08,-0.33802615222319365,-0.3695970857179316,-6.435063715733852e-05,0.004683247849552108,0.005951263878446498,9.831492406879637
7.808,0,4,1,2.2906100426385936,4192.44503701041,-0.5717951834730575,5,160,9,1,1,-25,0,-0.075,4.925,5.075,-0.33482759608453133,-0.36969348578374883,-6.43204225671927e-05,0.004433731283535179,0.009881151334668787,9.834772752298298
7.84,0,4,1,3.4336303624506144,4195.87866737286,1.1430203198120208,5,160,9,1,3,-22,2,0.04900000000000002,5.049,4.951,-0.33162887065420676,-0.3697841466380274,-6.429342409363e-05,0.003921381043171541,0.009036063790296143,9.81248854493567
7.872,0,4,1,2.862405226111651,4198.741072598972,-0.5712251363389633,5,160,9,1,1,-21,-2,-0.06399999999999999,4.936,5.064,-0.3284300629034134,-0.3698694656501271,-6.423524324516289e-05,0.003033294070326637,0.008502625810145499,9.874630760699146
7.904,0,4,1,2.862405226111651,4201.603477825084,0.0,5,160,9,1,1,-20,0,-0.05,4.95,5.05,-0.32523132394945903,-0.3699592043846701,-6.421461004921074e-05,0.002190721742060274,-0.0011741732503861041,9.816758128304118
7.936,0,4,1,2.862405226111651,4204.465883051196,0.0,5,160,9,1,1,-19,0,-0.045,4.955,5.045,-0.3220324594661667,-0.37004435639746874,-6.419164285616057e-05,0.0010136790206197164,0.007407584360290358,9.818451832446241
7.968,0,4,1,2.862405226111651,4207.328288277308,0.0,5,160,9,1,1,-18,0,-0.039999999999999994,4.96,5.04,-0.31883350433172947,-0.37012598291745874,-6.416961532457362e-05,-0.0001812685973758218,0.006215074783669094,9.83008828103822
8.0,0,4,1,1.7183580016555007,4209.046646278964,-1.1440472244561504,5,160,9,1,0,-18,-1,-0.0945,4.9055,5.0945,-0.3156344712842457,-0.37020444409823544,-6.414858263076827e-05,-0.0013665073674511655,0.005714686939161193,9.81830077456801
8.032,0,4,1,2.2906100426385936,4211.337256321603,0.5722520409830929,5,160,9,1,1,-17,1,-0.030500000000000003,4.9695,5.0305,-0.3124353560937978,-0.37028011119233284,-6.413944097756648e-05,-0.0024388351178508873,0.005145505358403949,9.820162736722876
8.064,0,4,1,2.2906100426385936,4213.6278663642415,0.0,5,160,9,1,1,-16,0,-0.03,4.97,5.03,-0.3092360843513998,-0.37034864498868897,-6.412116800659853e-05,-0.003432888462046422,0.00923304910483095,9.864931514980604
8.096,0,4,1,2.2906100426385936,4215.9184764068805,0.0,5,160,9,1,1,-15,0,-0.024999999999999994,4.975,5.025,-0.30603677476053404,-0.37041511666420635,-6.410598629436222e-05,-0.004232521722713565,0.004150938030639845,9.836943056843104
8.128,0,4,1,1.7183580016555007,4217.636834408536,-0.5722520409830929,5,160,9,1,0,-15,-1,-0.0795,4.9205,5.0795,-0.3028374284861989,-0.37047955578452324,-6.409196753370643e-05,-0.00477296569951128,0.004048972245643119,9.799372572753914
8.16,0,4,1,2.2906100426385936,4219.927444451175,0.5722520409830929,5,160,9,1,1,-14,1,-0.015500000000000003,4.9845,5.0155,-0.29963803733853567,-0.37054235552898795,-6.408839552703681e-05,-0.005022661286274495,0.003561563756499328,9.773504558349169
8.192,0,4,1,1.7183580016555007,4221.64580245283,-0.5722520409830929,5,160,9,1,0,-14,-1,-0.07450000000000001,4.9254999999999995,5.0745000000000005,-0.29643854346297027,-0.3705991641625287,-6.40758801654373e-05,-0.00502809593447776,0.007697345310147544,9.8184555296283
8.224,0,4,1,1.7183580016555007,4223.3641604544855,0.0,5,160,9,1,1,-13,1,-0.010499999999999999,4.9895,5.0105,-0.29323902074441305,-0.3706550737736902,-6.40746882740826e-05,-0.0046484053010062065,0.002674191151735744,9.768530996634887
8.256,0,4,1,1.1457628381751443,4224.5099232926605,-0.5725951634803563,5,160,9,1,0,-13,-1,-0.0695,4.9305,5.0695,-0.29003941872780065,-0.3707053816080743,-6.406479252011807e-05,-0.004078230239624236,0.007235567047216027,9.872231960417267
8.288,0,4,1,1.7183580016555007,4226.228281294316,0.5725951634803563,5,160,9,1,1,-12,1,-0.005499999999999995,4.9945,5.0055,-0.2868397960963833,-0.3707551790034156,-6.406550077731055e-05,-0.003236090766426635,0.002190365332918879,9.822758869607917
8.32,0,4,1,1.7183580016555007,4227.946639295971,0.0,5,160,9,1,1,-11,0,-0.0049999999999999975,4.995,5.005,-0.2836401115541488,-0.37079976858952163,-6.405683239228688e-05,-0.002226148104526721,0.0067453156748618365,9.773138166756015
8.352,0,4,1,1.1457628381751443,4229.092402134146,-0.5725951634803563,5,160,9,1,0,-11,-1,-0.0595,4.9405,5.0595,-0.28044042828649884,-0.37084422575651027,-6.40486174198103e-05,-0.0010886078200965004,0.0017414689795751128,9.79022913758407
8.384,0,4,1,1.7183580016555007,4230.8107601358015,0.5725951634803563,5,160,9,1,1,-10,1,0.0045,5.0045,4.9955,-0.27724073517431136,-0.3708885722080841,-6.40483049418987e-05,0.00011988702350706823,0.001680737501953765,9.821513220793316
8.416,0,4,1,1.1457628381751443,4231.9565229739765,-0.5725951634803563,5,160,9,1,0,-10,-1,-0.0545,4.9455,5.0545,-0.2740409920527238,-0.3709284699725151,-6.403842325528909e-05,0.0012870815349462401,0.005854374348769149,9.78321794850765
