Time,SetPointAngle,SensorAngleRow,SensorAngleWidth,Angle,IntegralAngle,DeltaAngle,BaseSpeed,SetPointError,SensorErrorRow,SensorErrorWidth,Error,IntegralError,DeltaError,DeltaSpeed,LeftSpeed,RightSpeed,X,Y,Z,Roll,Pitch,Yaw
0.032,0,4,1,9.1805419576262,9.1805419576262,9.1805419576262,5,160,9,1,2,2,2,0.18299999999999997,5.183,4.817,-0.4973879999999996,0.18556899999999787,-6.396505846564468e-05,-2.5597536344321914,-0.26814274078189354,9.779017078846215
0.064,0,4,1,10.40771131249005,19.58825327011625,1.2271693548638503,5,160,9,1,-5,-3,-7,-0.4605,4.5395,5.4605,-0.49462621387090383,0.18716104788975504,-3.2842788975098736e-05,3.744997060625085,0.011166587722134368,9.646227835744284
0.096,0,4,1,9.743641287037166,29.33189455715342,-0.6640700254528848,5,160,9,1,-1,-4,4,-0.069,4.931,5.069,-0.4918768766869404,0.18874368532202496,-6.0697204305916116e-05,0.30099665250806745,0.00029986250007810205,9.730287043321443
0.128,0,4,1,9.1805419576262,38.51243651477962,-0.5630993294109654,5,160,9,1,-1,-5,0,-0.11249999999999999,4.8875,5.1125,-0.48911726658211563,0.19036518481145834,-7.256432698193697e-05,0.016777080566163022,0.03243497565473334,9.853918332070112
0.16,0,4,1,8.615648184164066,47.12808469894369,-0.5648937734621349,5,160,9,1,-3,-8,-2,-0.303,4.697,5.303,-0.48636066970404224,0.19199068089589835,-6.735753623960707e-05,0.14796310247958755,0.006990409151034838,9.844163653022193
0.192,0,4,1,9.1805419576262,56.308626656569885,0.5648937734621349,5,160,9,1,-1,-9,2,-0.12450000000000001,4.8755,5.1245,-0.48362512678231834,0.1936156630370402,-6.742157018168639e-05,0.05252508344309866,0.01132051541046553,9.797944021382346
0.224,0,4,1,9.1805419576262,65.48916861419609,0.0,5,160,9,1,-1,-10,0,-0.15,4.85,5.15,-0.48088610896292927,0.19527086246998546,-6.752773320972336e-05,0.009719916807886935,0.025864152414147423,9.816461755513087
0.256,0,4,1,8.702223789946824,74.19139240414292,-0.47831816767937596,5,160,9,1,-2,-12,-1,-0.249,4.751,5.249,-0.47815170710739685,0.19693347325573238,-6.647264558476765e-05,-0.0873128416446702,0.011044009982306998,9.7915795217231
0.28800000000000003,0,4,1,8.702223789946824,82.89361619408974,0.0,5,160,9,1,-1,-13,1,-0.16349999999999998,4.8365,5.1635,-0.4754227097708021,0.1986049896840806,-6.602670374314563e-05,-0.07202354918375024,0.013165579358340243,9.788841747580342
0.32,0,4,1,8.130102354156005,91.02371854824575,-0.5721214357908195,5,160,9,1,-1,-14,0,-0.18,4.82,5.18,-0.4727038872448962,0.2002928277603307,-6.607908737070282e-05,-0.05367838856775129,0.021805640158849095,9.775354893041946
0.352,0,4,1,6.981057406829782,98.00477595507553,-1.1490449473262228,5,160,9,1,-2,-16,-1,-0.279,4.721,5.279,-0.46999145365117817,0.20199083827440553,-6.614006124617232e-05,-0.03193443462710754,0.015262051391043124,9.85976664691966
0.384,0,4,1,5.826342029555814,103.83111798463135,-1.154715377273968,5,160,9,1,-1,-17,1,-0.1935,4.8065,5.1935,-0.46728594288379627,0.2037000824968832,-6.61970153379935e-05,-0.008195728296267173,0.016698391891661387,9.803655614244342
0.41600000000000004,0,4,1,4.6199234816602734,108.45104146629163,-1.2064185478955407,5,160,9,1,-1,-18,0,-0.21000000000000002,4.79,5.21,-0.4645918499900153,0.20542711059683064,-6.611739635951908e-05,0.015454304371393984,0.024748562626148902,9.878429132647726
0.448,0,4,1,3.4682292589172015,111.91927072520883,-1.151694222743072,5,160,9,1,-1,-19,0,-0.21749999999999997,4.7825,5.2175,-0.4619054290340636,0.20716600444888658,-6.598113235939743e-05,0.014202292876710688,0.018356453588540846,9.75264203615335
0.48,0,4,1,2.3373058591238247,114.25657658433266,-1.1309233997933767,5,160,9,1,-1,-20,0,-0.22499999999999998,4.775,5.225,-0.45922730939581236,0.20891764815428734,-6.598484595369582e-05,0.011886067183432098,0.019973417256891533,9.735654970049705
0.512,0,4,1,0.5846305207048678,114.84120710503753,-1.7526753384189568,5,160,9,1,-1,-21,0,-0.23249999999999998,4.7675,5.2325,-0.4565578372139045,0.21068244102819184,-6.599907376285928e-05,0.008860222046812513,0.0209468875867304,9.744652791775767
0.544,0,4,1,0.5787255656079755,115.41993267064551,-0.0059049550968922615,5,160,9,1,-1,-22,0,-0.24,4.76,5.24,-0.45389736845240225,0.21246079369418763,-6.601942825428496e-05,0.004998995979376193,0.021886201667730854,9.852059494369886
0.5760000000000001,0,4,1,1.7534048600716274,117.17333753071713,1.174679294463652,5,160,9,1,0,-22,1,-0.15599999999999997,4.844,5.156,-0.45124627222817765,0.21425311678272901,-6.604368596296699e-05,0.0006846847267651696,0.022533891549873043,9.814021981900066
0.608,0,4,1,2.9207215210003468,120.09405905171748,1.1673166609287193,5,160,9,1,0,-22,0,-0.16499999999999998,4.835,5.165,-0.4486050641862388,0.21605965815837333,-6.599761354038683e-05,-0.004142374948605297,0.023396769897276105,9.845583386328856
0.64,0,4,1,2.9207215210003468,123.01478057271783,0.0,5,160,9,1,2,-20,2,0.018,5.018,4.982,-0.4459699577895805,0.2178750275847932,-6.594797306827202e-05,-0.00857405922753464,0.01725565235978685,9.802262017888783
0.672,0,4,1,2.3373058591238247,125.35208643184166,-0.583415661876522,5,160,9,1,3,-17,1,0.10649999999999997,5.1065,4.8935,-0.4433412407223034,0.2196998491458003,-6.572706635540708e-05,-0.008310854866413524,0.017883765006824103,9.789228171802694
0.704,0,4,1,1.169139327907133,126.52122575974879,-1.1681665312166918,5,160,9,1,3,-14,0,0.11999999999999998,5.12,4.88,-0.44071092934236167,0.22152220393792652,-6.545782393532068e-05,-0.008083076262693492,0.004126429698102579,9.826833500692123
0.736,0,4,1,1.169139327907133,127.69036508765592,0.0,5,160,9,1,2,-12,-1,0.051,5.051,4.949,-0.43807568345480885,0.2233365403099741,-6.520300688217517e-05,-0.007593161000681484,-0.002347038923147334,9.793384558777007
0.768,0,4,1,0.5846305207048678,128.2749956083608,-0.5845088072022652,5,160,9,1,3,-9,1,0.16649999999999998,5.1665,4.8335,-0.435434187443696,0.22514213281778322,-6.502794623004446e-05,-0.005767945184732085,-0.004029079451084559,9.824220278331834
0.8,0,4,1,1.7534048600716274,130.02840046843244,1.1687743393667596,5,160,9,1,2,-7,-1,0.08850000000000001,5.0885,4.9115,-0.43278988441423144,0.22694374850792842,-6.483327468382975e-05,-0.004421928061540048,0.0011614478454339138,9.872007825190288
0.8320000000000001,0,4,1,4.085616779974888,134.11401724840732,2.3322119199032607,5,160,9,1,2,-5,0,0.11249999999999999,5.1125,4.8875,-0.4301377123195964,0.22873399479178533,-6.47191875405781e-05,-0.002630858963516872,-0.008303296101065633,9.842057353103067
0.864,0,4,1,8.04906170167456,142.16307895008188,3.963444921699672,5,160,9,1,1,-4,-1,0.036,5.036,4.964,-0.42748140428750575,0.23051821604637562,-6.46360860931186e-05,-0.0008683435458363793,-0.0027891421589952524,9.818092327095016
0.896,0,4,1,12.652556500557937,154.81563545063983,4.603494798883377,5,160,9,1,1,-3,0,0.0525,5.0525,4.9475,-0.4248201596134251,0.2322949778330882,-6.458266842260078e-05,0.0008579795022207597,-0.0053294544325391035,9.798223393793663
0.928,0,4,1,19.983106521899995,174.79874197253983,7.330550021342058,5,160,9,1,2,-1,1,0.1515,5.1515,4.8485,-0.42215741540925067,0.23406952581889323,-6.453685194332884e-05,0.0026688574933176647,-0.00012206424284465753,9.803388588461882
0.96,0,4,1,25.86635679409453,200.66509876663434,5.883250272194534,5,160,9,1,0,-1,-2,-0.0255,4.9745,5.0255,-0.4194924367973662,0.2358409189776744,-6.451501379414228e-05,0.004316322570181112,-0.002159274411955803,9.804785944330122
0.992,0,4,1,33.146995832255996,233.81209459889033,7.280639038161468,5,160,9,1,0,-1,0,-0.0075,4.9925,5.0075,-0.4168211436689142,0.23760269416726168,-6.446444781017975e-05,0.005373969449306941,-0.010400712486629408,9.814899943855105
1.024,0,4,1,38.87306699450592,272.68516159339623,5.726071162249923,5,160,9,1,-1,-2,-1,-0.09899999999999999,4.901,5.099,-0.41415125997459734,0.23936654395468457,-6.441517423502914e-05,0.006288644021754417,0.002543517586946853,9.866026837737925
1.056,0,4,1,44.10946374663943,316.7946253400357,5.236396752133508,5,160,9,1,0,-2,1,-0.006,4.994,5.006,-0.41148207180935314,0.2411313684809465,-6.433862880674164e-05,0.0067305689153078175,0.0006915407934421781,9.765232481658337
1.088,0,4,1,47.77916686407208,364.57379220410775,3.669703117432654,5,160,9,1,-3,-5,-3,-0.2895,4.7105,5.2895,-0.40881743210196003,0.24290322552510488,-6.429483873218386e-05,0.00688365293247154,0.007305296103033997,9.856191725037544
1.12,0,4,1,50.99538680407546,415.5691790081832,3.216219940003377,5,160,9,1,-2,-7,1,-0.19349999999999998,4.8065,5.1935,-0.406153331682526,0.2446758784961098,-6.419527310657855e-05,0.006424683149380382,-0.00016395913846832888,9.833477404863253
1.1520000000000001,0,4,1,53.13010235415599,468.6992813623392,2.1347155500805286,5,160,9,1,-4,-11,-2,-0.40049999999999997,4.5995,5.4005,-0.4035019045074595,0.2464679860823141,-6.416893487396283e-05,0.006134859384995567,0.021530404510663702,9.846125124751959
1.184,0,4,1,54.502194003616594,523.2014753659558,1.3720916494606072,5,160,9,1,-8,-19,-4,-0.7785,4.2215,5.7785,-0.4008589030464626,0.24827300378920944,-6.420181037123177e-05,0.005040960663735992,0.014197834125377836,9.841638091023183
1.216,0,4,1,54.58294472353257,577.7844200894884,0.08075071991597582,5,160,9,1,-12,-31,-4,-1.1684999999999999,3.8315,6.1685,-0.3982328812937099,0.2501046281120536,-6.442596397416775e-05,0.005223616067200313,0.030364302349503686,9.814133205094794
1.248,0,4,1,53.55555824341289,631.3399783329013,-1.0273864801196808,5,160,9,1,-17,-48,-5,-1.6799999999999997,3.3200000000000003,6.28,-0.39563933197826245,0.25198779856837156,-6.521462037235685e-05,0.007956852486962714,0.05944216580698484,9.801547364556098
1.28,0,4,1,52.409438731638325,683.7494170645397,-1.1461195117745646,5,160,9,1,-18,-66,-1,-1.8539999999999996,3.1460000000000004,6.28,-0.39319707814616034,0.2538692230753798,-6.715629390341774e-05,-0.138760968924708,0.09428254839601918,9.792251110809508
1.312,0,4,1,50.29008120537127,734.039498269911,-2.119357526267052,5,160,9,1,-21,-87,-3,-2.2545,2.7455,6.28,-0.39086213257622415,0.25580410997135716,-7.063356716775597e-05,-0.06235036136102197,0.11420721470576725,9.807719858474591
1.344,0,4,1,48.5592668212832,782.5987650911942,-1.7308143840880703,5,160,9,1,-19,-106,2,-2.202,2.798,6.28,-0.38869455145747545,0.2577440705266317,-7.615829346030271e-05,-0.12599808586117486,0.1230665840589522,9.76787005332464
1.3760000000000001,0,4,1,46.15733306812953,828.7560981593238,-2.4019337531536706,5,160,9,1,-21,-127,-2,-2.5454999999999997,2.4545000000000003,6.28,-0.38659774268315716,0.2597869763898704,-8.352783348569703e-05,0.020013876610506142,0.1297542287033071,9.754594656552287
1.408,0,4,1,44.10946374663943,872.8655619059632,-2.0478693214901043,5,160,9,1,-15,-142,6,-2.136,2.864,6.28,-0.38462491502083745,0.261818100825956,-9.247130011492792e-05,-0.0848747588354602,0.09790538344739404,9.810026134668039
1.44,0,4,1,44.39690880561947,917.2624707115826,0.28744505898004036,5,160,9,1,-33,-175,-18,-3.9495,1.0505,6.28,-0.3838341143806768,0.2626847527141652,-9.539277105577101e-05,-1.614695428374917,0.08970066460889198,9.848728729997354
1.472,0,4,1,44.08089521628577,961.3433659278684,-0.31601358933369994,5,160,9,1,-42,-217,-9,-4.8585,0.14149999999999974,6.28,-0.3835527240372362,0.26299734235067174,-9.94406914507067e-05,-0.7338540717731424,0.008194964490748639,9.807553504338117
1.504,0,4,1,44.08089521628577,1005.4242611441541,0.0,5,160,9,1,-43,-260,-1,-5.184,-0.18400000000000016,6.28,-0.38352921880050794,0.26305110019645017,-0.00010285907529619838,-0.3549235010839428,0.02820018502072178,9.81081403096594
1.536,0,4,1,44.390493423324806,1049.814754567479,0.30959820703903773,5,160,9,1,-41,-301,2,-5.3145,-0.3144999999999998,6.28,-0.3835839054729827,0.2630204147375466,-0.00010460989478275513,-0.112052165766175,0.018628572418941596,9.809971763390468
1.568,0,4,1,44.08089521628577,1093.8956497837648,-0.30959820703903773,5,160,9,1,-37,-338,4,-5.274,-0.274,6.28,-0.3835488306117451,0.26304478340872745,-0.00010454976059162853,0.09960941529256133,-0.008449726963207234,9.818468135856524
1.6,0,4,1,41.268603000839555,1135.1642527846043,-2.812292215446213,5,160,9,1,-9,-347,28,-3.0255,1.9745,6.28,-0.38239308390692317,0.2643035896970333,-0.00010314164211531335,1.6284081678058704,-0.0922475055423042,9.800901494628805
1.6320000000000001,0,4,1,39.92039213998544,1175.0846449245896,-1.3482108608541168,5,160,9,1,3,-344,12,-2.247,2.753,6.28,-0.38083383088192363,0.2662953718067382,-0.00010126314301702084,0.8126874054505496,0.10885170703704167,9.778710941771083
1.6640000000000001,0,4,1,39.22567409733672,1214.3103190219263,-0.6947180426487165,5,160,9,1,5,-339,2,-2.1495,2.8505,6.28,-0.3795063820945735,0.26822951608032464,-0.00010088333171026989,-0.17158529237518413,0.17391085304270396,9.826634513475787
1.696,0,4,1,40.2625566519899,1254.572875673916,1.0368825546531752,5,160,9,1,-8,-347,-13,-3.3195,1.6804999999999999,6.28,-0.3788060511929755,0.2692411771145376,-0.00010189861713368574,-1.0874083474198004,0.0010465665581733728,9.805736900235882
1.728,0,4,1,40.93663400706695,1295.509509680983,0.6740773550770527,5,160,9,1,-16,-363,-8,-3.9944999999999995,1.0055000000000005,6.28,-0.37838343229881594,0.2698290113942677,-0.00010348462807531489,-0.4958071972112298,-0.003778735203763804,9.856891971806421
1.76,0,4,1,41.889159346509224,1337.3986690274921,0.9525253394422748,5,160,9,1,-20,-383,-4,-4.4085,0.5914999999999999,6.28,-0.3781283053249854,0.27018000762321137,-0.00010420562334021582,-0.2823259485583867,0.013805977759143993,9.835313375386363
1.792,0,4,1,42.21483357788564,1379.6135026053778,0.3256742313764178,5,160,9,1,-21,-404,-1,-4.614,0.3860000000000001,6.28,-0.3779136287854095,0.27049478023719964,-0.00010356814628874854,-0.051659046877243445,0.029315994896019562,9.79310271855383
1.824,0,4,1,40.60129464500447,1420.2147972503822,-1.6135389328811698,5,160,9,1,2,-402,23,-2.658,2.342,6.28,-0.3767523505035367,0.27205767252783475,-0.00010169621990930959,1.5253411809036417,-0.11411083064364844,9.8185730968664
1.856,0,4,1,40.60129464500447,1460.8160918953865,0.0,5,160,9,1,14,-388,12,-1.7519999999999998,3.248,6.28,-0.37533991009611944,0.2743057107935599,-9.953904172188208e-05,0.7041894009410712,0.13173353230530255,9.803655537063616
1.8880000000000001,0,4,1,41.889159346509224,1502.7052512418957,1.287864701504752,5,160,9,1,22,-366,8,-1.0230000000000001,3.977,6.023,-0.373889686349033,0.2769050606449522,-9.866441789880415e-05,0.32244297656310783,0.1408533988747173,9.776343885278967
1.92,0,4,1,43.500452962022365,1546.205704203918,1.6112936155131408,5,160,9,1,17,-349,-5,-1.3874999999999997,3.6125000000000003,6.28,-0.37273294124862416,0.2792278252115186,-9.86432340483838e-05,-0.3717015504801395,0.14785137103690582,9.814063229444328
1.952,0,4,1,45.57872556560777,1591.7844297695258,2.078272603585404,5,160,9,1,2,-347,-15,-2.5875,2.4125,6.28,-0.3719679960524997,0.2806767039681638,-9.948209387584256e-05,-0.931430331564697,-0.05408894377881683,9.806291161017631
1.984,0,4,1,47.24574256589507,1639.030172335421,1.6670170002873022,5,160,9,1,-8,-355,-10,-3.3525,1.6475,6.28,-0.3714352495736603,0.28162365974210346,-0.00010039668611757681,-0.5406968681611491,-0.025800080096889687,9.81819736740999
2.016,0,4,1,48.301865674435014,1687.332038009856,1.0561231085399427,5,160,9,1,-11,-366,-3,-3.5970000000000004,1.4029999999999996,6.28,-0.37092718427365073,0.2825481174674261,-0.0001003096520484515,-0.031466439202231446,0.02843341055049972,9.814536102381313
2.048,0,4,1,47.489552921999156,1734.821590931855,-0.812312752435858,5,160,9,1,6,-360,17,-2.097,2.903,6.28,-0.36978220684941987,0.2845459716016439,-9.893969238475818e-05,1.2117946919724991,-0.07886406966810844,9.745061203010899
2.08,0,4,1,49.10509851316259,1783.9266894450177,1.615545591163432,5,160,9,1,16,-344,10,-1.29,3.71,6.28,-0.3685298243208618,0.28710163156185886,-9.698646414223709e-05,0.5385000208290732,0.14054790868947475,9.803854114623956
2.112,0,4,1,51.39895662736892,1835.3256460723867,2.29385811420633,5,160,9,1,22,-322,6,-0.7110000000000001,4.289,5.711,-0.3672783382851781,0.28997295308557514,-9.5783902442588e-05,0.28791304370766907,0.13204823072461025,9.7853577806681
2.144,0,4,1,52.69605172201657,1888.0216977944033,1.297095094647652,5,160,9,1,21,-301,-1,-0.6914999999999999,4.3085,5.6915,-0.36611104582180787,0.2929158866655256,-9.474439538600943e-05,0.03676481574728853,0.11825616872997911,9.759696091624555
2.176,0,4,1,53.48160579402933,1941.5033035884326,0.7855540720127578,5,160,9,1,20,-281,-1,-0.6164999999999999,4.3835,5.6165,-0.36501348617773627,0.2958767719941517,-9.38793814072407e-05,-0.006181808672316458,0.08756808611715435,9.789482708741167
2.208,0,4,1,54.099950359783776,1995.6032539482164,0.6183445657544482,5,160,9,1,15,-266,-5,-0.9149999999999999,4.085,5.915,-0.36400765517861466,0.29873968172259624,-9.283668916806008e-05,-0.11931369326144761,0.07139307852762329,9.810865018171478
2.24,0,4,1,54.42278061353508,2050.0260345617517,0.3228302537513059,5,160,9,1,6,-260,-9,-1.581,3.419,6.28,-0.36316606878130764,0.3012151445951923,-9.215326761720377e-05,-0.4114607585256663,0.04567566433399179,9.807661790477066
2.2720000000000002,0,4,1,55.28357065113528,2105.3096052128867,0.8607900376001965,5,160,9,1,-3,-263,-9,-2.2784999999999997,2.7215000000000003,6.28,-0.3625643108670691,0.3029986513811783,-9.2140633910269e-05,-0.716647513300163,0.009472630713247764,9.791356915717584
2.3040000000000003,0,4,1,55.369199619742986,2160.67880483263,0.08562896860770763,5,160,9,1,-8,-271,-5,-2.6774999999999998,2.3225000000000002,6.28,-0.3619316583685206,0.3047757941602333,-9.209959332971175e-05,0.004021991518620137,-0.010233604266494457,9.783275843429841
2.336,0,4,1,54.22392228210534,2214.902727114735,-1.1452773376376442,5,160,9,1,0,-271,8,-1.9604999999999997,3.0395000000000003,6.28,-0.3610480622634582,0.30725048994650866,-9.156280832596682e-05,0.7225108780853577,-0.01708552639129264,9.782744997587654
2.368,0,4,1,52.9893267663969,2267.892053881132,-1.2345955157084418,5,160,9,1,2,-269,2,-1.8495000000000001,3.1505,6.28,-0.3602180736295751,0.3100194407255622,-9.051148065682829e-05,0.2652486474423384,0.14195626558372895,9.781719491372103
2.4,0,4,1,51.22582906442577,2319.117882945558,-1.7634977019711329,5,160,9,1,2,-267,0,-1.8525,3.1475,6.28,-0.3594899712200201,0.3128877730924698,-9.013916758327141e-05,0.07377189588830142,0.13605112260304028,9.818074186907046
2.432,0,4,1,49.563229754237845,2368.681112699796,-1.6625993101879217,5,160,9,1,-2,-269,-4,-2.2035,2.7965,6.28,-0.3589532421522793,0.3154740503023928,-9.06571662383799e-05,-0.3044641701644244,0.15031026924216997,9.78771445568319
2.464,0,4,1,49.06631877480598,2417.747431474602,-0.4969109794318669,5,160,9,1,-14,-283,-12,-3.2805000000000004,1.7194999999999996,6.28,-0.3586971526841199,0.3169824617948578,-9.214920279720235e-05,-1.0859716068416736,0.08049238967151029,9.855128514773163
2.496,0,4,1,48.81407483429036,2466.561506308892,-0.25224394051561916,5,160,9,1,-22,-305,-8,-4.0095,0.9904999999999999,6.28,-0.3585301155362158,0.31790760068117924,-9.452448174378757e-05,-0.5816697748569322,-0.010378527037070989,9.8266274660117
2.528,0,4,1,48.85063882391076,2515.412145132803,0.03656398962039731,5,160,9,1,-27,-332,-5,-4.56,0.4400000000000004,6.28,-0.35843430293870293,0.3184461371820706,-9.651169692339624e-05,-0.38492143017213326,0.01036355551989697,9.802355566267233
2.56,0,4,1,48.5935661878652,2564.005711320668,-0.25707263604555664,5,160,9,1,-29,-361,-2,-4.9005,0.09949999999999992,6.28,-0.35839013983169765,0.3187257787712088,-9.750154277221937e-05,-0.2604883846164155,0.016709687098878066,9.85244042322049
2.592,0,4,1,46.701354605326124,2610.7070659259944,-1.8922115825390762,5,160,9,1,-17,-378,12,-4.002,0.9980000000000002,6.28,-0.35812456801910775,0.32002763676766993,-9.733421631718912e-05,1.0228362250456233,-0.031295215514190344,9.819409686049317
2.624,0,4,1,44.10946374663943,2654.816529672634,-2.591890858686696,5,160,9,1,-5,-383,12,-3.1395,1.8605,6.28,-0.3577529116793172,0.32232119545962135,-9.6312005986832e-05,0.9765488013450379,0.01573041473615193,9.798777885842233
2.656,0,4,1,41.59723022893824,2696.413759901572,-2.5122335177011905,5,160,9,1,2,-381,7,-2.6445,2.3555,6.28,-0.35750125738940647,0.32493359852980797,-9.590697266425967e-05,0.30520874577048307,0.15104057649514038,9.8187523995089
2.688,0,4,1,41.59723022893824,2738.0109901305104,0.0,5,160,9,1,-2,-383,-4,-3.0585,1.9415,6.28,-0.3574476334811167,0.3264936004552078,-9.690097777034432e-05,-1.0335500103972581,0.1561356581071814,9.831737027922655
2.72,0,4,1,40.98041751216253,2778.991407642673,-0.6168127167757049,5,160,9,1,-7,-390,-5,-3.4949999999999997,1.5050000000000003,6.28,-0.35740980883188317,0.32769609124156834,-9.901528297461513e-05,-0.3501648272816248,0.014564565043834216,9.792962632486104
2.7520000000000002,0,4,1,40.93663400706695,2819.92804164974,-0.0437835050955826,5,160,9,1,-14,-404,-7,-4.143,0.8570000000000002,6.28,-0.35738660439750247,0.32846857893029546,-0.00010108297693643686,-0.4221929421313611,0.0074605383305406305,9.788791224605601
2.7840000000000003,0,4,1,40.93663400706695,2860.864675656807,0.0,5,160,9,1,-16,-420,-2,-4.367999999999999,0.6320000000000006,6.28,-0.3573695238753144,0.329002419945679,-0.00010240158788512276,-0.23386007384190843,0.010607247507909116,9.84045053497336
2.816,0,4,1,40.60129464500447,2901.4659703018115,-0.33533936206247716,5,160,9,1,-18,-438,-2,-4.653,0.3470000000000004,6.28,-0.357357546380667,0.3293977785846831,-0.00010252004842348228,-0.13619870283083668,0.015236586208328426,9.771026660278407
2.848,0,4,1,40.2625566519899,2941.7285269538015,-0.3387379930145755,5,160,9,1,-15,-453,3,-4.4955,0.5045000000000002,6.28,-0.35733230807592026,0.32995713908830454,-0.0001015411959881217,0.16040545051310975,0.012774177088878487,9.805212269858444
2.88,0,4,1,39.22567409733672,2980.954201051138,-1.0368825546531752,5,160,9,1,5,-448,20,-2.8049999999999997,2.1950000000000003,6.28,-0.3572311358963347,0.3321188488334854,-9.97556412697543e-05,1.562091233786544,-0.07989436598792467,9.792548249937466
2.912,0,4,1,38.443053501836616,3019.3972545529746,-0.7826205955001058,5,160,9,1,15,-433,10,-2.0325,2.9675,6.28,-0.35728574130450047,0.33484342515891913,-9.810954280810649e-05,0.5588835531826519,0.13476126691183682,9.805274543095432
2.944,0,4,1,37.99873244250467,3057.3959869954792,-0.44432105933194777,5,160,9,1,21,-412,6,-1.4609999999999999,3.539,6.28,-0.35748663725942564,0.3377048578407013,-9.774524690544552e-05,0.14767763876251985,0.1454936732906646,9.826328250741275
2.976,0,4,1,37.33952466553367,3094.735511661013,-0.6592077769709945,5,160,9,1,15,-397,-6,-1.9065,3.0934999999999997,6.28,-0.35772975961037834,0.3399367495461917,-9.849105428603663e-05,-0.6105638343572987,0.115003218632057,9.835786728891668
3.008,0,4,1,37.0565281894096,3131.7920398504225,-0.28299647612407597,5,160,9,1,8,-389,-7,-2.3805,2.6195,6.28,-0.3579242296550845,0.3416972773978195,-9.981602291650633e-05,-0.463095679699153,0.010172125698401086,9.812616075815521
3.04,0,4,1,37.4270513594566,3169.219091209879,0.37052317004700086,5,160,9,1,2,-387,-6,-2.8064999999999998,2.1935000000000002,6.28,-0.358076255902635,0.3432056737927986,-0.0001008835271695211,-0.24856976746860687,-0.002970416854830727,9.79171255470855
3.072,0,4,1,36.7771861094251,3205.996277319304,-0.6498652500314961,5,160,9,1,-4,-391,-6,-3.2864999999999998,1.7135000000000002,6.28,-0.3581949661432059,0.34448039701827554,-0.00010113262935220434,-0.2282619891409668,0.0036172977409001635,9.860943116209553
3.104,0,4,1,36.68235075589361,3242.678628075198,-0.09483535353149364,5,160,9,1,-6,-397,-2,-3.4455,1.5545,6.28,-0.35829868228971806,0.34570308984522485,-0.00010039666970068119,-0.052153180973137,0.007586769918111298,9.745909022478754
3.136,0,4,1,35.53767779197439,3278.2163058671727,-1.14467296391922,5,160,9,1,8,-389,14,-2.1915,2.8085,6.28,-0.3585039077695462,0.34819173455460506,-9.874919214272748e-05,1.24271866169558,-0.049484362078620704,9.763922941688593
3.168,0,4,1,34.231855438892175,3312.448161306065,-1.3058223530822133,5,160,9,1,15,-374,7,-1.6169999999999998,3.383,6.28,-0.3589002653938689,0.35107849607536407,-9.681272360521909e-05,0.41753391869086387,0.13269237624718205,9.789249650123718
3.2,0,4,1,33.690067525979785,3346.1382288320447,-0.5417879129123904,5,160,9,1,21,-353,6,-1.0185,3.9815,6.0184999999999995,-0.3594501561715782,0.35413160673977423,-9.566450468456549e-05,0.18984515638629432,0.13025001513377116,9.803540539549102
3.232,0,4,1,32.85572195043301,3378.9939507824774,-0.8343455755467772,5,160,9,1,24,-329,3,-0.6405,4.3595,5.6405,-0.36011851431773245,0.3572277880496162,-9.499016997354184e-05,0.06828257954129767,0.11892119629565319,9.832073252213057
3.2640000000000002,0,4,1,32.0053832080835,3410.999333990561,-0.850338742349507,5,160,9,1,23,-306,-1,-0.5790000000000001,4.421,5.579,-0.36086804320890337,0.36028242771618374,-9.414259151583823e-05,-0.01953949276261412,0.10428412575444072,9.783436118599491
3.2960000000000003,0,4,1,30.876813079060415,3441.8761470696213,-1.1285701290230854,5,160,9,1,17,-289,-6,-0.9465000000000001,4.0535,5.9465,-0.36158625832644825,0.36302099350855893,-9.311175650229646e-05,-0.3051020851248346,0.06407311969322442,9.815620157625485
3.3280000000000003,0,4,1,30.18368065722236,3472.0598277268437,-0.6931324218380546,5,160,9,1,5,-284,-12,-1.863,3.137,6.28,-0.3621225922371706,0.3650562989593821,-9.256079087510173e-05,-0.7148127234508868,0.0029198807609586304,9.814216454581393
3.36,0,4,1,29.054604099077153,3501.1144318259207,-1.1290765581452078,5,160,9,1,-5,-289,-10,-2.6325,2.3675,6.28,-0.3625081805098657,0.3666453888502976,-9.266075822212706e-05,-0.45762152278948165,-0.03023326958754191,9.787138284478765
3.392,0,4,1,28.85566121971652,3529.9700930456374,-0.19894287936063293,5,160,9,1,0,-289,5,-2.1225,2.8775,6.28,-0.3629872043514549,0.3687960215696067,-9.233704518751135e-05,0.5520587981093612,-0.022052889100196798,9.772952887284632
3.424,0,4,1,27.492836951539683,3557.462929997177,-1.362824268176837,5,160,9,1,8,-281,8,-1.4354999999999998,3.5645000000000002,6.28,-0.3636814184633271,0.3716379735982182,-9.097333721246742e-05,0.7126315944180717,0.035711777935552615,9.75217981142177
3.456,0,4,1,26.328293105170882,3583.791223102348,-1.164543846368801,5,160,9,1,15,-266,7,-0.8069999999999999,4.193,5.807,-0.3645367808030872,0.37460681886903124,-8.944356131388755e-05,0.16647028050527723,0.1290518350368536,9.827866576455621
3.488,0,4,1,24.887411710924507,3608.6786348132723,-1.4408813942463752,5,160,9,1,16,-250,1,-0.666,4.334,5.666,-0.36552032648901783,0.37762229274655074,-8.793270789827883e-05,0.083658318809927,0.12235387905135409,9.834448866351325
3.52,0,4,1,23.41211416930267,3632.090748982575,-1.4752975416218383,5,160,9,1,17,-233,1,-0.4634999999999999,4.5365,5.4635,-0.3665655063198608,0.38062197351414817,-8.664459951389716e-05,0.006224324498308249,0.07957473258343718,9.794895014108034
3.552,0,4,1,22.409837371493268,3654.500586354068,-1.002276797809401,5,160,9,1,17,-216,0,-0.345,4.655,5.345,-0.3676615106386512,0.3836132013921913,-8.523092144798079e-05,0.009947760763325037,0.06809650327134815,9.800899287655366
3.584,0,4,1,20.879016880557412,3675.379603234626,-1.5308204909358558,5,160,9,1,14,-202,-3,-0.4919999999999999,4.508,5.492,-0.3687902729351772,0.3865973672338371,-8.365448314043636e-05,0.00523311146487621,0.05143008626976172,9.804010871458482
3.616,0,4,1,19.316352819504157,3694.69595605413,-1.5626640610532547,5,160,9,1,13,-189,-1,-0.4515,4.5485,5.4515,-0.3699433078500326,0.38957889479922164,-8.232416571377077e-05,0.006558509053389641,0.04253363503941599,9.834229917140924
3.648,0,4,1,18.08344538304867,3712.7794014371784,-1.2329074364554877,5,160,9,1,13,-176,0,-0.34499999999999986,4.655,5.345,-0.3711279629943669,0.3925475625183244,-8.094200981553258e-05,0.00020476592551689404,0.05318717938828882,9.832734242759502
3.68,0,4,1,15.945395900922858,3728.7247973381013,-2.138049482125812,5,160,9,1,11,-165,-2,-0.4305000000000001,4.5695,5.4305,-0.37234117033948055,0.39550419371785334,-7.942561095349368e-05,2.1658550121929393e-05,0.05035304604748103,9.791806700283242
3.712,0,4,1,14.858614447924657,3743.583411786026,-1.086781452998201,5,160,9,1,11,-154,0,-0.33000000000000007,4.67,5.33,-0.3735760819555206,0.3984524173751934,-7.811984498465492e-05,0.0009140345015627892,0.04271009744896538,9.816473132837586
3.744,0,4,1,12.652556500557937,3756.235968286584,-2.2060579473667197,5,160,9,1,9,-145,-2,-0.4305,4.5695,5.4305,-0.3748385478335813,0.4013890225397524,-7.675916449247436e-05,0.0004640411721992657,0.04913483139902271,9.837525497565005
3.7760000000000002,0,4,1,10.972240237811638,3767.2082085243956,-1.6803162627462989,5,160,9,1,9,-136,0,-0.3450000000000001,4.655,5.345,-0.37612209908905464,0.4043173091243121,-7.566830974621921e-05,0.0010891556759224205,0.041601867489500254,9.822847103309146
3.8080000000000003,0,4,1,9.272601777200324,3776.4808103015957,-1.6996384606113146,5,160,9,1,9,-127,0,-0.2775000000000001,4.7225,5.2775,-0.37743366196283534,0.4072334935687815,-7.459176796119175e-05,0.0006788552770714173,0.048589247200488336,9.79324756995663
3.84,0,4,1,7.556344056439443,3784.037154358035,-1.716257720760881,5,160,9,1,9,-118,0,-0.21000000000000008,4.79,5.21,-0.37876721630133486,0.4101399433547186,-7.357923448645699e-05,0.00046749742965196726,0.04202331663121421,9.808642194327321
3.872,0,4,1,5.826342029555814,3789.8634963875907,-1.7300020268836285,5,160,9,1,8,-110,-1,-0.23399999999999999,4.766,5.234,-0.38011805010234456,0.4130386121895088,-7.26495601238164e-05,0.0003373378918203995,0.03631363459330716,9.815318419423585
3.904,0,4,1,3.503531644784471,3793.367028032375,-2.3228103847713433,5,160,9,1,7,-103,-1,-0.25649999999999995,4.7435,5.2565,-0.38148169476191374,0.41593171490960895,-7.176500005279425e-05,0.00028611642704479405,0.0307395376682194,9.805604477952924
3.936,0,4,1,1.169139327907133,3794.536167360282,-2.334392316877338,5,160,9,1,7,-96,0,-0.19499999999999995,4.805,5.195,-0.38286002086790183,0.4188182798028668,-7.091432731439612e-05,-0.00010942433800683541,0.03196559701005562,9.791560625416297
3.968,0,4,1,0.0,3794.536167360282,-1.169139327907133,5,160,9,1,8,-88,1,-0.05099999999999994,4.949,5.051,-0.38425461551121814,0.42169723594799396,-7.002314516872665e-05,-0.0008831372605476636,0.032952868231766824,9.765664326009048
4.0,0,4,1,1.7534048600716274,3796.2895722203534,1.7534048600716274,5,160,9,1,7,-81,-1,-0.0914999999999999,4.9085,5.0915,-0.38566126300792286,0.4245703728528453,-6.904222398917449e-05,-0.0018255654821450267,0.02756610082899418,9.778868847993879
4.032,0,4,1,4.085616779974888,3800.375189000328,2.3322119199032607,5,160,9,1,7,-74,0,-0.029999999999999916,4.97,5.03,-0.3870698502299259,0.4274427919192071,-6.821493741388136e-05,-0.002306374080514355,0.01550262243623832,9.81547637627634
4.064,0,4,1,6.4043527263841025,3806.779541726712,2.3187359464092143,5,160,9,1,6,-68,-1,-0.06900000000000005,4.931,5.069,-0.3884838981835186,0.4303128650492789,-6.7430664874581e-05,-0.0027061193300299997,0.018401310065453258,9.80988798377659
4.096,0,4,1,8.130102354156005,3814.909644080868,1.7257496277719024,5,160,9,1,7,-61,1,0.07650000000000005,5.0765,4.9235,-0.3898985036142163,0.43318268657167047,-6.67871677117269e-05,-0.003260271809601986,0.012150238501230272,9.807678810316187
4.128,0,4,1,10.40771131249005,3825.317355393358,2.2776089583340458,5,160,9,1,6,-55,-1,0.028499999999999977,5.0285,4.9715,-0.39131747781761783,0.43605186581177713,-6.614260382998421e-05,-0.001831957263904087,0.014449762617790306,9.787622113449933
4.16,0,4,1,12.652556500557937,3837.969911893916,2.2448451880678864,5,160,9,1,6,-49,0,0.08249999999999996,5.0825,4.9175,-0.39272994271752604,0.43892231376935265,-6.564640173647475e-05,-0.004816110980820382,0.003091722280015208,9.824346689932877
4.192,0,4,1,13.897176315015338,3851.8670882089314,1.2446198144574012,5,160,9,1,7,-42,1,0.21900000000000003,5.219,4.781,-0.3941395566898701,0.44179440929244657,-6.522764269527997e-05,-0.002604210388054848,0.005014219872445913,9.813677380561062
4.224,0,4,1,15.792403528857285,3867.659491737789,1.895227213841947,5,160,9,1,6,-36,-1,0.17099999999999993,5.171,4.829,-0.3955427568156051,0.4446699119428788,-6.487236657372678e-05,-0.002009871096176297,-2.2951426681641795e-05,9.793420778462755
4.256,0,4,1,18.08344538304867,3885.7429371208373,2.291041854191384,5,160,9,1,6,-30,0,0.22499999999999998,5.225,4.775,-0.3969300367566433,0.4475534586736997,-6.465359469025843e-05,-0.0011322085468623132,-0.011494424403806332,9.816565972042646
4.288,0,4,1,19.653824058053292,3905.3967611788908,1.5703786750046227,5,160,9,1,7,-23,1,0.36150000000000004,5.3615,4.6385,-0.3983050599135599,0.45044312792698965,-6.454012321668173e-05,-0.0003357475866455717,-0.00874280499078698,9.83916363014619
4.32,0,4,1,21.19405648154228,3926.590817660433,1.5402324234889875,5,160,9,1,6,-17,-1,0.31349999999999995,5.3135,4.6865,-0.399664270861644,0.4533407247696158,-6.455110413850634e-05,0.0008933132358425168,-0.013861856091585049,9.856260481938678
4.352,0,4,1,23.69068940282738,3950.2815070632605,2.4966329212851015,5,160,9,1,6,-11,0,0.36749999999999994,5.3675,4.6325,-0.40099803950384755,0.45625035091796046,-6.468656407927938e-05,0.0016999315758818617,-0.025496297267453158,9.790998638782927
4.384,0,4,1,25.621995944606983,3975.9035030078676,1.9313065417796018,5,160,9,1,6,-5,0,0.4125,5.4125,4.5875,-0.40231002751364664,0.459170073251928,-6.495834322959963e-05,0.0023437597298988765,-0.022728545716719166,9.808870586537425
4.416,0,4,1,27.03086025984298,4002.9343632677105,1.4088643152359985,5,160,9,1,6,1,0,0.45749999999999996,5.4575,4.5425,-0.40359655156057594,0.46210128543047363,-6.536174965714875e-05,0.002824114346511477,-0.02793559496862835,9.849680375122928
4.448,0,4,1,28.85566121971652,4031.790024487427,1.8248009598735386,5,160,9,1,6,7,0,0.5025,5.5024999999999995,4.4975000000000005,-0.40485453415163136,0.46504506429563514,-6.5897619214118e-05,0.002931063336184216,-0.03235822617603002,9.836842281651457
4.48,0,4,1,29.494955817687707,4061.284980305115,0.6392945979711868,5,160,9,1,7,14,1,0.639,5.639,4.361,-0.40608086357837897,0.46800239552434614,-6.656845842537007e-05,0.0025493085801300166,-0.03690465475935942,9.712415896917571
4.5120000000000005,0,4,1,30.618605408909396,4091.9035857140243,1.1236495912216888,5,160,9,1,6,20,-1,0.591,5.591,4.409,-0.407272557206464,0.47097447279876986,-6.747932588232336e-05,0.0021406819539318074,-0.041811998689500925,9.881804499600591
4.5440000000000005,0,4,1,31.639781555235523,4123.54336726926,1.0211761463261269,5,160,9,1,7,27,1,0.7365,5.7365,4.2635,-0.4084194338628139,0.4739642717657506,-6.846588014415393e-05,0.00025835688236222447,-0.05359838048775373,9.816592043986757
4.5760000000000005,0,4,1,33.146995832255996,4156.690363101516,1.5072142770204735,5,160,9,1,6,33,-1,0.6885,5.6885,4.3115,-0.40952543920107415,0.4769700964932578,-6.976855100626969e-05,-0.0014290750830494516,-0.05069473955759408,9.798149103417767
4.6080000000000005,0,4,1,35.14867265719193,4191.839035758708,2.0016768249359345,5,160,9,1,4,37,-2,0.5594999999999999,5.5595,4.4405,-0.4105794740673386,0.47999458875922496,-7.113429649355761e-05,-0.004803173626424766,-0.06339588432532267,9.84856726360921
4.64,0,4,1,36.30449712257524,4228.143532881283,1.1558244653833114,5,160,9,1,6,43,2,0.7905,5.7905,4.2095,-0.41158497022346213,0.48303416798247123,-7.233480055601066e-05,-0.004205739608001011,-0.06065714665628045,9.784339338650796
4.672,0,4,1,37.512611802856355,4265.65614468414,1.2081146802811134,5,160,9,1,6,49,0,0.8174999999999999,5.8175,4.1825,-0.41255201218265075,0.48608740168379455,-7.39778746202506e-05,0.0004654172933218435,-0.052735460717054386,9.774033854189815
4.704,0,4,1,38.87306699450592,4304.529211678646,1.3604551916495637,5,160,9,1,8,57,2,1.0454999999999999,6.0455,3.9545000000000003,-0.41346312996436346,0.4891579810472943,-7.566461976838551e-05,0.0022530409829342223,-0.0714947137588813,9.856933650168763
4.736,0,4,1,41.59723022893824,4346.126441907584,2.724163234432318,5,160,9,1,5,62,-3,0.813,5.813,4.187,-0.41431622865299217,0.49224674699541554,-7.607390953327971e-05,0.003758088727618317,-0.07485164841418869,9.837010893707125
4.768,0,4,1,44.421274434392245,4390.547716341976,2.8240442054540082,5,160,9,1,4,66,-1,0.7859999999999999,5.786,4.214,-0.4150905035349392,0.49534043794099497,-7.624604350668987e-05,-0.012535958816382873,-0.09252409325418247,9.846968872296499
4.8,0,4,1,47.489552921999156,4438.037269263976,3.0682784876069107,5,160,9,1,5,71,1,0.9165,5.9165,4.0835,-0.4157991115590173,0.49842045263772233,-7.643740309615926e-05,-0.02606246492695691,-0.07761801815653908,9.84178402209951
4.832,0,4,1,49.80795396303047,4487.8452232270065,2.318401041031315,5,160,9,1,3,74,-2,0.7619999999999999,5.762,4.238,-0.41644490520560706,0.5015009601164768,-7.687687827964348e-05,-0.010717611134657547,-0.08004242383061175,9.80134105956603
4.864,0,4,1,51.80131482398158,4539.646538050988,1.9933608609511069,5,160,9,1,3,77,0,0.8025,5.8025,4.1975,-0.41702183212563326,0.5046039875123829,-7.70310292798667e-05,0.010540757853974332,-0.08994993598684753,9.79565191978657
4.896,0,4,1,53.91984378366227,4593.56638183465,2.1185289596806953,5,160,9,1,3,80,0,0.825,5.825,4.175,-0.417539998072334,0.5077145304113463,-7.723289654653145e-05,-0.0010913086037878201,-0.07864265067736581,9.807436088956255
4.928,0,4,1,55.92280471986926,4649.48918655452,2.002960936206989,5,160,9,1,4,84,1,0.939,5.939,4.061,-0.4179963445193933,0.510833180860694,-7.7430512323267e-05,0.00023737766163970203,-0.08278351123589862,9.80204229738266
4.96,0,4,1,57.346420668726836,4706.835607223246,1.4236159488575737,5,160,9,1,6,90,2,1.143,6.143,3.857,-0.41837793570332127,0.5138869003233071,-7.781637830722894e-05,-0.07098100083816733,-0.08808107149243467,9.883321116237529
4.992,0,4,1,57.92213640108792,4764.757743624335,0.5757157323610826,5,160,9,1,12,102,6,1.719,6.28,3.2809999999999997,-0.4186648956328185,0.5165902907183187,-7.858943497200677e-05,-0.3510310206139746,-0.07982232651336468,9.825909562291194
5.024,0,4,1,75,4839.757743624335,17.07786359891208,5,160,9,1,21,123,9,2.5785,6.28,2.4215,-0.4188619099651989,0.5186824063019897,-8.004791082071722e-05,-0.6056025431150259,-0.04981923328160431,9.839395965451237
5.056,0,4,1,75,4914.757743624335,0,5,160,9,1,25,148,4,3.021,6.28,1.979,-0.4190262852497312,0.5204122918523556,-8.205199542023894e-05,-0.3572061366561554,-0.021018901626642612,9.7893096178376
5.088,0,4,1,75,4989.757743624335,0,5,160,9,1,28,176,3,3.447,6.28,1.553,-0.41916211097685036,0.5219379406710125,-8.377264232738504e-05,-0.20180935602467903,-0.0328186149482711,9.787450749800641
5.12,0,4,1,75,5064.757743624335,0,5,160,9,1,16,192,-12,2.5319999999999996,6.28,2.4680000000000004,-0.41936279197987225,0.5243176494097891,-8.51442706116378e-05,0.8350876531653302,0.00979058923828113,9.847470544593275
5.152,0,4,1,75,5139.757743624335,0,5,160,9,1,11,203,-5,2.3025,6.28,2.6975,-0.4194546611988779,0.5271272070092696,-8.573755048886175e-05,0.41850780188054326,-0.12482395220505434,9.80646202235763
5.184,0,4,1,75,5214.757743624335,0,5,160,9,1,16,219,5,2.8874999999999997,6.28,2.1125000000000003,-0.41941989815806496,0.5292371431283805,-8.693958334030083e-05,-0.679709400797985,-0.15601985369570795,9.814314164656308
5.216,0,4,1,75,5289.757743624335,0,5,160,9,1,23,242,7,3.603,6.28,1.3969999999999998,-0.41937286112375766,0.5305890220064567,-8.917824790043334e-05,-0.7399721626995501,-0.04545178911579625,9.84085823635615
5.248,0,4,1,75,5364.757743624335,0,5,160,9,1,29,271,6,4.2615,6.28,0.7385000000000002,-0.4193394606977372,0.5314509958962129,-9.17511318198113e-05,-0.4767236227967778,-0.014526579065363613,9.861450431842181
5.28,0,4,1,75,5439.757743624335,0,5,160,9,1,32,303,3,4.6995,6.28,0.30050000000000043,-0.41931786559757334,0.5319058801793725,-9.388761718399224e-05,-0.3998128004897464,-0.014303604158766975,9.8642612149184
5.312,0,4,1,75,5514.757743624335,0,5,160,9,1,34,337,2,5.0954999999999995,6.28,-0.09549999999999947,-0.4193032923449696,0.532121054446796,-9.509311560042429e-05,-0.23602589608874264,-0.01563960830107439,9.762964942058026
5.344,0,4,1,75,5589.757743624335,0,5,160,9,1,22,359,-12,4.2345,6.28,0.7655000000000003,-0.4192802547734575,0.5330493875663155,-9.529964979676335e-05,0.6996269474196085,0.009136806413117092,9.792128835913642
5.376,0,4,1,75,5664.757743624335,0,5,160,9,1,11,370,-11,3.5009999999999994,6.28,1.4990000000000006,-0.419157394430428,0.535304506760422,-9.470852849031985e-05,1.2933735571655216,0.0316304684578101,9.833307080938082
5.408,0,4,1,75,5739.757743624335,0,5,160,9,1,2,372,-9,2.859,6.28,2.141,-0.41885613919356496,0.5377953704568935,-9.46570644753536e-05,0.25659000682381927,-0.14957208763984858,9.810734513500574
5.44,0,4,1,75,5814.757743624335,0,5,160,9,1,6,378,4,3.321,6.28,1.6789999999999998,-0.4185428121885086,0.5394830785621701,-9.600906510072275e-05,-0.768792528686326,-0.16952233613963355,9.792297366372887
5.472,0,4,1,75,5889.757743624335,0,5,160,9,1,14,392,8,4.062,6.28,0.9379999999999997,-0.41835213020386747,0.540346572064424,-9.86369903582078e-05,-0.8091022053114578,-0.03904828097587792,9.804312556175963
5.5040000000000004,0,4,1,75,5964.757743624335,0,5,160,9,1,20,412,6,4.644,6.28,0.35599999999999987,-0.4182738557508873,0.5406189481791934,-0.00010141680151694657,-0.5890984493233815,-0.003837512276857069,9.855112476311215
5.5360000000000005,0,4,1,75,6039.757743624335,0,5,160,9,1,23,435,3,5.0145,6.28,-0.014499999999999957,-0.4182347108834993,0.5407429294522353,-0.00010323811994136789,-0.15002794271770353,-0.004076244455305818,9.830413194829358
5.5680000000000005,0,4,1,75,6114.757743624335,0,5,160,9,1,22,457,-1,5.068499999999999,6.28,-0.06849999999999934,-0.4182228584416327,0.5407400627322745,-0.0001036199417648459,-0.12745070202888661,-0.011907596188529044,9.852378772394953
5.6000000000000005,0,4,1,75,6189.757743624335,0,5,160,9,1,20,477,-2,5.0595,6.28,-0.059499999999999886,-0.41817849693604003,0.5409527848114538,-0.00010263899444101256,0.2123238044191546,-0.01356827531427804,9.834781689619858
5.632,0,4,1,75,6264.757743624335,0,5,160,9,1,5,482,-15,3.855,6.28,1.145,-0.4178467223425093,0.5429057003928375,-0.00010074054908478479,1.721426156184565,0.1143739479276799,9.819831513950081
5.664,0,4,1,61.216367089082524,6325.974110713417,-13.783632910917476,5,160,9,1,-4,478,-9,3.204,6.28,1.7959999999999998,-0.41726747523078456,0.5452247532810568,-9.905965416636027e-05,0.41476360866568107,-0.14202212777997597,9.849348868151491
5.696,0,4,1,61.216367089082524,6387.190477802499,0.0,5,160,9,1,-9,469,-5,2.7975000000000003,6.28,2.2024999999999997,-0.41647747351821685,0.5477045842487784,-9.899632293557288e-05,0.21856443068649598,-0.15555733990457707,9.776079264513436
5.728,0,4,1,75,6462.190477802499,13.783632910917476,5,160,9,1,2,471,11,3.7815,6.28,1.2185000000000001,-0.41607117341915983,0.5486568383861021,-0.00010176604197738998,-1.5313354407122366,-0.15479952143809914,9.797073831275787
5.76,0,4,1,75,6537.190477802499,0,5,160,9,1,10,481,8,4.4295,6.28,0.5705,-0.4158932504852407,0.5490228478529594,-0.00010426788800607482,-0.6135435631751192,0.012684684448614711,9.830416608444587
5.792,0,4,1,75,6612.190477802499,0,5,160,9,1,13,494,3,4.707,6.28,0.29300000000000015,-0.41580461281718223,0.5491935218556554,-0.00010617429978851921,-0.2085442897059285,0.004987994017459079,9.818502981634555
5.824,0,4,1,75,6687.190477802499,0,5,160,9,1,14,508,1,4.869000000000001,6.28,0.13099999999999934,-0.4157448377387804,0.5493149425971485,-0.0001066954347132415,-0.054934473003688686,-0.006863837613918613,9.840426747552455
5.856,0,4,1,75,6762.190477802499,0,5,160,9,1,15,523,1,5.0565,6.28,-0.05649999999999977,-0.4157062673037093,0.5493918975813392,-0.00010578382150635939,-0.048333204044874935,-0.01200080245206015,9.793005879961305
5.888,0,4,1,60.176577587739075,6822.367055390238,-14.823422412260925,5,160,9,1,-2,521,-17,3.6045,6.28,1.3955000000000002,-0.41509551287416085,0.5509628846615223,-0.00010370289601388874,1.5638453111100803,0.009549343069707726,9.836460654593346
5.92,0,4,1,59.90265423903113,6882.2697096292695,-0.273923348707946,5,160,9,1,-9,512,-7,3.102,6.28,1.8980000000000001,-0.41419199456205213,0.5531873569409483,-0.0001016064441865562,0.6975679544268566,-0.002841401434726123,9.767331238241692
5.952,0,4,1,58.9283419391537,6941.198051568424,-0.9743122998774325,5,160,9,1,-15,497,-6,2.5485,6.28,2.4515,-0.4131023202906741,0.5554536105956235,-0.00010096165317018818,0.12324558590184648,-0.15579439946824838,9.79579900234521
5.984,0,4,1,58.81502534126161,7000.013076909685,-0.11331659789208715,5,160,9,1,-3,494,12,3.588,6.28,1.412,-0.4125284050958959,0.5563565232688126,-0.00010315742010745532,-1.4096647496831811,-0.18133081299737597,9.745851680070688
6.016,0,4,1,58.240519915187214,7058.253596824872,-0.5745054260743956,5,160,9,1,5,499,8,4.1895,6.28,0.8105000000000002,-0.41223985461094204,0.5567904177099746,-0.00010506759696082141,-0.535268152291777,0.027052365634102855,9.800473274855205
6.048,0,4,1,58.172553423326896,7116.426150248199,-0.067966491860318,5,160,9,1,9,508,4,4.521,6.28,0.4790000000000001,-0.4120509618190883,0.5570931861951249,-0.00010638201680109038,-0.15855531787893662,0.012340603543296387,9.80416544571623
6.08,0,4,1,58.10278994126246,7174.528940189461,-0.06976348206443816,5,160,9,1,12,520,3,4.827,6.28,0.17300000000000004,-0.4119371326698931,0.557269916704618,-0.00010640437791520525,-0.14347740665445208,-0.006494524087191383,9.803367162779203
6.112,0,4,1,58.06522153684731,7232.594161726308,-0.03756840441514697,5,160,9,1,6,526,-6,4.340999999999999,6.28,0.6590000000000007,-0.41157784940432984,0.5579184021662288,-0.0001051033474406167,0.5218377685416181,-0.01842453007530995,9.797878330407507
6.144,0,4,1,57.47907180192763,7290.0732335282355,-0.5861497349196796,5,160,9,1,-9,517,-15,3.0675000000000003,6.28,1.9324999999999997,-0.41063046285105476,0.5597446287725171,-0.00010301920219244788,1.2858185340989146,0.09028366347938976,9.849666027756076
6.176,0,4,1,56.0353541630349,7346.10858769127,-1.4437176388927284,5,160,9,1,-17,500,-8,2.403,6.28,2.597,-0.4093084741694699,0.5618902265561274,-0.0001014382760955411,0.4655421829981412,-0.14245632856895615,9.847769494395289
6.208,0,4,1,55.1755108430432,7401.284098534314,-0.8598433199917039,5,160,9,1,-16,484,1,2.4389999999999996,6.28,2.5610000000000004,-0.40795627368577814,0.5638031814145654,-0.00010140344712349439,-0.1656301514671472,-0.17334640456552408,9.819708865233471
6.24,0,4,1,55.28357065113528,7456.567669185449,0.10805980809207938,5,160,9,1,-2,482,14,3.5909999999999997,6.28,1.4090000000000003,-0.4072645124843946,0.5646061909803113,-0.00010272703032737814,-1.2521853942409882,-0.10675074048617385,9.820731269181199
6.272,0,4,1,55.369199619742986,7511.936868805192,0.08562896860770763,5,160,9,1,5,487,7,4.0905,6.28,0.9095000000000004,-0.40688638769865454,0.5650568773854131,-0.00010453078848083296,-0.45358330680835224,0.0419913557706071,9.785910362625028
6.304,0,4,1,55.34868408799547,7567.285552893187,-0.020515531747513194,5,160,9,1,10,497,5,4.5225,6.28,0.47750000000000004,-0.4066427969453134,0.5653502764631788,-0.00010538794764096589,-0.2022973354569535,0.005444510358706103,9.787727360928821
6.336,0,4,1,55.150648280267404,7622.436201173454,-0.1980358077280684,5,160,9,1,12,509,2,4.735499999999999,6.28,0.26450000000000085,-0.4064887460364183,0.5655540679229503,-0.00010488462864319086,-0.12222118865128868,0.006179665814708714,9.799902843957264
6.368,0,4,1,53.615648184164115,7676.051849357618,-1.535000096103289,5,160,9,1,-7,502,-19,3.069,6.28,1.931,-0.40543722408106275,0.5671155564429801,-0.00010308997855195193,1.5797360583296034,0.10251115842675029,9.847656063521805
6.4,0,4,1,52.028396238949604,7728.080245596568,-1.5872519452145113,5,160,9,1,-14,488,-7,2.5469999999999993,6.28,2.4530000000000007,-0.4038907440023406,0.5691021791154676,-0.0001010537098833069,0.6315347077694619,-0.11102178689093378,9.821182225663689
6.432,0,4,1,50.3893117599734,7778.469557356541,-1.6390844789762014,5,160,9,1,-20,468,-6,1.9559999999999997,6.28,3.0440000000000005,-0.4021085968609349,0.5711376075143937,-0.0001003793883002091,0.19349075659416015,-0.15061506844978356,9.784302702395976
6.464,0,4,1,50.29008120537127,7828.759638561913,-0.09923055460212993,5,160,9,1,-5,463,15,3.2324999999999995,6.28,1.7675000000000005,-0.40126251054070705,0.5719788852461627,-0.00010228240525513195,-1.4798083777050632,-0.11946267368400969,9.831535275732252
6.496,0,4,1,50.76263288659845,7879.522271448511,0.4725516812271806,5,160,9,1,4,467,9,3.8834999999999997,6.28,1.1165000000000003,-0.40076403071165323,0.5724717182568954,-0.00010371627943988118,-0.4774872385270044,0.013576393444378106,9.827016498261946
6.5280000000000005,0,4,1,51.22582906442577,7930.748100512937,0.4631961778273137,5,160,9,1,10,477,6,4.3815,6.28,0.6185,-0.4004459673961609,0.5727851000313015,-0.00010444490676047094,-0.24763443910093158,0.0014043901808875967,9.806256885204649
6.5600000000000005,0,4,1,50.99538680407546,7981.743487317012,-0.23044226035030846,5,160,9,1,12,489,2,4.5855,6.28,0.4145000000000003,-0.400175065822581,0.5730759061795833,-0.00010387598474746393,-0.047212660383007934,0.0026515476879835627,9.807620607719214
6.5920000000000005,0,4,1,49.06631877480598,8030.809806091818,-1.9290680292694802,5,160,9,1,-8,481,-20,2.8274999999999997,6.28,2.1725000000000003,-0.39890602468691994,0.5745754840954223,-0.00010205246212430935,1.522808938497984,0.11893260370529585,9.784537405262345
6.6240000000000006,0,4,1,47.26795453590583,8078.077760627724,-1.7983642389001488,5,160,9,1,-15,466,-7,2.3069999999999995,6.28,2.6930000000000005,-0.3970764228597911,0.5764242096940386,-9.998107784814532e-05,0.6359615553431985,-0.13421753235999728,9.797210049127933
6.656000000000001,0,4,1,45.59065721464667,8123.668417842371,-1.6772973212591609,5,160,9,1,-21,445,-6,1.7085,6.28,3.2915,-0.39501030034604584,0.5782953802930194,-9.92388453972589e-05,0.19142735823380166,-0.14738650535930406,9.79927756189647
6.688,0,4,1,45.29382193465071,8168.962239777022,-0.2968352799959604,5,160,9,1,-13,432,8,2.3369999999999997,6.28,2.6630000000000003,-0.3934611129191665,0.5795402404855575,-9.982313299607658e-05,-0.7788377830673922,-0.15857783580953433,9.78373613558838
6.72,0,4,1,45.29083902235055,8214.253078799373,-0.002982912300154794,5,160,9,1,1,433,14,3.4485,6.28,1.5514999999999999,-0.3926358166370823,0.5802696296647094,-0.00010129269733415158,-0.8615018977743025,0.07306097190339543,9.842621139214517
6.752,0,4,1,45.29083902235055,8259.543917821724,0.0,5,160,9,1,10,443,9,4.1535,6.28,0.8464999999999998,-0.392163002919213,0.5807024392732751,-0.00010255820150260886,-0.4498072937863918,-0.001335410225792713,9.840677038231151
6.784,0,4,1,45.00000000000001,8304.543917821724,-0.2908390223505464,5,160,9,1,15,458,5,4.605,6.28,0.3949999999999996,-0.3918972346512921,0.5809296209899821,-0.00010260681566085297,-0.28657397596820783,-0.028826718805675708,9.828662549903148
6.816,0,4,1,43.19126067750794,8347.735178499232,-1.808739322492066,5,160,9,1,-7,451,-22,2.6595,6.28,2.3405,-0.3904696893891932,0.5822619245038747,-0.00010124604637820958,1.5602380035000725,0.11997602389655845,9.769854353721273
6.848,0,4,1,41.85504253530199,8389.590221034534,-1.3362181422059507,5,160,9,1,-15,436,-8,2.073,6.28,2.927,-0.3883919503461001,0.5839171013005995,-9.924691564783435e-05,0.699161967275167,-0.13157411841059957,9.754501648023249
6.88,0,4,1,40.84614691304881,8430.436367947583,-1.0088956222531777,5,160,9,1,-22,414,-7,1.3920000000000001,6.28,3.6079999999999997,-0.3860595976483162,0.5855830513307081,-9.839628655046624e-05,0.21414782599490234,-0.1439362903509096,9.780259052004745
6.912,0,4,1,40.155999624919325,8470.592367572503,-0.6901472881294879,5,160,9,1,-15,399,7,1.9304999999999997,6.28,3.0695000000000006,-0.3841088537325608,0.5868238756578985,-9.867642240872845e-05,-0.5374176796738018,-0.15852044131965087,9.843790078886073
6.944,0,4,1,39.22567409733672,8509.81804166984,-0.9303255275826032,5,160,9,1,0,399,15,3.1274999999999995,6.28,1.8725000000000005,-0.38301328121069783,0.5875739072776283,-9.97649259588361e-05,-0.9532517951358881,0.06423640913880277,9.822457992717144
6.976,0,4,1,39.863621507572276,8549.681663177413,0.6379474102355545,5,160,9,1,8,407,8,3.7245,6.28,1.2755,-0.3823574014267525,0.5880444687383221,-0.0001008453320155249,-0.5078946505318139,0.00964250200461742,9.810555957323558
7.008,0,4,1,39.22567409733672,8588.90733727475,-0.6379474102355545,5,160,9,1,11,418,3,3.987,6.28,1.013,-0.3816842639582531,0.5885072679557783,-0.00010079484269480063,0.0088256257031882,-0.034089107480063545,9.798405471256913
7.04,0,4,1,37.71104767638987,8626.61838495114,-1.514626420946854,5,160,9,1,-7,411,-18,2.3955,6.28,2.6045,-0.37992758088037654,0.5897783727977159,-9.9463050520672e-05,1.3165358294825746,0.09329622361792347,9.80522737659507
7.072,0,4,1,36.20258929000894,8662.820974241149,-1.50845838638093,5,160,9,1,-16,395,-9,1.6815,6.28,3.3185000000000002,-0.3775967814878533,0.5912283064623685,-9.759479143261161e-05,0.5757991111962217,-0.1392889928345615,9.823616560477918
7.104,0,4,1,35.31121343963321,8698.132187680781,-0.8913758503757307,5,160,9,1,-23,372,-7,1.0020000000000002,6.002000000000001,3.9979999999999998,-0.3749762257449796,0.5926866937793168,-9.667381672483384e-05,0.25715982594797615,-0.1386037831109502,9.814533329157138
7.136,0,4,1,34.508522987668385,8732.64071066845,-0.8026904519648212,5,160,9,1,-25,347,-2,0.7095,5.7095,4.2905,-0.37216395192727614,0.5940943113142156,-9.634887476831465e-05,0.14685005278564953,-0.14327354883836488,9.76086377616603
7.168,0,4,1,32.58570735391442,8765.226418022363,-1.922815633753963,5,160,9,1,-17,330,8,1.2720000000000002,6.272,3.7279999999999998,-0.36967712755661447,0.5952561196044682,-9.599353061532853e-05,-0.3928343634519736,-0.0955591214248543,9.837737068135196
7.2,0,4,1,32.05737573420542,8797.28379375657,-0.5283316197090002,5,160,9,1,-3,327,14,2.3535,6.28,2.6465,-0.36814453115094575,0.5960169426908591,-9.654784056749126e-05,-1.0088087912186707,0.05807338091495689,9.779743931426792
7.232,0,4,1,32.05737573420542,8829.341169490775,0.0,5,160,9,1,8,335,11,3.2115,6.28,1.7885,-0.36708039308885443,0.5965831572478252,-9.723660780675165e-05,-0.4904068278980249,0.02911400902238499,9.81065674542816
7.264,0,4,1,32.31961650818018,8861.660785998956,0.2622407739747601,5,160,9,1,8,343,0,3.1725,6.28,1.8275000000000001,-0.3658956069934266,0.5972060297906032,-9.707559941687233e-05,0.12955456343785388,-0.02528926814611723,9.772239939911234
7.296,0,4,1,30.876813079060415,8892.537599078018,-1.442803429119767,5,160,9,1,-7,336,-15,1.86,6.28,3.1399999999999997,-0.3637295540454837,0.5983576140624238,-9.561946716330275e-05,1.0833046614492106,0.050844681970571355,9.822877367051605
7.328,0,4,1,29.809114206706518,8922.346713284724,-1.0676988723538976,5,160,9,1,-15,321,-8,1.2104999999999997,6.2105,3.7895000000000003,-0.3610674649409141,0.5995772989472736,-9.35742696784262e-05,0.4758629407368623,-0.1411004443206413,9.775399377911336
7.36,0,4,1,29.156917882313003,8951.503631167037,-0.6521963243935147,5,160,9,1,-21,300,-6,0.621,5.621,4.379,-0.3581624177207855,0.6007651122815685,-9.217540015850172e-05,0.2121635990200273,-0.12951788733663566,9.769350187267724
7.392,0,4,1,28.902357036201796,8980.40598820324,-0.25456084611120744,5,160,9,1,-22,278,-1,0.42600000000000005,5.426,4.574,-0.3551918058393102,0.6018722259806352,-9.086032641915896e-05,0.03394369853601097,-0.11269975686210952,9.799565255083868
7.424,0,4,1,27.734190504985406,9008.140178708225,-1.1681665312163894,5,160,9,1,-19,259,3,0.5444999999999999,5.5445,4.4555,-0.35219754801519554,0.6029364799116039,-8.948931910682592e-05,0.008465093155295015,-0.0648173080418516,9.806732479246365
7.456,0,4,1,26.800834946954605,9034.94101365518,-0.9333555580308008,5,160,9,1,-18,241,1,0.4665,5.4665,4.5335,-0.3492013426448493,0.6039676760467679,-8.828558127991701e-05,-0.008083806067852906,-0.049798253296668656,9.82302162685154
7.488,0,4,1,26.800834946954605,9061.741848602134,0.0,5,160,9,1,-18,223,0,0.3225,5.3225,4.6775,-0.34618919241068163,0.6049609524382399,-8.6868893723736e-05,0.0038280191180367932,-0.05950920454263692,9.810457622978834
7.5200000000000005,0,4,1,26.800834946954605,9088.542683549089,0.0,5,160,9,1,-16,207,2,0.37050000000000005,5.3705,4.6295,-0.34315954869078996,0.6059237282290275,-8.510577999489705e-05,0.007712041919875542,-0.053763151604572665,9.795854072214084
7.5520000000000005,0,4,1,25.851862542060406,9114.39454609115,-0.9489724048941994,5,160,9,1,-13,194,3,0.5069999999999999,5.507,4.493,-0.34012273076702126,0.6068654438394654,-8.336968757259935e-05,0.0009703171493250907,-0.042284739736232736,9.806898717463952
7.5840000000000005,0,4,1,25.371561753095957,9139.766107844245,-0.48030078896444905,5,160,9,1,-12,182,1,0.4740000000000001,5.474,4.526,-0.33707568117538017,0.607782301899364,-8.186618986531433e-05,0.0030254664729889493,-0.04665399039204795,9.834470322319296
7.6160000000000005,0,4,1,24.179107146689173,9163.945214990934,-1.192454606406784,5,160,9,1,-10,172,2,0.558,5.558,4.442,-0.33401715931745485,0.6086638188901732,-8.033855088991279e-05,0.0017006185540281928,-0.05666406712794062,9.859593817283637
7.648000000000001,0,4,1,23.69068940282738,9187.635904393761,-0.4884177438617918,5,160,9,1,-9,163,1,0.5565,5.5565,4.4435,-0.33094686604244816,0.6095122269491133,-7.90140912088292e-05,0.0029679247569969255,-0.05472339859586638,9.807011851528102
7.68,0,4,1,24.66381471246356,9212.299719106224,0.9731253096361776,5,160,9,1,-11,152,-2,0.29699999999999993,5.297,4.703,-0.32786426154044296,0.6103209310206986,-7.778273884393935e-05,0.0023394048164505498,-0.060273506072497096,9.83720655755893
7.712,0,4,1,24.66381471246356,9236.963533818687,0.0,5,160,9,1,-9,143,2,0.4155000000000001,5.4155,4.5845,-0.3247725598487658,0.6110896232830437,-7.630883198331967e-05,-0.0005321023243264299,-0.05995176047320799,9.848201866862516
7.744,0,4,1,24.66381471246356,9261.62734853115,0.0,5,160,9,1,-8,135,1,0.4215,5.4215,4.5785,-0.3216731451838461,0.611838002282234,-7.516072489788077e-05,0.0028958940177981115,-0.040216427214250075,9.809838811952876
7.776,0,4,1,24.179107146689173,9285.806455677839,-0.4847075657743858,5,160,9,1,-5,130,3,0.627,5.627,4.373,-0.3185654093147434,0.612556950551538,-7.417622879141335e-05,0.001722322989768568,-0.04916081417306465,9.831282209674981
7.808,0,4,1,24.179107146689173,9309.985562824528,0.0,5,160,9,1,-6,124,-1,0.471,5.471,4.529,-0.31544766980315714,0.613245973148205,-7.360154965715786e-05,0.003641930268311007,-0.04884286118704496,9.83430112215747
7.84,0,4,1,24.66381471246356,9334.64937753699,0.4847075657743858,5,160,9,1,-6,118,0,0.43500000000000005,5.4350000000000005,4.5649999999999995,-0.3123204384969568,0.6138891215308961,-7.296224792251518e-05,0.00046085351096290946,-0.0636423327656137,9.812457472847957
7.872,0,4,1,25.144785630678935,9359.79416316767,0.48097091821537674,5,160,9,1,-6,112,0,0.39,5.39,4.61,-0.3091858792414449,0.6144982177988448,-7.240678919516463e-05,0.0009543486216275285,-0.051550429110055425,9.874442836789488
7.904,0,4,1,25.86635679409453,9385.660519961764,0.721571163415593,5,160,9,1,-5,107,1,0.4365,5.4365,4.5635,-0.30604526090772477,0.6150760129440103,-7.19059429681642e-05,0.000506646734116349,-0.048518876591111336,9.816670315037314
7.936,0,4,1,24.66381471246356,9410.324334674227,-1.2025420816309698,5,160,9,1,-1,106,4,0.756,5.756,4.244,-0.3028986249905222,0.615625988695081,-7.155666086809502e-05,0.0013337291707419857,-0.0446094427250527,9.818240007310486
7.968,0,4,1,25.621995944606983,9435.946330618834,0.9581812321434242,5,160,9,1,-4,102,-3,0.43800000000000006,5.438,4.562,-0.29974260612925513,0.6161446539591563,-7.166400882234643e-05,0.004532995619957346,-0.048315996354169874,9.829575158814679
8.0,0,4,1,26.095424157388344,9462.041754776223,0.4734282127813607,5,160,9,1,-3,99,1,0.5265,5.5265,4.4735,-0.29658117564980385,0.6166071447938035,-7.146223278771575e-05,-0.0023309040698966,-0.0719809584261829,9.818497761960822
8.032,0,4,1,25.621995944606983,9487.663750720829,-0.4734282127813607,5,160,9,1,-2,97,1,0.5864999999999999,5.5865,4.4135,-0.29341389599194856,0.6170380029659452,-7.142411726065133e-05,0.0017600934508213842,-0.04778484878093599,9.819948885787118
8.064,0,4,1,26.565051177077994,9514.228801897907,0.9430552324710106,5,160,9,1,-3,94,-1,0.471,5.471,4.529,-0.2902410147794455,0.6174304776888934,-7.149505115023637e-05,0.0012029281902119022,-0.054248284466701976,9.86474007888796
