Time,SetPointAngle,SensorAngleRow,SensorAngleWidth,Angle,IntegralAngle,DeltaAngle,BaseSpeed,SetPointError,SensorErrorRow,SensorErrorWidth,Error,IntegralError,DeltaError,DeltaSpeed,LeftSpeed,RightSpeed,X,Y,Z,Roll,Pitch,Yaw
0.032,0,4,1,33.00310069207643,33.00310069207643,33.00310069207643,4.596841864704102,160,9,1,-21,-21,-21,-1.2495,3.3473418647041013,5.846341864704102,0.5905869999999971,-0.203855000000003,-6.397186062759644e-05,3.202634790352941e-07,-2.672224282396654e-07,9.77936469763795
0.064,0,4,1,38.078882361565,71.08198305364144,5.0757816694885705,4.370980100252261,160,9,1,-20,-41,1,-1.2005000000000001,3.170480100252261,5.571480100252261,0.5891432517725353,-0.20138121448907623,-3.8799720454211e-05,3.365285906506073,-0.06819599767385336,9.676973223406852
0.096,0,4,1,33.82616175818528,104.90814481182672,-4.252720603379721,4.592944632694116,160,9,1,-14,-55,6,-0.9480000000000001,3.644944632694116,5.540944632694116,0.5876738368765597,-0.19908011839384243,-6.153486325692452e-05,0.15413232614522376,0.09305681709067494,9.749826853735264
0.128,0,4,1,30.87681307906041,135.7849578908871,-2.9493486791248706,4.739108694726105,160,9,1,-10,-65,4,-0.8069999999999999,3.932108694726105,5.5461086947261045,0.5860272842386541,-0.1966346537200724,-7.225925618635325e-05,0.2380317699882458,0.0669057023755156,9.847754176602782
0.16,0,4,1,29.10473162741869,164.8896895183058,-1.7720814516417178,4.826535500080707,160,9,1,-7,-72,3,-0.6965,4.130035500080707,5.523035500080708,0.584281900734692,-0.19414524085768345,-7.045928177131476e-05,-0.130894654321437,0.061047062572114695,9.846030728396554
0.192,0,4,1,30.87681307906041,195.7665025973662,1.7720814516417178,4.734387264595338,160,9,1,-6,-78,1,-0.6855000000000001,4.048887264595338,5.419887264595339,0.5824612379512776,-0.1916444333796955,-7.50061706152657e-05,-0.0447001058638008,0.064269797505097,9.7951127011739
0.224,0,4,1,32.58570735391442,228.35220995128063,1.7088942748540141,4.649005738029425,160,9,1,-6,-84,0,-0.72,3.929005738029425,5.369005738029425,0.5806337584799393,-0.18922386845547004,-7.80902135325192e-05,-0.03968709419967327,0.06083269265512685,9.81780328071327
0.256,0,4,1,32.16439051359856,260.51660046487916,-0.4213168403158605,4.672201791160388,160,9,1,-7,-91,-1,-0.8095,3.8627017911603883,5.481701791160388,0.5788010026097239,-0.18687728435350914,-7.955420020620482e-05,-0.03994410524427952,0.057577368097293385,9.791409984764842
0.28800000000000003,0,4,1,33.00310069207643,293.5197011569556,0.8387101784778679,4.629006255217701,160,9,1,-4,-95,3,-0.6615000000000001,3.9675062552177005,5.290506255217701,0.5769213285144269,-0.1845493975056956,-8.157936906901843e-05,0.023345787113608813,0.05912065282360535,9.789528849601153
0.32,0,4,1,33.00310069207643,326.522801849032,0.0,4.629844965396178,160,9,1,-5,-100,-1,-0.7545,3.8753449653961782,5.384344965396179,0.5750185072072576,-0.18227853988800927,-8.300441100083343e-05,-0.03366559565919821,0.06734009899812439,9.776473565341783
0.352,0,4,1,33.41658139531293,359.939383244345,0.41348070323650177,4.608757449531117,160,9,1,-4,-104,1,-0.7155,3.893257449531117,5.3242574495311175,0.5730824795838619,-0.1800354502206551,-8.42052696563584e-05,-0.0010183713014222827,0.058505287659431,9.859946005936763
0.384,0,4,1,33.82616175818528,393.76554500253025,0.40958036287234734,4.588282331727863,160,9,1,-4,-108,0,-0.74,3.848282331727863,5.328282331727864,0.5711183039603578,-0.1778360777222694,-8.309200374509267e-05,-0.014735267094538157,0.0655121488759264,9.805812139272602
0.41600000000000004,0,4,1,34.231855438892175,427.9974004414224,0.4056936807068965,4.568001534374684,160,9,1,-4,-112,0,-0.76,3.808001534374684,5.328001534374684,0.5691282110822281,-0.17567811041916925,-8.21358310136109e-05,-0.013390344258018043,0.06333960621140602,9.878061925728598
0.448,0,4,1,34.633677396549515,462.63107783797193,0.4018219576573401,4.5479143082148665,160,9,1,-4,-116,0,-0.78,3.7679143082148663,5.327914308214867,0.5671115332216319,-0.17356282800791373,-8.131388155903883e-05,-0.012736880266021657,0.06556579332732465,9.752413244508475
0.48,0,4,1,34.633677396549515,497.26475523452143,0.0,4.548316130172524,160,9,1,-4,-120,0,-0.8,3.7483161301725243,5.348316130172524,0.5650679116657454,-0.17149136854234692,-8.061814002483826e-05,-0.012122521182231984,0.0673163664678032,9.73557574159794
0.512,0,4,1,35.42577211490818,532.6905273494297,0.792094718358662,4.5079192995362325,160,9,1,-3,-123,1,-0.7605000000000001,3.7474192995362325,5.268419299536233,0.5629878487393141,-0.16945579732365895,-8.00422367734973e-05,0.0008996049407751632,0.0687786549968911,9.744448890799427
0.544,0,4,1,35.81608074915566,568.5066080985853,0.3903086342474822,4.48880565390797,160,9,1,-2,-125,1,-0.7205,3.76830565390797,5.20930565390797,0.5608902443159357,-0.1674760252410392,-7.94890328555415e-05,-0.024861768219436375,0.07086910898970863,9.851936349826298
0.5760000000000001,0,4,1,36.20258929000894,604.7091973885942,0.3865085408532778,4.4694840269587,160,9,1,-3,-128,-1,-0.7945,3.6749840269586995,5.2639840269587,0.5587684213887594,-0.16554081656798808,-7.895028448158883e-05,-0.011727615244829436,0.06685909808456333,9.81391157329779
0.608,0,4,1,36.58531829969341,641.2945156882877,0.3827290096844749,4.450351356005645,160,9,1,-2,-130,1,-0.7455,3.704851356005645,5.195851356005645,0.5566244835403149,-0.16364808834464395,-7.86051096131786e-05,-0.011022416504435755,0.06447137927214926,9.845231096759726
0.64,0,4,1,37.71104767638987,679.0055633646775,1.1257293766964551,4.39332188680381,160,9,1,0,-130,2,-0.641,3.75232188680381,5.03432188680381,0.554456476103789,-0.16180217407620442,-7.824079613543214e-05,-0.011417243430278723,0.06927890980927572,9.802174051944595
0.672,0,4,1,38.73251859515071,717.7380819598283,1.0214709187608406,4.342352599323704,160,9,1,-1,-131,-1,-0.7095,3.632852599323704,5.051852599323705,0.5522867366308556,-0.16001648940368002,-7.777006566581438e-05,-0.035806752102266665,0.06514266203994298,9.789070249932761
0.704,0,4,1,38.078882361565,755.8169643213932,-0.6536362335857078,4.3767095181553355,160,9,1,-2,-133,-1,-0.7695,3.6072095181553356,5.146209518155335,0.5501169890034403,-0.1582821510018526,-7.746692755890468e-05,-0.031211947193674493,0.05862913250314185,9.826530555187174
0.736,0,4,1,39.0938588862295,794.9108232076228,1.0149765246644975,4.324292079163861,160,9,1,-1,-134,1,-0.7155000000000001,3.608792079163861,5.0397920791638615,0.5479022258334493,-0.15656873698916793,-7.728920187270553e-05,0.022546900129814546,0.06175769699198374,9.793175566783972
0.768,0,4,1,38.443053501836616,833.3538767094594,-0.650805384392882,4.3584981302925625,160,9,1,-3,-137,-2,-0.8440000000000001,3.514498130292562,5.202498130292563,0.5456850164942663,-0.15491432303638744,-7.706860806467458e-05,-0.03205731634311777,0.06688206973845906,9.824227581498414
0.8,0,4,1,39.0938588862295,872.447735595689,0.650805384392882,4.324656250304132,160,9,1,-2,-139,1,-0.7905000000000001,3.534156250304132,5.115156250304132,0.5434228970336986,-0.15328248687940796,-7.707866848241304e-05,0.023117510801114394,0.06148383839011969,9.871662470094808
0.8320000000000001,0,4,1,38.80358657089566,911.2513221665846,-0.2902723153338371,4.340110943770551,160,9,1,-2,-141,0,-0.8049999999999999,3.535110943770551,5.1451109437705504,0.5411476352701878,-0.15170686117616825,-7.704604514020483e-05,-0.020132285308391413,0.07096143501233738,9.842056677593375
0.864,0,4,1,39.0938588862295,950.345181052814,0.2902723153338371,4.325016783373192,160,9,1,-2,-143,0,-0.815,3.510016783373192,5.140016783373191,0.5388361788305218,-0.15016664997847878,-7.707396445423738e-05,0.01082266088998262,0.06621466744800335,9.817954944532481
0.896,0,4,1,38.078882361565,988.424063414379,-1.0149765246644975,4.377070858446414,160,9,1,-3,-146,-1,-0.8845,3.492570858446414,5.261570858446414,0.5365050014232031,-0.14867413032441332,-7.715241616368558e-05,-0.008301871153612554,0.06794793622916999,9.79809248344832
0.928,0,4,1,38.443053501836616,1026.8671169162155,0.36417114027161546,4.357483153767897,160,9,1,0,-146,3,-0.7165,3.6409831537678974,5.073983153767897,0.5341178034894779,-0.14720719676398536,-7.735922462631661e-05,0.034443926260700745,0.06739162269132562,9.803163287962454
0.96,0,4,1,38.078882361565,1064.9459992777806,-0.36417114027161546,4.376420053062022,160,9,1,-1,-147,-1,-0.7895,3.586920053062022,5.165920053062022,0.53171360304446,-0.1457955636373905,-7.733374019309146e-05,-0.012436965795183708,0.07323053657322534,9.80491861943117
0.992,0,4,1,36.964289289465206,1101.9102885672457,-1.1145930720997939,4.43290012859884,160,9,1,-3,-150,-2,-0.909,3.5239001285988403,5.34190012859884,0.5292763638389743,-0.14441668451085668,-7.743178955435352e-05,0.01280642468900438,0.06153801809361206,9.814654689228261
1.024,0,4,1,36.48601207024965,1138.3963006374954,-0.4782772192155562,4.456177673706733,160,9,1,-2,-152,1,-0.8555,3.600677673706733,5.3116776737067335,0.5267823912233727,-0.14306389075058248,-7.770820113051774e-05,0.037323717982466344,0.0664458180633177,9.865747873370161
1.056,0,4,1,35.70669140060289,1174.1029920380984,-0.7793206696467578,4.4954447506395026,160,9,1,-2,-154,0,-0.87,3.6254447506395024,5.365444750639503,0.5242480199031698,-0.14175636168010558,-7.789951008095077e-05,0.015625705927937147,0.07560036410336081,9.765167527209742
1.088,0,4,1,34.91183021660998,1209.0148222547084,-0.7948611839929143,4.535203350353494,160,9,1,-2,-156,0,-0.88,3.655203350353494,5.415203350353494,0.52166625908514,-0.14048720272585427,-7.811736332209371e-05,0.025692534323068433,0.07226246218031745,9.856079947994823
1.12,0,4,1,33.690067525979785,1242.7048897806883,-1.221762690630193,4.5967183863916405,160,9,1,-2,-158,0,-0.89,3.7067183863916404,5.48671838639164,0.5190370141668184,-0.1392585536579966,-7.834935178827399e-05,0.026143605226386087,0.0739748337429753,9.833287031529638
1.1520000000000001,0,4,1,32.0053832080835,1274.7102729887717,-1.6846843178962843,4.681415523913722,160,9,1,-2,-160,0,-0.9,3.7814155239137217,5.581415523913722,0.5163777034222607,-0.13808026274139593,-7.85904888938125e-05,0.007876101155781653,0.07575810379328558,9.846057706128246
1.184,0,4,1,30.256437163529263,1304.966710152301,-1.7489460445542377,4.768927087868091,160,9,1,-2,-162,0,-0.91,3.858927087868091,5.678927087868091,0.5136607078832779,-0.13694557634573196,-7.883804696750575e-05,0.03660869309740023,0.08020908030136724,9.841549234363274
1.216,0,4,1,28.442928624363343,1333.4096387766642,-1.8135085391659196,4.8596670773209985,160,9,1,-1,-163,1,-0.8605000000000002,3.9991670773209984,5.7201670773209985,0.5108672041934063,-0.13585162837129502,-7.90970648701754e-05,0.05638783149626347,0.08344808650923555,9.814157910040954
1.248,0,4,1,26.800834946954605,1360.2104737236189,-1.642093677408738,4.941600346329678,160,9,1,0,-163,1,-0.8105000000000001,4.131100346329678,5.752100346329678,0.5079925218861416,-0.13479996960280824,-7.92593636213066e-05,0.061553361071965955,0.08539575261858803,9.80203701241305
1.28,0,4,1,24.887411710924507,1385.0978854345433,-1.9134232360300985,5.037542837689805,160,9,1,0,-163,0,-0.8150000000000001,4.222542837689804,5.852542837689805,0.5050441513416395,-0.13379160654855637,-7.930180762003025e-05,0.05555310445931067,0.08428949554717903,9.79360176165628
1.312,0,4,1,23.41211416930267,1408.509999603846,-1.4752975416218383,5.110869589076488,160,9,1,1,-162,1,-0.7555000000000001,4.3553695890764885,5.866369589076488,0.502018461180062,-0.1328234003389193,-7.93008559799354e-05,0.0613304170242906,0.0822736237709059,9.80929465070651
1.344,0,4,1,21.90317808183915,1430.413177685685,-1.5089360874635176,5.186350031995507,160,9,1,2,-160,1,-0.6955000000000001,4.490850031995507,5.881850031995507,0.49892620457038445,-0.1319013291954295,-7.910942287346276e-05,0.050289918841896694,0.08397079026166303,9.770101374514072
1.3760000000000001,0,4,1,20.361603275386152,1450.7747809610712,-1.5415748064529993,5.263461411037145,160,9,1,2,-158,0,-0.6900000000000001,4.573461411037145,5.9534614110371455,0.4957682116336145,-0.13102745803679408,-7.870636409065997e-05,0.050251264566759844,0.08575401865309616,9.756533221229851
1.408,0,4,1,19.316352819504157,1470.0911337805753,-1.0452504558819946,5.315227609480675,160,9,1,3,-155,1,-0.6205,4.694727609480675,5.935727609480675,0.4925482874290331,-0.13019425578507904,-7.820071218900271e-05,0.04939734052334666,0.07815253951274607,9.811594825942596
1.44,0,4,1,17.72323661688633,1487.8143703974617,-1.5931162026178285,5.395431285358302,160,9,1,3,-152,0,-0.61,4.785431285358301,6.005431285358302,0.48927913788157673,-0.12940051012168227,-7.746490084018648e-05,0.03838411680984488,0.07422726209627295,9.8426906691392
1.472,0,4,1,16.645038214675964,1504.4594086121376,-1.078198402210365,5.448826287668413,160,9,1,4,-148,1,-0.5355000000000001,4.913326287668413,5.984326287668413,0.4859482313062443,-0.12864372922074013,-7.663738197274256e-05,0.05163029221429738,0.07399532471066071,9.808484019243316
1.504,0,4,1,15.554571270074414,1520.013979882212,-1.09046694460155,5.503361903440881,160,9,1,4,-144,0,-0.52,4.983361903440882,6.023361903440881,0.48256920333106174,-0.12792745607851413,-7.560947151915957e-05,0.038386805012011145,0.07463410668950868,9.810235438461422
1.536,0,4,1,14.452428251092973,1534.4664081333049,-1.1021430189814403,5.558480730464333,160,9,1,4,-140,0,-0.5,5.058480730464333,6.058480730464333,0.47914639388750696,-0.12724700020667337,-7.454425917375641e-05,0.0358483504534891,0.06956102020653798,9.80823538202943
1.568,0,4,1,13.897176315015338,1548.3635844483201,-0.5552519360776351,5.5856964361853105,160,9,1,5,-135,1,-0.42050000000000004,5.165196436185311,6.00619643618531,0.4756796367710994,-0.1266020345500747,-7.346442680502586e-05,0.036509096819321865,0.06908379807012299,9.816527137245961
1.6,0,4,1,12.778733188406045,1561.1423176367261,-1.118443126609293,5.642181783706307,160,9,1,5,-130,0,-0.4,5.2421817837063065,6.042181783706307,0.47217460709943704,-0.12599264907453106,-7.229332802730255e-05,0.031450870297684876,0.06737276125471334,9.799562333928025
1.6320000000000001,0,4,1,12.215719134130879,1573.358036770857,-0.5630140542751665,5.669777057347731,160,9,1,5,-125,0,-0.375,5.294777057347731,6.044777057347731,0.4686278926122244,-0.12541051904892953,-7.118345859358395e-05,0.0362800722275274,0.059683074133095745,9.778374243892083
1.6640000000000001,0,4,1,11.650299437537637,1585.0083362083947,-0.5654196965932421,5.698050447819711,160,9,1,5,-120,0,-0.35,5.348050447819712,6.048050447819711,0.46505802353000114,-0.12485769434959451,-7.016556462231642e-05,0.018371020188764072,0.05839264083059911,9.828161119516643
1.696,0,4,1,11.08256946302967,1596.0909056714243,-0.5677299745079676,5.726439256823024,160,9,1,5,-115,0,-0.32500000000000007,5.401439256823024,6.051439256823024,0.46146489260300805,-0.12433251920869282,-6.926245529629768e-05,0.018916858382787265,0.056329626272899426,9.806819163152895
1.728,0,4,1,10.512627169921368,1606.6035328413457,-0.5699422931083014,5.75493858379704,160,9,1,5,-110,0,-0.30000000000000004,5.45493858379704,6.05493858379704,0.45784872003223676,-0.12383335443364188,-6.848859480416448e-05,0.01919915024046965,0.05377160049790627,9.857193699725944
1.76,0,4,1,9.36650995701213,1615.9700427983578,-1.1461172129092372,5.812820619362303,160,9,1,4,-106,-1,-0.3345,5.478320619362303,6.147320619362303,0.4542097416348336,-0.12335850043482659,-6.785069084518092e-05,0.01922168970070029,0.050873108459088275,9.834249414962974
1.792,0,4,1,9.36650995701213,1625.33655275537,0.0,5.811674502149394,160,9,1,5,-101,1,-0.2505,5.561174502149394,6.062174502149394,0.45052881070074363,-0.12290385676481154,-6.741987538621923e-05,0.038210197703988445,0.04812955435497646,9.791526850848438
1.824,0,4,1,8.212780189285867,1633.5493329446558,-1.1537297677262632,5.870514720303434,160,9,1,4,-97,-1,-0.2895,5.5810147203034335,6.160014720303434,0.44684486813743796,-0.12247762730722227,-6.703706545388953e-05,-3.628546049450978e-05,0.05066301347521411,9.817124911673423
1.856,0,4,1,8.212780189285867,1641.7621131339417,0.0,5.869360990535707,160,9,1,4,-93,0,-0.265,5.6043609905357075,6.134360990535707,0.4431190105833067,-0.1220681530488828,-6.683515816902248e-05,0.039120249590893434,0.042462412574213494,9.803408602711599
1.8880000000000001,0,4,1,7.6333305872312645,1649.395443721173,-0.5794496020546029,5.898912920240491,160,9,1,4,-89,0,-0.245,5.653912920240491,6.143912920240491,0.43939004286545036,-0.12168349663617525,-6.673297848462309e-05,0.0007352769659269021,0.04545481598136619,9.777672317797862
1.92,0,4,1,7.0523060078411755,1656.4477497290143,-0.581024579390089,5.927965724187332,160,9,1,4,-85,0,-0.22499999999999998,5.702965724187332,6.1529657241873315,0.43563895074706344,-0.12131956084344114,-6.665778168266773e-05,0.019857467178612885,0.041966834307328255,9.815019587441242
1.952,0,4,1,6.469819985173149,1662.9175697141875,-0.5824860226680268,5.957091486764011,160,9,1,4,-81,0,-0.20500000000000002,5.7520914867640105,6.162091486764011,0.4318664132322131,-0.12097482317515171,-6.65312779350169e-05,0.01957153752235858,0.03965813291196154,9.80701237259549
1.984,0,4,1,6.469819985173149,1669.3873896993607,0.0,5.956509000741343,160,9,1,4,-77,0,-0.185,5.771509000741343,6.141509000741342,0.42806786436103733,-0.12064723158954169,-6.637138062691103e-05,0.024726970214201387,0.0370139009581131,9.81820551324923
2.016,0,4,1,6.469819985173149,1675.857209684534,0.0,5.956509000741343,160,9,1,4,-73,0,-0.16499999999999998,5.791509000741343,6.121509000741343,0.42426830211001837,-0.12033649071516402,-6.621324604204164e-05,0.0005224237193256507,0.03374649460892285,9.813548698334404
2.048,0,4,1,6.469819985173149,1682.3270296697071,0.0,5.956509000741343,160,9,1,4,-69,0,-0.14500000000000002,5.811509000741342,6.101509000741343,0.4204675697965646,-0.12004083193132135,-6.604051916577272e-05,0.0008454147587092011,0.030971174761287062,9.743696290657432
2.08,0,4,1,5.300926516525713,1687.627956186233,-1.1688934686474353,6.016122567642362,160,9,1,3,-66,-1,-0.1845,5.831622567642362,6.200622567642362,0.41666585492051855,-0.11975852220732501,-6.585773477430987e-05,0.0006882489813091775,0.028598740240826447,9.803521107925329
2.112,0,4,1,5.300926516525713,1692.9288827027588,0.0,6.014953674173714,160,9,1,3,-63,0,-0.16499999999999998,5.849953674173714,6.179953674173714,0.4128252030932617,-0.11948515887965715,-6.572127583639488e-05,0.04561620331698756,0.02580284547131537,9.786212859018454
2.144,0,4,1,5.300926516525713,1698.2298092192846,0.0,6.014953674173714,160,9,1,3,-60,0,-0.14999999999999997,5.864953674173714,6.164953674173715,0.40898420147484993,-0.11922751946825966,-6.55530968374108e-05,0.006977402331668028,0.028955119268920894,9.760034760802935
2.176,0,4,1,4.714754518704886,1702.9445637379895,-0.5861719978208271,6.044848446062576,160,9,1,3,-57,0,-0.135,5.909848446062576,6.179848446062576,0.4051422938353379,-0.1189838022668206,-6.542521924777882e-05,0.006708729363911713,0.026515173821590726,9.789723460825796
2.208,0,4,1,4.714754518704886,1707.6593182566944,0.0,6.044262274064756,160,9,1,3,-54,0,-0.12,5.9242622740647555,6.164262274064756,0.4012805250288595,-0.11875153446140625,-6.529207628323298e-05,0.02532452805917571,0.02440653111183846,9.810770577105425
2.24,0,4,1,4.714754518704886,1712.3740727753993,0.0,6.044262274064756,160,9,1,3,-51,0,-0.10499999999999998,5.939262274064756,6.149262274064755,0.3974184837410392,-0.11853063673204889,-6.517676197746389e-05,0.00581253087493779,0.022533880525658693,9.808041334128381
2.2720000000000002,0,4,1,4.714754518704886,1717.0888272941042,0.0,6.044262274064756,160,9,1,3,-48,0,-0.08999999999999997,5.954262274064756,6.134262274064755,0.39355590465576257,-0.11831973840879349,-6.506542195624208e-05,0.0052184633146530246,0.020452183938588085,9.79201310061483
2.3040000000000003,0,4,1,4.127591702511717,1721.2164189966159,-0.5871628161931692,6.074207577690607,160,9,1,2,-46,-1,-0.1345,5.939707577690607,6.208707577690607,0.38969288240427585,-0.11811749088409945,-6.495630287874261e-05,0.0039152156314611235,0.0184762843892192,9.783189483276537
2.336,0,4,1,4.127591702511717,1725.3440106991275,0.0,6.073620414874414,160,9,1,2,-44,0,-0.12,5.953620414874414,6.193620414874414,0.38581031726224774,-0.11792160594882774,-6.488142884617486e-05,0.024905120194948654,0.01661426848449688,9.782166816006258
2.368,0,4,1,3.5395591685500816,1728.8835698676776,-0.5880325339616355,6.103610074106458,160,9,1,2,-42,0,-0.10999999999999999,5.993610074106457,6.213610074106458,0.38192753883085556,-0.1177374418169769,-6.480486474395343e-05,0.007640673377398972,0.02030332587530924,9.781466719383774
2.4,0,4,1,3.5395591685500816,1732.4231290362277,0.0,6.103022041572496,160,9,1,2,-40,0,-0.1,6.003022041572496,6.2030220415724955,0.3780251065495466,-0.11756279897678779,-6.471643844605662e-05,0.02699082841566364,0.018357354041320252,9.818964547943715
2.432,0,4,1,3.5395591685500816,1735.9626882047778,0.0,6.103022041572496,160,9,1,2,-38,0,-0.09,6.013022041572496,6.193022041572496,0.37412263927752726,-0.11739770455545484,-6.465892801162804e-05,0.007445824545606725,0.01717558244665941,9.78881028532684
2.464,0,4,1,3.5395591685500816,1739.502247373328,0.0,6.103022041572496,160,9,1,2,-36,0,-0.07999999999999999,6.023022041572496,6.183022041572496,0.37021982714781854,-0.11724121677087466,-6.460621669899386e-05,0.00696741652072262,0.01593751273118543,9.856273107717117
2.496,0,4,1,3.5395591685500816,1743.041806541878,0.0,6.103022041572496,160,9,1,2,-34,0,-0.07,6.0330220415724956,6.173022041572496,0.36631672618367106,-0.11709240573323187,-6.455626762717423e-05,0.005710806067317692,0.014638742049621713,9.827482588200969
2.528,0,4,1,3.5395591685500816,1746.5813657104281,0.0,6.103022041572496,160,9,1,2,-32,0,-0.06,6.043022041572496,6.1630220415724954,0.3624133847845646,-0.11695034253759186,-6.450706452198508e-05,0.003982244793133886,0.013467774627863542,9.802002486430425
2.56,0,4,1,3.5395591685500816,1750.1209248789783,0.0,6.103022041572496,160,9,1,2,-30,0,-0.04999999999999999,6.053022041572496,6.153022041572496,0.3585098449458761,-0.11681410333352751,-6.445706864541094e-05,0.0020557490603521703,0.012223094389678281,9.851492913262975
2.592,0,4,1,2.950779109006353,1753.0717039879846,-0.5887800595437285,6.133049824609226,160,9,1,1,-29,-1,-0.09949999999999999,6.033549824609226,6.232549824609226,0.3546061434941385,-0.11668277162472497,-6.440547956151205e-05,-3.846883516712977e-05,0.010962770833665833,9.818191893978849
2.624,0,4,1,2.950779109006353,1756.022483096991,0.0,6.132461044549682,160,9,1,1,-28,0,-0.09000000000000001,6.0424610445496825,6.222461044549682,0.35068308138997634,-0.11655481021602665,-6.437562585521334e-05,0.020533195450301286,0.00967626941033123,9.79798052994633
2.656,0,4,1,2.361374658175717,1758.3838577551667,-0.589404450830636,6.162520671542045,160,9,1,1,-27,0,-0.085,6.077520671542045,6.247520671542045,0.34676009745072045,-0.11643574657758571,-6.434366113542908e-05,0.0029135473836170477,0.014188620427425662,9.819616457758787
2.688,0,4,1,2.361374658175717,1760.7452324133424,0.0,6.161931267091214,160,9,1,1,-26,0,-0.08,6.081931267091214,6.241931267091214,0.3428176403892177,-0.11632415709497351,-6.431090079127115e-05,0.027125390206719963,0.012997549872629362,9.833355102961848
2.72,0,4,1,2.361374658175717,1763.106607071518,0.0,6.161931267091214,160,9,1,1,-25,0,-0.075,6.086931267091214,6.236931267091214,0.3388753495701967,-0.11622019376240361,-6.42787951688241e-05,0.012620240971161087,0.012338552316004293,9.794061095661942
2.7520000000000002,0,4,1,2.361374658175717,1765.4679817296937,0.0,6.161931267091214,160,9,1,2,-23,1,-0.010499999999999999,6.151431267091214,6.1724312670912145,0.3349328805575963,-0.11612336033824919,-6.42444258162466e-05,0.012623380411117947,0.01167931114119984,9.788750820598167
2.7840000000000003,0,4,1,2.361374658175717,1767.8293563878694,0.0,6.161931267091214,160,9,1,1,-22,-1,-0.0645,6.097431267091214,6.226431267091214,0.33099029481961767,-0.11603312641011018,-6.421482963664231e-05,0.011366954084655954,0.011093170834830371,9.839716222656225
2.816,0,4,1,2.361374658175717,1770.1907310460451,0.0,6.161931267091214,160,9,1,1,-21,0,-0.05499999999999999,6.106931267091214,6.216931267091214,0.3270476832686174,-0.1159432784450351,-6.420706872761056e-05,0.009573639240568761,0.004894298691300398,9.7698504932346
2.848,0,4,1,1.7714697400340056,1771.9622007860792,-0.5899049181417115,6.192016417916442,160,9,1,1,-20,0,-0.05,6.142016417916442,6.2420164179164415,0.3231049492069137,-0.11585904882851705,-6.419593839101373e-05,0.007099445483490221,0.009809596327788973,9.804140949984678
2.88,0,4,1,1.7714697400340056,1773.7336705261132,0.0,6.1914265129983,160,9,1,1,-19,0,-0.045,6.1464265129983,6.2364265129983,0.31914286870212905,-0.11577916768742116,-6.417778951522089e-05,0.026799751369587347,0.008781413458847028,9.79170750701458
2.912,0,4,1,1.7714697400340056,1775.5051402661472,0.0,6.1914265129983,160,9,1,1,-18,0,-0.039999999999999994,6.1514265129983,6.2314265129983,0.3151810819099437,-0.11570361154232094,-6.415956460955642e-05,0.008046652081623812,0.008248810285254655,9.805658190692434
2.944,0,4,1,1.7714697400340056,1777.2766100061813,0.0,6.1914265129983,160,9,1,1,-17,0,-0.035,6.1564265129983,6.2264265129983,0.31121922480850406,-0.11563191395151975,-6.414159295011108e-05,0.008296986019774966,0.00760751883056867,9.827809641718556
2.976,0,4,1,1.7714697400340056,1779.0480797462153,0.0,6.1914265129983,160,9,1,1,-16,0,-0.03,6.1614265129982995,6.2214265129983,0.30725730863182776,-0.11556361573276223,-6.412407324121738e-05,0.007678238862727766,0.006952471588735912,9.837028576992566
3.008,0,4,1,1.7714697400340056,1780.8195494862493,0.0,6.1914265129983,160,9,1,1,-15,0,-0.024999999999999994,6.166426512998299,6.2164265129983,0.3032953433773903,-0.11549825871827625,-6.410701636203053e-05,0.006552870675489922,0.006325635094636414,9.813180695352353
3.04,0,4,1,1.7714697400340056,1782.5910192262834,0.0,6.1914265129983,160,9,1,1,-14,0,-0.020000000000000004,6.1714265129983,6.211426512998299,0.2993333379848706,-0.11543538654832908,-6.409031307621875e-05,0.005047950050959102,0.005729473201155673,9.791439993221166
3.072,0,4,1,1.7714697400340056,1784.3624889663174,0.0,6.1914265129983,160,9,1,1,-13,0,-0.015,6.1764265129983,6.206426512998299,0.29537130052699245,-0.11537454510099249,-6.407382345390011e-05,0.003229697063175424,0.00509249269626428,9.860133481398341
3.104,0,4,1,1.7714697400340056,1786.1339587063515,0.0,6.1914265129983,160,9,1,1,-12,0,-0.009999999999999995,6.1814265129983,6.2014265129982995,0.291409238392655,-0.11531528258884702,-6.405746965973402e-05,0.0012667159082909493,0.004429275100233884,9.744951015079284
3.136,0,4,1,1.7714697400340056,1787.9054284463855,0.0,6.1914265129983,160,9,1,0,-12,-1,-0.0645,6.1269265129983,6.2559265129982995,0.2874471584599503,-0.11525714941466804,-6.404131242236308e-05,-0.0008077192533710113,0.0037752407406540763,9.763003690610523
3.168,0,4,1,1.181188913326966,1789.0866173597124,-0.5902808267070396,6.221530835160358,160,9,1,0,-12,0,-0.06,6.161530835160359,6.28,0.2834850630882693,-0.11519969355234141,-6.403349786531821e-05,-0.0028297269869927894,0.0030961927845742756,9.789194104447567
3.2,0,4,1,1.7714697400340056,1790.8580870997464,0.5902808267070396,6.190836232171593,160,9,1,1,-11,1,-0.0004999999999999978,6.190336232171593,6.191336232171593,0.2795040943377247,-0.11514804260636866,-6.402773866184472e-05,0.017369300484870065,0.008178274490216802,9.804518846870067
3.232,0,4,1,1.181188913326966,1792.0392760130733,-0.5902808267070396,6.221530835160358,160,9,1,0,-11,-1,-0.0595,6.162030835160358,6.28,0.2755422188839267,-0.1151022212539494,-6.401699024755417e-05,-0.021621508553908233,0.007532146296788154,9.832725207519982
3.2640000000000002,0,4,1,1.7714697400340056,1793.8107457531073,0.5902808267070396,6.190836232171593,160,9,1,1,-10,1,0.0045,6.195336232171593,6.186336232171593,0.2715610245275082,-0.11505598066672054,-6.401794620437308e-05,0.01819425841979679,0.00177046335442998,9.783423979711216
3.2960000000000003,0,4,1,1.181188913326966,1794.9919346664342,-0.5902808267070396,6.221530835160358,160,9,1,0,-10,-1,-0.0545,6.167030835160358,6.276030835160358,0.2675990939924304,-0.11501550126801036,-6.40112831521971e-05,-0.021137518212384975,0.007310097046605416,9.81553818979308
3.3280000000000003,0,4,1,1.7714697400340056,1796.7634044064682,0.5902808267070396,6.190836232171593,160,9,1,1,-9,1,0.009500000000000005,6.200336232171593,6.181336232171593,0.26361752039708897,-0.11497410379036949,-6.401507911562784e-05,0.019337679459100806,0.0011211551571205988,9.814677264765155
3.36,0,4,1,1.181188913326966,1797.944593319795,-0.5902808267070396,6.221530835160358,160,9,1,0,-9,-1,-0.049499999999999995,6.172030835160358,6.271030835160358,0.2596555514283643,-0.1149379942813021,-6.400996420424278e-05,-0.02073035382550641,0.006779091713989937,9.78771507186182
3.392,0,4,1,1.181188913326966,1799.125782233122,0.0,6.220940554333652,160,9,1,0,-9,0,-0.045,6.175940554333652,6.2659405543336515,0.2556739438975666,-0.11490049519426762,-6.40137206681362e-05,0.02001697878853417,0.0005486564873434565,9.772465652988524
3.424,0,4,1,1.181188913326966,1800.3069711464489,0.0,6.220940554333652,160,9,1,1,-8,1,0.014500000000000002,6.2354405543336515,6.206440554333652,0.2516926691656582,-0.11486761791907962,-6.40153907408552e-05,0.0028893720561017524,0.006208367006741096,9.75124983047503
3.456,0,4,1,1.181188913326966,1801.4881600597757,0.0,6.220940554333652,160,9,1,0,-8,-1,-0.0445,6.176440554333651,6.265440554333652,0.24771137710225952,-0.11483892191684177,-6.40087721235083e-05,0.005321675973094319,0.005708711793477544,9.827939407897153
3.488,0,4,1,1.181188913326966,1802.6693489731026,0.0,6.220940554333652,160,9,1,1,-7,1,0.0195,6.240440554333651,6.201440554333652,0.24373008863475348,-0.11480855325556619,-6.40092947265837e-05,0.007104809195626478,6.521647761709302e-06,9.834665003015319
3.52,0,4,1,1.181188913326966,1803.8505378864295,0.0,6.220940554333652,160,9,1,0,-7,-1,-0.0395,6.181440554333651,6.260440554333652,0.2397487803343342,-0.11478229458628196,-6.40012619697889e-05,0.008432486828819287,0.005602464313490928,9.795245203114453
3.552,0,4,1,0.5906572146464071,1804.441195101076,-0.5905316986805589,6.25105767096636,160,9,1,0,-7,0,-0.035,6.21605767096636,6.28,0.23576748037485132,-0.11475389244373767,-6.400092236102418e-05,0.009366469898677218,-0.000544921645879504,9.800874800650877
3.584,0,4,1,1.181188913326966,1805.6223840144028,0.5905316986805589,6.220350022634971,160,9,1,1,-6,1,0.024500000000000004,6.244850022634971,6.195850022634971,0.23176881800952226,-0.11472904575328441,-6.399211145727973e-05,0.029929276603460488,0.0050629875340998,9.803910283134918
3.616,0,4,1,1.181188913326966,1806.8035729277296,0.0,6.220940554333652,160,9,1,0,-6,-1,-0.034499999999999996,6.186440554333651,6.255440554333652,0.22778786062515963,-0.11470723664654288,-6.398731271450506e-05,-0.004821521926561419,0.0042851182158256205,9.834544827543017
3.648,0,4,1,0.5906572146464071,1807.394230142376,-0.5905316986805589,6.25105767096636,160,9,1,0,-6,0,-0.03,6.22105767096636,6.28,0.22380653432377834,-0.11468284812337681,-6.399006882610442e-05,0.011637227778666945,-0.0011673335707334121,9.832757279934997
3.68,0,4,1,0.5906572146464071,1807.9848873570224,0.0,6.25046713926768,160,9,1,0,-6,0,-0.03,6.220467139267679,6.28,0.2198062516829112,-0.11466157317784358,-6.39841871224265e-05,0.031596046308131016,0.004405358861702496,9.791732612034396
3.712,0,4,1,1.181188913326966,1809.1660762703493,0.5905316986805589,6.220350022634971,160,9,1,1,-5,1,0.029500000000000002,6.249850022634971,6.190850022634971,0.21580614256359873,-0.11464306749202431,-6.398015846681773e-05,0.013933812469236279,0.003902568665754811,9.816733467703164
3.744,0,4,1,0.5906572146464071,1809.7567334849957,-0.5905316986805589,6.25105767096636,160,9,1,0,-5,-1,-0.029500000000000002,6.2215576709663605,6.28,0.2118251562648227,-0.11462740630090193,-6.398412999736314e-05,-0.008151668721170034,0.00385278194398491,9.837558040650316
3.7760000000000002,0,4,1,0.5906572146464071,1810.3473906996421,0.0,6.25046713926768,160,9,1,0,-5,0,-0.025,6.225467139267679,6.27546713926768,0.2078247020107309,-0.1146086205573606,-6.398433370057195e-05,0.02922998401420465,-0.0018739174351879164,9.823152273256914
3.8080000000000003,0,4,1,1.181188913326966,1811.528579612969,0.5905316986805589,6.220350022634971,160,9,1,1,-4,1,0.0345,6.2548500226349715,6.185850022634971,0.20382443351538454,-0.11459257403072207,-6.398530788343133e-05,0.008816944980167659,0.0037069254023231156,9.793332313006006
3.84,0,4,1,0.5906572146464071,1812.1192368276154,-0.5905316986805589,6.25105767096636,160,9,1,0,-4,-1,-0.0245,6.22655767096636,6.27555767096636,0.19984343773957472,-0.11457892034014079,-6.39882826548796e-05,-0.015003569495520144,0.003262318103998121,9.808772362183198
3.872,0,4,1,0.5906572146464071,1812.7098940422618,0.0,6.25046713926768,160,9,1,0,-4,0,-0.02,6.23046713926768,6.270467139267679,0.19584279816919914,-0.1145616676160573,-6.398871267455745e-05,0.021173237266934784,-0.002511324216466377,9.815445978334933
3.904,0,4,1,0.5906572146464071,1813.3005512569082,0.0,6.25046713926768,160,9,1,0,-4,0,-0.02,6.23046713926768,6.270467139267679,0.19184252597202883,-0.11454672210070868,-6.398811163143073e-05,-0.0003355504912802491,0.003111843230365812,9.805687992937644
3.936,0,4,1,0.5906572146464071,1813.8912084715546,0.0,6.25046713926768,160,9,1,0,-4,0,-0.02,6.23046713926768,6.270467139267679,0.18784224735729077,-0.11453366794118523,-6.398681449046317e-05,-0.0018980234240181283,0.002637916622283807,9.791633447375087
3.968,0,4,1,0.5906572146464071,1814.481865686201,0.0,6.25046713926768,160,9,1,0,-4,0,-0.02,6.23046713926768,6.270467139267679,0.18384196302881875,-0.11452251543444637,-6.398494996266019e-05,-0.003704224760596189,0.0025984761712947147,9.765664109282678
4.0,0,4,1,1.181188913326966,1815.6630545995279,0.5905316986805589,6.220350022634971,160,9,1,1,-3,1,0.0395,6.259850022634971,6.180850022634971,0.17984167384941507,-0.11451326411918096,-6.398278934611513e-05,-0.005302627138250378,0.002567834759975172,9.778810259876806
4.032,0,4,1,0.5906572146464071,1816.2537118141743,-0.5905316986805589,6.25105767096636,160,9,1,0,-3,-1,-0.0195,6.23155767096636,6.27055767096636,0.17586066392218988,-0.11450596227463743,-6.397118497678336e-05,-0.029162457462177074,0.002546176135210271,9.815624302689661
4.064,0,4,1,0.5906572146464071,1816.8443690288207,0.0,6.25046713926768,160,9,1,0,-3,0,-0.015,6.23546713926768,6.265467139267679,0.17186000245243024,-0.11449458553504822,-6.396943297127741e-05,0.008236744758392504,-0.0032571183051068003,9.809949847004113
4.096,0,4,1,0.5906572146464071,1817.435026243467,0.0,6.25046713926768,160,9,1,0,-3,0,-0.015,6.23546713926768,6.265467139267679,0.16785971377609676,-0.11448503882338815,-6.396875322443006e-05,-0.011319073713582595,0.002447372919602949,9.807816484936772
4.128,0,4,1,1.181188913326966,1818.616215156794,0.5905316986805589,6.220350022634971,160,9,1,1,-2,1,0.0445,6.264850022634971,6.175850022634971,0.1638594227051999,-0.11447690031901919,-6.396958707193326e-05,-0.010324917456997857,0.0019777806766280064,9.787624078310426
4.16,0,4,1,0.5906572146464071,1819.2068723714403,-0.5905316986805589,6.25105767096636,160,9,1,0,-2,-1,-0.014499999999999999,6.23655767096636,6.26555767096636,0.15987840820677202,-0.11447024406349803,-6.396063743003416e-05,-0.031832278856793385,0.0019852877489650728,9.824467967968094
4.192,0,4,1,0.5906572146464071,1819.7975295860867,0.0,6.25046713926768,160,9,1,0,-2,0,-0.01,6.24046713926768,6.260467139267679,0.1558777459945065,-0.11445904655379849,-6.396584711764255e-05,0.008454410267223763,-0.0038634273591103474,9.813755534019391
4.224,0,4,1,0.5906572146464071,1820.3881868007331,0.0,6.25046713926768,160,9,1,0,-2,0,-0.01,6.24046713926768,6.260467139267679,0.1518774581898631,-0.11444922918473563,-6.397104975116273e-05,-0.008493559617946546,0.0018303315147075356,9.793476780974409
4.256,0,4,1,0.5906572146464071,1820.9788440153795,0.0,6.25046713926768,160,9,1,0,-2,0,-0.01,6.24046713926768,6.260467139267679,0.1478771692466049,-0.114440377083031,-6.397526726160604e-05,-0.004944314248423575,0.0013384869420426317,9.816690585398733
4.288,0,4,1,0.5906572146464071,1821.569501230026,0.0,6.25046713926768,160,9,1,0,-2,0,-0.01,6.24046713926768,6.260467139267679,0.14387687887670675,-0.11443250529146527,-6.397737597699238e-05,-0.0015010249069116763,0.0013036293295766595,9.839263534500082
4.32,0,4,1,0.5906572146464071,1822.1601584446723,0.0,6.25046713926768,160,9,1,0,-2,0,-0.01,6.24046713926768,6.260467139267679,0.13987658698260413,-0.11442561852853579,-6.39767854473082e-05,0.002033450095305516,0.0012629625123353188,9.856379597850628
4.352,0,4,1,0.5906572146464071,1822.7508156593187,0.0,6.25046713926768,160,9,1,0,-2,0,-0.01,6.24046713926768,6.260467139267679,0.1358762935943337,-0.11441971415232845,-6.397353810640508e-05,0.005464513986040361,0.0012428050614153852,9.791115383947139
4.384,0,4,1,0.5906572146464071,1823.3414728739651,0.0,6.25046713926768,160,9,1,0,-2,0,-0.01,6.24046713926768,6.260467139267679,0.13187599882863632,-0.11441478475899475,-6.396828242291944e-05,0.008498997937507007,0.0012264733534554004,9.809000220888231
4.416,0,4,1,0.5906572146464071,1823.9321300886115,0.0,6.25046713926768,160,9,1,0,-2,0,-0.01,6.24046713926768,6.260467139267679,0.12787570285706393,-0.1144108203086931,-6.396211694402118e-05,0.011159943247820308,0.0012247640562863043,9.849805899323886
4.448,0,4,1,0.5906572146464071,1824.522787303258,0.0,6.25046713926768,160,9,1,0,-2,0,-0.01,6.24046713926768,6.260467139267679,0.12387540588287423,-0.11440780976726725,-6.395633550291581e-05,0.013087243400321477,0.0012283074816667803,9.836969633457743
4.48,0,4,1,0.5906572146464071,1825.1134445179043,0.0,6.25046713926768,160,9,1,1,-1,1,0.0495,6.28,6.2009671392676795,0.11987510812557603,-0.11440574229333572,-6.395212943017918e-05,0.014202076484684233,0.0012446924847390123,9.712547192337809
4.5120000000000005,0,4,1,0.5906572146464071,1825.7041017325507,0.0,6.25046713926768,160,9,1,0,-1,-1,-0.0095,6.2409671392676795,6.25996713926768,0.11588120373651964,-0.11440457859868704,-6.395191792764668e-05,0.006949965367206027,0.0012417091135501748,9.882056163185519
4.5440000000000005,0,4,1,0.5906572146464071,1826.2947589471971,0.0,6.25046713926768,160,9,1,0,-1,0,-0.005,6.24546713926768,6.2554671392676795,0.11188090613865631,-0.11439945489781919,-6.395281228677684e-05,0.018941859040582588,-0.003494200321656769,9.816681615070612
4.5760000000000005,0,4,1,0.5906572146464071,1826.8854161618435,0.0,6.25046713926768,160,9,1,0,-1,0,-0.005,6.24546713926768,6.2554671392676795,0.10788060802108032,-0.11439520383744631,-6.395568268802339e-05,0.011444417054181777,0.0012025882845576453,9.798487031651025
4.6080000000000005,0,4,1,0.5906572146464071,1827.47607337649,0.0,6.25046713926768,160,9,1,0,-1,0,-0.005,6.24546713926768,6.2554671392676795,0.10388031031967304,-0.11439141162523443,-6.395981228405657e-05,0.00950247224550018,0.000767361044276004,9.848682155088962
4.64,0,4,1,0.5906572146464071,1828.0667305911363,0.0,6.25046713926768,160,9,1,0,-1,0,-0.005,6.24546713926768,6.2554671392676795,0.09988001275107324,-0.11438809444746104,-6.396406130078705e-05,0.006944819692441135,0.0007447243742352899,9.784240418287876
4.672,0,4,1,0.5906572146464071,1828.6573878057827,0.0,6.25046713926768,160,9,1,0,-1,0,-0.005,6.24546713926768,6.2554671392676795,0.0958797151210653,-0.11438526219270623,-6.396733329816148e-05,0.004053324836313369,0.0007246295108103119,9.774524693253385
4.704,0,4,1,0.5906572146464071,1829.2480450204291,0.0,6.25046713926768,160,9,1,0,-1,0,-0.005,6.24546713926768,6.2554671392676795,0.09187941731085886,-0.11438291971603462,-6.396879045224117e-05,0.0008876785082400825,0.0006995646608993398,9.857073060728784
4.736,0,4,1,0.5906572146464071,1829.8387022350755,0.0,6.25046713926768,160,9,1,0,-1,0,-0.005,6.24546713926768,6.2554671392676795,0.08787911926241007,-0.11438106811324572,-6.396802641728955e-05,-0.0023291392906525047,0.0006823560741018172,9.835868088318959
4.768,0,4,1,0.5906572146464071,1830.429359449722,0.0,6.25046713926768,160,9,1,0,-1,0,-0.005,6.24546713926768,6.2554671392676795,0.08387882096448832,-0.1143797058789433,-6.39651503211644e-05,-0.005438108640672916,0.000667444694158501,9.846878565893
4.8,0,4,1,0.5906572146464071,1831.0200166643683,0.0,6.25046713926768,160,9,1,0,-1,0,-0.005,6.24546713926768,6.2554671392676795,0.07987852244036005,-0.11437882989528088,-6.396075747253267e-05,-0.008150496655528501,0.0006612216480088965,9.841923560375841
4.832,0,4,1,1.181188913326966,1832.2012055776952,0.5905316986805589,6.220350022634971,160,9,1,1,0,1,0.0545,6.274850022634971,6.165850022634971,0.07587822373738054,-0.11437843622790549,-6.39557902928703e-05,-0.010424693408301515,0.0006663687120584096,9.80171086209255
4.864,0,4,1,0.5906572146464071,1832.7918627923416,-0.5905316986805589,6.25105767096636,160,9,1,0,0,-1,-0.0045,6.24655767096636,6.25555767096636,0.0718972019031626,-0.11437855481689607,-6.39397915814955e-05,-0.0347248226295602,0.0006731939942841477,9.79550512510204
4.896,0,4,1,0.5906572146464071,1833.382520006988,0.0,6.25046713926768,160,9,1,0,0,0,0.0,6.25046713926768,6.25046713926768,0.06789652425486403,-0.11437321761585707,-6.39371744350116e-05,0.003615332878795316,-0.0051297320162908295,9.807631355904272
4.928,0,4,1,0.5906572146464071,1833.9731772216344,0.0,6.25046713926768,160,9,1,0,0,0,0.0,6.25046713926768,6.25046713926768,0.06389622505420825,-0.1143683126752793,-6.394258952383686e-05,-0.014748697909787934,0.000543155109088746,9.80217986778345
4.96,0,4,1,0.5906572146464071,1834.5638344362808,0.0,6.25046713926768,160,9,1,0,0,0,0.0,6.25046713926768,6.25046713926768,0.05989592770564245,-0.11436341584297562,-6.395005030264758e-05,-0.012259937963256516,6.666286341492328e-05,9.883674910901087
4.992,0,4,1,0.5906572146464071,1835.1544916509272,0.0,6.25046713926768,160,9,1,0,0,0,0.0,6.25046713926768,6.25046713926768,0.05589563160301194,-0.11435854745442488,-6.395791541861234e-05,-0.009504869473126074,2.376954811091046e-05,9.826448534378738
5.024,0,4,1,0.5906572146464071,1835.7451488655736,0.0,6.25046713926768,160,9,1,0,0,0,0.0,6.25046713926768,6.25046713926768,0.05189533626878551,-0.11435371896019667,-6.396454513196877e-05,-0.006128970844468733,-1.9554626302240636e-05,9.840181023698667
5.056,0,4,1,0.5906572146464071,1836.33580608022,0.0,6.25046713926768,160,9,1,0,0,0,0.0,6.25046713926768,6.25046713926768,0.04789504133919856,-0.11434893488264822,-6.396859584419448e-05,-0.0023835774790377413,-5.68908002979296e-05,9.789884166127797
5.088,0,4,1,0.5906572146464071,1836.9264632948664,0.0,6.25046713926768,160,9,1,0,0,0,0.0,6.25046713926768,6.25046713926768,0.0438947465522339,-0.11434419470931957,-6.396928896621086e-05,0.0015000786094738394,-8.614989210081534e-05,9.787237588427264
5.12,0,4,1,0.5906572146464071,1837.5171205095128,0.0,6.25046713926768,160,9,1,0,0,0,0.0,6.25046713926768,6.25046713926768,0.03989445173132902,-0.11433949457165346,-6.396657271435201e-05,0.005274639238949562,-0.00010534006642562393,9.847093971377632
5.152,0,4,1,0.5906572146464071,1838.1077777241592,0.0,6.25046713926768,160,9,1,0,0,0,0.0,6.25046713926768,6.25046713926768,0.035894156767757354,-0.11433482864628142,-6.396113012732511e-05,0.008704072870386324,-0.0001150867292416959,9.805953690404126
5.184,0,4,1,0.5906572146464071,1838.6984349388056,0.0,6.25046713926768,160,9,1,0,0,0,0.0,6.25046713926768,6.25046713926768,0.03189386160383356,-0.11433019025773059,-6.395422468302193e-05,0.01166642061965404,-0.00011666939935197993,9.815210348498084
5.216,0,4,1,0.5906572146464071,1839.289092153452,0.0,6.25046713926768,160,9,1,0,0,0,0.0,6.25046713926768,6.25046713926768,0.027893566218302933,-0.1143255726915775,-6.394741484775854e-05,0.013925284020530506,-0.00011217910916960113,9.841975349388704
5.248,0,4,1,0.5906572146464071,1839.8797493680984,0.0,6.25046713926768,160,9,1,0,0,0,0.0,6.25046713926768,6.25046713926768,0.02389327061452142,-0.11432096974700989,-6.394220120942151e-05,0.015266453463961688,-0.00010156811536231439,9.861808242679933
5.28,0,4,1,0.5906572146464071,1840.4704065827448,0.0,6.25046713926768,160,9,1,0,0,0,0.0,6.25046713926768,6.25046713926768,0.019892974880157805,-0.11431637609773503,-6.393903038169439e-05,0.015161500151443973,-8.83753901282068e-05,9.863860145317325
5.312,0,4,1,0.5906572146464071,1841.0610637973912,0.0,6.25046713926768,160,9,1,0,0,0,0.0,6.25046713926768,6.25046713926768,0.01589267889242495,-0.11431178732466532,-6.394228632886946e-05,0.014035609911398308,-7.360416282200121e-05,9.762074605127088
5.344,0,4,1,0.5906572146464071,1841.6517210120376,0.0,6.25046713926768,160,9,1,0,0,0,0.0,6.25046713926768,6.25046713926768,0.011892382765432214,-0.11430720013682964,-6.394747467389043e-05,0.012063694703915613,-5.970571497849857e-05,9.79109892858689
5.376,0,4,1,0.5906572146464071,1842.242378226684,0.0,6.25046713926768,160,9,1,0,0,0,0.0,6.25046713926768,6.25046713926768,0.007892086531067493,-0.1143026121746681,-6.395337188098982e-05,0.009266873572854622,-4.632161483934728e-05,9.832535303733916
5.408,0,4,1,0.5906572146464071,1842.8330354413304,0.0,6.25046713926768,160,9,1,0,0,0,0.0,6.25046713926768,6.25046713926768,0.0038917902181618055,-0.11429802191917401,-6.395857888132593e-05,0.006063401053058617,-3.430787987684768e-05,9.811512077229162
5.44,0,4,1,0.5906572146464071,1843.4236926559768,0.0,6.25046713926768,160,9,1,0,0,0,0.0,6.25046713926768,6.25046713926768,-0.00010850614910750142,-0.11429342854178641,-6.396185224437009e-05,0.0024534796396194956,-2.405050117338812e-05,9.793931797289275
5.472,0,4,1,0.5906572146464071,1844.0143498706232,0.0,6.25046713926768,160,9,1,0,0,0,0.0,6.25046713926768,6.25046713926768,-0.004108802551654604,-0.11428883174729747,-6.396240200069042e-05,-0.0012911228647444141,-1.5533254564612786e-05,9.805648897004074
5.5040000000000004,0,4,1,0.5906572146464071,1844.6050070852696,0.0,6.25046713926768,160,9,1,0,0,0,0.0,6.25046713926768,6.25046713926768,-0.008109098974988408,-0.11428423162456161,-6.396008073351715e-05,-0.004983188604049685,-9.062821664377958e-06,9.855294347316699
5.5360000000000005,0,4,1,0.5906572146464071,1845.195664299916,0.0,6.25046713926768,160,9,1,0,0,0,0.0,6.25046713926768,6.25046713926768,-0.012109395408180977,-0.1142796285144476,-6.395541997390036e-05,-0.008366805051551629,-4.158277236045413e-06,9.829473528796246
5.5680000000000005,0,4,1,0.5906572146464071,1845.7863215145624,0.0,6.25046713926768,160,9,1,0,0,0,0.0,6.25046713926768,6.25046713926768,-0.01610969184277169,-0.11427502290007696,-6.394950579525355e-05,-0.011262389668044428,-7.527674163844039e-07,9.850974360133183
5.6000000000000005,0,4,1,0.5906572146464071,1846.3769787292088,0.0,6.25046713926768,160,9,1,0,0,0,0.0,6.25046713926768,6.25046713926768,-0.020109988271990956,-0.11427041532098159,-6.394372323764545e-05,-0.01342966337378727,1.4148832285214662e-06,9.83343919324684
5.632,0,4,1,0.5906572146464071,1846.9676359438552,0.0,6.25046713926768,160,9,1,0,0,0,0.0,6.25046713926768,6.25046713926768,-0.02411028469046543,-0.1142658063103871,-6.393942998037666e-05,-0.014877032060988237,2.6382887710037344e-06,9.818845982616898
5.664,0,4,1,0.5906572146464071,1847.5582931585016,0.0,6.25046713926768,160,9,1,0,0,0,0.0,6.25046713926768,6.25046713926768,-0.028110581105046894,-0.11426119637715099,-6.39369915622686e-05,-0.014757435080255394,2.954953538354639e-06,9.849798712295838
5.696,0,4,1,0.5906572146464071,1848.148950373148,0.0,6.25046713926768,160,9,1,0,0,0,0.0,6.25046713926768,6.25046713926768,-0.03211087748715945,-0.11425658588449554,-6.394042319553261e-05,-0.01369135990910991,2.9224487160744613e-06,9.777891057948773
5.728,0,4,1,0.5906572146464071,1848.7396075877944,0.0,6.25046713926768,160,9,1,0,0,0,0.0,6.25046713926768,6.25046713926768,-0.03611117385125178,-0.11425197518779655,-6.394571070652416e-05,-0.011857030502860041,2.659415678438292e-06,9.800116672418516
5.76,0,4,1,0.5906572146464071,1849.3302648024408,0.0,6.25046713926768,160,9,1,0,0,0,0.0,6.25046713926768,6.25046713926768,-0.04011147019863727,-0.11424736453096763,-6.395172577847684e-05,-0.009312012439020573,2.1585185653241664e-06,9.830146423764413
5.792,0,4,1,1.181188913326966,1850.5114537157676,0.5905316986805589,6.220350022634971,160,9,1,0,0,0,0.0,6.220350022634971,6.220350022634971,-0.04411176653093303,-0.11424275408058934,-6.395715127413548e-05,-0.006210644278330225,1.5943762792919176e-06,9.817905104670857
5.824,0,4,1,1.181188913326966,1851.6926426290945,0.0,6.220940554333652,160,9,1,0,0,0,0.0,6.220940554333652,6.220940554333652,-0.048092788390562795,-0.11423816614491539,-6.395677800220476e-05,-0.025388773984713144,1.0536755369584635e-06,9.839057958189251
5.856,0,4,1,1.181188913326966,1852.8738315424214,0.0,6.220940554333652,160,9,1,0,0,0,0.0,6.220940554333652,6.220940554333652,-0.05207418763511043,-0.1142335781271482,-6.395700632050999e-05,-0.006116616836608734,5.685364117608206e-07,9.79161422109521
5.888,0,4,1,1.181188913326966,1854.0550204557483,0.0,6.220940554333652,160,9,1,0,0,0,0.0,6.220940554333652,6.220940554333652,-0.05605558690104559,-0.11422899046676387,-6.395771694586716e-05,-0.005960737770086081,1.6664619810558173e-07,9.835372726317573
5.92,0,4,1,1.181188913326966,1855.2362093690751,0.0,6.220940554333652,160,9,1,0,0,0,0.0,6.220940554333652,6.220940554333652,-0.06003698617455353,-0.11422440314044867,-6.395876500280527e-05,-0.005080942983828975,-1.399957061839587e-07,9.767368346744199
5.952,0,4,1,1.181188913326966,1856.417398282402,0.0,6.220940554333652,160,9,1,0,0,0,0.0,6.220940554333652,6.220940554333652,-0.06401838545335545,-0.11421981610737524,-6.395992188455712e-05,-0.003945210719480466,-3.5036006159183455e-07,9.797466258037822
5.984,0,4,1,1.181188913326966,1857.598587195729,0.0,6.220940554333652,160,9,1,0,0,0,0.0,6.220940554333652,6.220940554333652,-0.06799978473564128,-0.11421522931780285,-6.396092978052173e-05,-0.0025308608879174212,-4.840098490729483e-07,9.748935075798862
6.016,0,4,1,1.181188913326966,1858.7797761090558,0.0,6.220940554333652,160,9,1,0,0,0,0.0,6.220940554333652,6.220940554333652,-0.07198118402000155,-0.11421064271966537,-6.396156298756062e-05,-0.0009911906461536784,-5.384149206859302e-07,9.800155607222283
6.048,0,4,1,1.181188913326966,1859.9609650223827,0.0,6.220940554333652,160,9,1,0,0,0,0.0,6.220940554333652,6.220940554333652,-0.07596258330539696,-0.11420605626326687,-6.396168156340247e-05,0.0006188319836469708,-5.453244615288774e-07,9.8035514215581
6.08,0,4,1,1.181188913326966,1861.1421539357095,0.0,6.220940554333652,160,9,1,0,0,0,0.0,6.220940554333652,6.220940554333652,-0.07994398259115881,-0.11420146990431561,-6.396126471171215e-05,0.0021931038083831352,-5.095839419579556e-07,9.802108336451065
6.112,0,4,1,1.181188913326966,1862.3233428490364,0.0,6.220940554333652,160,9,1,0,0,0,0.0,6.220940554333652,6.220940554333652,-0.08392538187699904,-0.1141968836055785,-6.396041606115607e-05,0.0036479086271488754,-4.4961673435632536e-07,9.796600779091033
6.144,0,4,1,1.181188913326966,1863.5045317623633,0.0,6.220940554333652,160,9,1,0,0,0,0.0,6.220940554333652,6.220940554333652,-0.08790678116300299,-0.11419229733746349,-6.395933960425676e-05,0.004869236258268137,-3.7354655921082917e-07,9.848818145997877
6.176,0,4,1,1.181188913326966,1864.6857206756902,0.0,6.220940554333652,160,9,1,0,0,0,0.0,6.220940554333652,6.220940554333652,-0.09188818044958356,-0.11418771107782763,-6.395829196447628e-05,0.005796201802250008,-3.0146051955218917e-07,9.848523048958905
6.208,0,4,1,1.181188913326966,1865.866909589017,0.0,6.220940554333652,160,9,1,0,0,0,0.0,6.220940554333652,6.220940554333652,-0.09586957973739249,-0.11418312481126697,-6.39575222332496e-05,0.00637625870753854,-2.246925202136776e-07,9.821484835382938
6.24,0,4,1,1.181188913326966,1867.048098502344,0.0,6.220940554333652,160,9,1,0,0,0,0.0,6.220940554333652,6.220940554333652,-0.09985097902720275,-0.11417853852811115,-6.395721353678364e-05,0.006552564265455272,-1.579546480715524e-07,9.822263127388446
6.272,0,4,1,1.181188913326966,1868.2292874156708,0.0,6.220940554333652,160,9,1,0,0,0,0.0,6.220940554333652,6.220940554333652,-0.10383237831978948,-0.11417395222329824,-6.395744008749239e-05,0.006349201180590892,-1.013708058851313e-07,9.786303517426893
6.304,0,4,1,1.181188913326966,1869.4104763289977,0.0,6.220940554333652,160,9,1,0,0,0,0.0,6.220940554333652,6.220940554333652,-0.10781377761583626,-0.11416936589525191,-6.395814982936357e-05,0.0058638608504436645,-5.528746763257512e-08,9.786785654221857
6.336,0,4,1,1.181188913326966,1870.5916652423246,0.0,6.220940554333652,160,9,1,0,0,0,0.0,6.220940554333652,6.220940554333652,-0.11179517691588153,-0.11416477954485056,-6.395917676744849e-05,0.004935445342742279,-1.991442753175293e-08,9.79855193259998
6.368,0,4,1,1.181188913326966,1871.7728541556514,0.0,6.220940554333652,160,9,1,0,0,0,0.0,6.220940554333652,6.220940554333652,-0.11577657622030257,-0.11416019317454132,-6.396028008320842e-05,0.0036946465959987935,5.371753799807482e-09,9.846284133601126
6.4,0,4,1,1.181188913326966,1872.9540430689783,0.0,6.220940554333652,160,9,1,0,0,0,0.0,6.220940554333652,6.220940554333652,-0.11975797552931748,-0.11415560678761835,-6.396120083689005e-05,0.0022797451296941093,2.2103118576248932e-08,9.821169450988224
6.432,0,4,1,1.181188913326966,1874.1352319823052,0.0,6.220940554333652,160,9,1,0,0,0,0.0,6.220940554333652,6.220940554333652,-0.12373937484298377,-0.1141510203876739,-6.39617229229554e-05,0.0007100088670034609,3.1581276799420655e-08,9.78587925966432
6.464,0,4,1,1.181188913326966,1875.316420895632,0.0,6.220940554333652,160,9,1,0,0,0,0.0,6.220940554333652,6.220940554333652,-0.1277207741611795,-0.11414643397820537,-6.396172393804099e-05,-0.0008979330967950242,3.542674910615799e-08,9.834291242140845
6.496,0,4,1,1.181188913326966,1876.497609808959,0.0,6.220940554333652,160,9,1,0,0,0,0.0,6.220940554333652,6.220940554333652,-0.13170217348356927,-0.11414184756236137,-6.3961203996531e-05,-0.002438799230036479,3.5186912965313595e-08,9.826539916376403
6.5280000000000005,0,4,1,1.181188913326966,1877.6787987222858,0.0,6.220940554333652,160,9,1,0,0,0,0.0,6.220940554333652,6.220940554333652,-0.13568357280957333,-0.11413726114280155,-6.396028571756078e-05,-0.0038510584009826803,3.227764892857081e-08,9.805561847498243
6.5600000000000005,0,4,1,0.5906572146464071,1878.2694559369322,-0.5905316986805589,6.25105767096636,160,9,1,-1,-1,-1,-0.0595,6.19155767096636,6.28,-0.1396649721383635,-0.11413267472164217,-6.395918538667188e-05,-0.005043995160159158,2.790259163498191e-08,9.806333620822858
6.5920000000000005,0,4,1,1.181188913326966,1879.450644850259,0.5905316986805589,6.220350022634971,160,9,1,0,-1,1,-0.0005000000000000004,6.219850022634971,6.220850022634971,-0.1436558676686068,-0.1141280678961947,-6.39601148815852e-05,0.005231366523463114,-1.821886688426306e-05,9.783179606116521
6.6240000000000006,0,4,1,1.181188913326966,1880.631833763586,0.0,6.220940554333652,160,9,1,0,-1,0,-0.005,6.215940554333652,6.2259405543336515,-0.14763689561361598,-0.11412783959872716,-6.396013617412585e-05,-0.014407794143672931,0.004294196773886564,9.797222022496431
6.656000000000001,0,4,1,1.181188913326966,1881.8130226769129,0.0,6.220940554333652,160,9,1,0,-1,0,-0.005,6.215940554333652,6.2259405543336515,-0.15161830028070336,-0.11412765647620349,-6.396088891340475e-05,-0.004717152191889013,0.00011083649703789979,9.800813654331352
6.688,0,4,1,0.5906572146464071,1882.4036798915592,-0.5905316986805589,6.25105767096636,160,9,1,0,-1,0,-0.005,6.24605767096636,6.25605767096636,-0.155599703595315,-0.11412794188994618,-6.396204048269606e-05,-0.005141905772085796,0.0005809747697774816,9.785264762976182
6.72,0,4,1,0.5906572146464071,1882.9943371062056,0.0,6.25046713926768,160,9,1,0,-1,0,-0.005,6.24546713926768,6.2554671392676795,-0.15960038018721953,-0.11412868198317659,-6.396617152530475e-05,0.017710469664185307,0.0006202038849794549,9.843373400603133
6.752,0,4,1,0.5906572146464071,1883.584994320852,0.0,6.25046713926768,160,9,1,0,-1,0,-0.005,6.24546713926768,6.2554671392676795,-0.16360067879105258,-0.11412986690909455,-6.396650098203054e-05,0.002622923916544558,0.0006702755535041049,9.840492347899952
6.784,0,4,1,0.5906572146464071,1884.1756515354984,0.0,6.25046713926768,160,9,1,0,-1,0,-0.005,6.24546713926768,6.2554671392676795,-0.16760097681780328,-0.11413149101078594,-6.396323888141486e-05,0.006907424331028247,0.0007060645177647326,9.827527976071027
6.816,0,4,1,0.5968094512291737,1884.7724609867275,0.006152236582766646,6.250153375201959,160,9,1,0,-1,0,-0.005,6.2451533752019595,6.255153375201959,-0.17160127444172849,-0.11413355242612498,-6.395731506483003e-05,0.010352956978317042,0.0007414451947769349,9.768324041314251
6.848,0,4,1,0.0,1884.7724609867275,-0.5968094512291737,6.28059680945123,160,9,1,0,-1,0,-0.005,6.27559680945123,6.28,-0.1756013709622781,-0.11413605188546981,-6.395034212318927e-05,0.012954924305085722,0.0007603458378308573,9.754132373368288
6.88,0,4,1,0.0,1884.7724609867275,0.0,6.28,160,9,1,0,-1,0,-0.005,6.275,6.28,-0.17961915932699335,-0.11413900290976672,-6.393221615434014e-05,0.035995009706855076,0.000775134903463489,9.781578822200144
6.912,0,4,1,0.5906572146464071,1885.363118201374,0.5906572146464071,6.2498764820530335,160,9,1,0,-1,0,-0.005,6.244876482053034,6.254876482053033,-0.18363675629942525,-0.11414212252364035,-6.391312681649011e-05,0.01753241069475491,0.0005134666226177725,9.845120261529745
6.944,0,4,1,1.181188913326966,1886.5443071147008,0.5905316986805589,6.220350022634971,160,9,1,0,-1,0,-0.005,6.215350022634971,6.225350022634971,-0.18763667597871772,-0.1141454323937581,-6.3934621632903e-05,-0.004939034479695328,0.0005460302169259802,9.823123952477767
6.976,0,4,1,2.361374658175717,1888.9056817728765,1.1801857448487512,6.1607510813463655,160,9,1,0,-1,0,-0.005,6.155751081346366,6.165751081346365,-0.19161769849411583,-0.11414917774796064,-6.395492298081652e-05,-0.016112314741944335,0.0007801801120989446,9.810553222259403
7.008,0,4,1,3.5395591685500816,1892.4452409414266,1.1781845103743644,6.101843857062121,160,9,1,0,-1,0,-0.005,6.0968438570621215,6.106843857062121,-0.19556057803951327,-0.11415333912039712,-6.394055764141413e-05,-0.05254721825910358,0.0007742516949241792,9.797327809803562
7.04,0,4,1,5.300926516525713,1897.7461674579524,1.7613673479756318,6.013192306825739,160,9,1,0,-1,0,-0.005,6.008192306825739,6.018192306825739,-0.19946575616976,-0.11415791131159227,-6.384070466111669e-05,-0.0520657291671569,0.0007502847515622654,9.803846762292567
7.072,0,4,1,7.6333305872312645,1905.3794980451837,2.332404070705551,5.896001066567731,160,9,1,0,-1,0,-0.005,5.891001066567731,5.901001066567731,-0.20331419857663083,-0.11416286945355782,-6.381800555784432e-05,-0.07057118368984269,0.0007296941123531002,9.823177396635854
7.104,0,4,1,5.826342029555814,1911.2058400747396,-1.8069885576754503,5.990489887079884,160,9,1,7,6,7,0.4115,6.28,5.578989887079884,-0.20708763876700495,-0.11416817520578483,-6.378535870582569e-05,-0.0885701556903631,0.0007044202082902379,9.815578949666405
7.136,0,4,1,11.650299437537637,1922.8561395122772,5.823957407981823,5.691661070715137,160,9,1,-1,5,-8,-0.061,5.630661070715137,5.752661070715137,-0.21088249738519416,-0.11417416722623182,-6.382311895007826e-05,0.011156072600249783,0.001044239595903964,9.7616307819563
7.168,0,4,1,13.897176315015338,1936.7533158272925,2.2468768774777015,5.582894307371755,160,9,1,-1,4,0,-0.030000000000000002,5.552894307371755,5.612894307371755,-0.21452523865016485,-0.11414799731183221,-6.378857714473343e-05,-0.18366275954882794,-0.03199848412333078,9.837388819769474
7.2,0,4,1,17.185706144224778,1953.9390219715171,3.2885298292094394,5.417426162959552,160,9,1,-1,3,0,-0.035,5.382426162959552,5.4524261629595525,-0.21809835272382352,-0.11412779344449417,-6.371425928657082e-05,-0.09828673309108707,0.0054225542761509185,9.780270156932602
7.232,0,4,1,18.25756307538975,1972.1965850469069,1.071856931164973,5.366049989299348,160,9,1,3,6,4,0.198,5.564049989299348,5.168049989299347,-0.22156551787833836,-0.11411097904415238,-6.374895479610912e-05,-0.12952695092264485,0.002549037623829848,9.810310836832839
7.264,0,4,1,20.361603275386152,1992.558188322293,2.104040199996401,5.259815796030696,160,9,1,3,9,0,0.195,5.454815796030696,5.064815796030696,-0.22499981290350818,-0.11409787346873948,-6.387204805179819e-05,-0.056170721226683616,0.002756504611493036,9.771244886716886
