Time,SetPointAngle,SensorAngleRow,SensorAngleWidth,Angle,IntegralAngle,DeltaAngle,BaseSpeed,SetPointError,SensorErrorRow,SensorErrorWidth,Error,IntegralError,DeltaError,DeltaSpeed,LeftSpeed,RightSpeed,X,Y,Z,Roll,Pitch,Yaw
0.032,0,4,1,2.2906100426385936,2.2906100426385936,2.2906100426385936,5,160,9,1,-11,-11,-11,-0.6545000000000001,4.3454999999999995,5.6545000000000005,-0.021500000000000408,0.17999999999999444,-6.396425821141548e-05,1.005724168776672e-05,-0.00012126419668070362,9.77929350378509
0.064,0,4,1,1.7183580016555007,4.008968044294094,-0.5722520409830929,5,160,9,1,-2,-13,9,-0.12450000000000001,4.8755,5.1245,-0.024658708771374552,0.1799922984446169,-3.338598853434328e-05,3.7108894906925216,-0.039424817056206804,9.649095023376802
0.096,0,4,1,1.7183580016555007,5.727326045949595,0.0,5,160,9,1,-1,-14,1,-0.1155,4.8845,5.1155,-0.02785230281021896,0.1799315775118073,-6.0685245381273886e-05,0.34871742412090423,0.04040500684036036,9.730235494690366
0.128,0,4,1,1.7183580016555007,7.445684047605096,0.0,5,160,9,1,0,-14,1,-0.0655,4.9345,5.0655,-0.031052462180936314,0.1798629785803859,-7.261853342248673e-05,-0.008426522416010688,0.006656659330076988,9.853487273907126
0.16,0,4,1,1.1457628381751443,8.59144688578024,-0.5725951634803563,5,160,9,1,2,-12,2,0.04900000000000001,5.049,4.951,-0.03425164106401841,0.1797869713481415,-6.759548272058762e-05,0.1467795038898529,0.007473690673543577,9.844081166854162
0.192,0,4,1,1.1457628381751443,9.737209723955385,0.0,5,160,9,1,2,-10,0,0.05,5.05,4.95,-0.037447615764403856,0.1797071572521832,-6.766854417237199e-05,0.06499944033915611,0.003715469934531178,9.797973424307633
0.224,0,4,1,1.1457628381751443,10.88297256213053,0.0,5,160,9,1,2,-8,0,0.060000000000000005,5.06,4.94,-0.04064655392929711,0.1796323397798163,-6.771525659770607e-05,-0.012266601135915345,-0.004015148495511986,9.816550993634523
0.256,0,4,1,0.5729386976839008,11.45591125981443,-0.5728241404912435,5,160,9,1,2,-6,0,0.07,5.07,4.93,-0.0438455555300827,0.17956229143858354,-6.682622984792962e-05,-0.014962048240542107,-0.0032440938793061526,9.791215694633875
0.28800000000000003,0,4,1,0.5729386976839008,12.02884995749833,0.0,5,160,9,1,2,-4,0,0.08,5.08,4.92,-0.04704468564587914,0.17949779026854903,-6.642295759214448e-05,-0.013856168067740447,-0.0035131836586518813,9.789675158764938
0.32,0,4,1,1.1457628381751443,13.174612795673475,0.5728241404912435,5,160,9,1,1,-3,-1,0.030500000000000003,5.0305,4.9695,-0.05024396409985292,0.17943947039072722,-6.607591500260718e-05,-0.012222757014456982,-0.003936829811922187,9.775920997412298
0.352,0,4,1,0.5729386976839008,13.747551493357376,-0.5728241404912435,5,160,9,1,1,-2,0,0.04,5.04,4.96,-0.05344337297304735,0.1793879712612291,-6.579169077510806e-05,-0.009947150358308149,-0.004608315804080136,9.859757328827396
0.384,0,4,1,0.5729386976839008,14.320490191041277,0.0,5,160,9,1,1,-1,0,0.045000000000000005,5.045,4.955,-0.05664284133138913,0.17933916239726325,-6.554132925985952e-05,-0.0071374612392814205,-0.0007427716011121135,9.803619663884463
0.41600000000000004,0,4,1,0.5729386976839008,14.893428888725177,0.0,5,160,9,1,1,0,0,0.05,5.05,4.95,-0.05984238043878103,0.17929364766076145,-6.532093705512859e-05,-0.0039411154820849295,-0.0016193198059872675,9.878286188826662
0.448,0,4,1,0.5729386976839008,15.466367586409078,0.0,5,160,9,1,1,1,0,0.055,5.055,4.945,-0.0630419927090352,0.17925169697037857,-6.51268652514421e-05,-0.000575324617028427,-0.0022366432741071076,9.752622488722636
0.48,0,4,1,0.5729386976839008,16.03930628409298,0.0,5,160,9,1,0,1,-1,0.0005000000000000004,5.0005,4.9995,-0.06624167767159711,0.17921360245843418,-6.495655235854575e-05,0.0027612616337448284,-0.0029048846984254854,9.735783472970766
0.512,0,4,1,0.0,16.03930628409298,-0.5729386976839008,5,160,9,1,1,2,1,0.0645,5.0645,4.9355,-0.0694414075818211,0.17917966422261755,-6.480157686457148e-05,0.005928208750143827,-0.003588944909989932,9.744660124637837
0.544,0,4,1,0.5729386976839008,16.612244981776882,0.5729386976839008,5,160,9,1,0,2,-1,0.0055000000000000005,5.0055,4.9945,-0.07264117152060677,0.17914552360940672,-6.467130633544538e-05,0.008743174712493857,0.00031765695313477335,9.852049436443973
0.5760000000000001,0,4,1,0.5729386976839008,17.185183679460785,0.0,5,160,9,1,0,2,0,0.01,5.01,4.99,-0.07584097701572987,0.17911618195281656,-6.455009176206151e-05,0.010942600745123059,-0.004859392262660229,9.814022653418874
0.608,0,4,1,0.5729386976839008,17.758122377144687,0.0,5,160,9,1,0,2,0,0.01,5.01,4.99,-0.07904079709123059,0.1790869665523954,-6.444548256204219e-05,0.012560793155685625,-0.000597616962302792,9.845504066435753
0.64,0,4,1,0.0,17.758122377144687,-0.5729386976839008,5,160,9,1,1,3,1,0.0695,5.0695,4.9305,-0.08224063181509643,0.17905823481055586,-6.435627562484392e-05,0.013378478114006907,-0.0011628162765698607,9.802247553401758
0.672,0,4,1,0.5729386976839008,18.33106107482859,0.5729386976839008,5,160,9,1,0,3,-1,0.010499999999999999,5.0105,4.9895,-0.08544049113812453,0.17903004156192026,-6.429083306836933e-05,0.013404965962992593,-0.0013543545617886019,9.789044232867216
0.704,0,4,1,0.5729386976839008,18.903999772512492,0.0,5,160,9,1,0,3,0,0.015,5.015,4.985,-0.08864039493143129,0.17900704176157595,-6.4229728299477e-05,0.012699731868104242,-0.006042840092399679,9.826777055264136
0.736,0,4,1,0.5729386976839008,19.476938470196394,0.0,5,160,9,1,0,3,0,0.015,5.015,4.985,-0.09184030691926423,0.17898460891353998,-6.4181579422758e-05,0.01104715285389561,-0.0015905343694178657,9.793378647222534
0.768,0,4,1,0.5729386976839008,20.049877167880297,0.0,5,160,9,1,0,3,0,0.015,5.015,4.985,-0.09504022803601925,0.17896311340637036,-6.414312924198258e-05,0.008891908252251448,-0.0020016851034829856,9.824281603552627
0.8,0,4,1,0.5729386976839008,20.6228158655642,0.0,5,160,9,1,0,3,0,0.015,5.015,4.985,-0.0982401577226127,0.1789425764199335,-6.411190091540342e-05,0.006166011212445568,-0.002022265221806901,9.87197936768959
0.8320000000000001,0,4,1,0.0,20.6228158655642,-0.5729386976839008,5,160,9,1,0,3,0,0.015,5.015,4.985,-0.10144009541906987,0.1789230204365722,-6.408570032033663e-05,0.003098300944189283,-0.0020396986366163724,9.842125373438735
0.864,0,4,1,0.0,20.6228158655642,0.0,5,160,9,1,0,3,0,0.015,5.015,4.985,-0.10464004056809666,0.17890446736542892,-6.406281009862201e-05,-0.0001826005769848528,-0.002025846846014181,9.818117091400683
0.896,0,4,1,0.0,20.6228158655642,0.0,5,160,9,1,0,3,0,0.015,5.015,4.985,-0.10783999261939418,0.17888693732852348,-6.40421270394053e-05,-0.003454734238277801,-0.0020127708192074515,9.798247017285203
0.928,0,4,1,0.0,20.6228158655642,0.0,5,160,9,1,0,3,0,0.015,5.015,4.985,-0.11103995103391723,0.1788704479807997,-6.402319821737466e-05,-0.0065435717708481386,-0.001970512280694401,9.803391932348276
0.96,0,4,1,0.0,20.6228158655642,0.0,5,160,9,1,0,3,0,0.015,5.015,4.985,-0.11423991528754356,0.17885501422535674,-6.400613898737209e-05,-0.009170184806076854,-0.0019334972262339866,9.80480344071649
0.992,0,4,1,0.0,20.6228158655642,0.0,5,160,9,1,0,3,0,0.015,5.015,4.985,-0.11743988487391997,0.17884064820610374,-6.399144581029949e-05,-0.01122557443012627,-0.0018830961731079478,9.814863407314482
1.024,0,4,1,0.0,20.6228158655642,0.0,5,160,9,1,0,3,0,0.015,5.015,4.985,-0.12063985930639065,0.1788273594817708,-6.39797431323981e-05,-0.012739687161380506,-0.0018422030711739141,9.86601866970974
1.056,0,4,1,0.0,20.6228158655642,0.0,5,160,9,1,0,3,0,0.015,5.015,4.985,-0.12383983811894755,0.17881515530597145,-6.397152015420737e-05,-0.013419712591138545,-0.0018018211432902147,9.765195523501529
1.088,0,4,1,0.0,20.6228158655642,0.0,5,160,9,1,0,3,0,0.015,5.015,4.985,-0.127039820866155,0.1788040409568154,-6.396691649573384e-05,-0.01324019372411779,-0.0017608812678529641,9.856212889782034
1.12,0,4,1,0.0,20.6228158655642,0.0,5,160,9,1,0,3,0,0.015,5.015,4.985,-0.1302398071220472,0.1787940200758415,-6.396560483359556e-05,-0.012402575287150573,-0.0017264553703411774,9.83341376074167
1.1520000000000001,0,4,1,0.0,20.6228158655642,0.0,5,160,9,1,0,3,0,0.015,5.015,4.985,-0.13343979647811233,0.1787850949895691,-6.396679618324297e-05,-0.010726834178736447,-0.0016919075347525511,9.846187965205926
1.184,0,4,1,0.5729386976839008,21.1957545632481,0.5729386976839008,5,160,9,1,0,3,0,0.015,5.015,4.985,-0.1366397885406271,0.17877726699775684,-6.396936495252359e-05,-0.00843987480736186,-0.0016734703331114037,9.841691119830093
1.216,0,4,1,0.0,21.1957545632481,-0.5729386976839008,5,160,9,1,-1,2,-1,-0.0445,4.9555,5.0445,-0.1398397829277195,0.1787705366207033,-6.39720629397756e-05,-0.005670164709852117,-0.0016467559402703104,9.814318360629702
1.248,0,4,1,1.1457628381751443,22.341517401423246,1.1457628381751443,5,160,9,1,0,2,1,0.014499999999999999,5.0145,4.9855,-0.14303977266936904,0.17876491607151493,-6.397068893793795e-05,-0.0025380750496341734,-0.0016322556136744105,9.802106522969662
1.28,0,4,1,2.2906100426385936,24.63212744406184,1.1448472044634492,5,160,9,1,0,2,0,0.01,5.01,4.99,-0.14623976242514913,0.1787556599173652,-6.397109028716437e-05,0.0007685161335300986,0.0030279018792651355,9.793644460708249
1.312,0,4,1,4.004172940709389,28.63630038477123,1.7135628980707955,5,160,9,1,0,2,0,0.01,5.01,4.99,-0.14943975420547873,0.17874749433669446,-6.396934646097155e-05,0.004013760271094639,-0.0015628413781677325,9.809415479574861
1.344,0,4,1,5.142764557884225,33.77906494265545,1.1385916171748356,5,160,9,1,0,2,0,0.01,5.01,4.99,-0.15263974676957504,0.17874007687825227,-6.396589180260835e-05,0.006967498451936598,-0.001169281405635325,9.770087450208413
1.3760000000000001,0,4,1,6.277298489597548,40.056363432253,1.1345339317133236,5,160,9,1,0,2,0,0.01,5.01,4.99,-0.1558397403015256,0.1787334154385732,-6.396139447736177e-05,0.00957720811369299,-0.0011336330941359443,9.756505742877165
1.408,0,4,1,7.969610394321354,48.02597382657436,1.6923119047238053,5,160,9,1,0,2,0,0.01,5.01,4.99,-0.15903973488358936,0.1787275134883441,-6.395683935054089e-05,0.011568680950589624,-0.0011047985522580526,9.811655517590301
1.44,0,4,1,9.090276920822312,57.11625074739667,1.1206665265009583,5,160,9,1,0,2,0,0.01,5.01,4.99,-0.16223973052021404,0.17872237129900495,-6.395325752331892e-05,0.012880150918820459,-0.0010748384735899711,9.842617314299554
1.472,0,4,1,10.203973721731703,67.32022446912838,1.1136968009093913,5,160,9,1,0,2,0,0.01,5.01,4.99,-0.16543972715796107,0.17871798698646357,-6.395146102244724e-05,0.013439521183777904,-0.0010428854922004416,9.808549073274861
1.504,0,4,1,11.309932474020227,78.6301569431486,1.1059587522885241,5,160,9,1,-1,1,-1,-0.0495,4.9505,5.0495,-0.1686397247014176,0.1787143573482162,-6.395183984972061e-05,0.01313911293394557,-0.0010253444844513545,9.810198156225953
1.536,0,4,1,12.95276451337554,91.58292145652415,1.6428320393553122,5,160,9,1,0,1,1,0.0095,5.0095,4.9905,-0.17183971864811454,0.17871144353382432,-6.395271130002489e-05,0.012146864195590721,-0.000984038595487718,9.8083470434597
1.568,0,4,1,12.95276451337554,104.53568596989969,0.0,5,160,9,1,-2,-1,-2,-0.114,4.886,5.114,-0.1750397141283666,0.17870459056205093,-6.395702816388259e-05,0.010369495969530374,0.003587938589080851,9.816659655804266
1.6,0,4,1,11.859779120947966,116.39546509084765,-1.0929853924275736,5,160,9,1,-5,-6,-3,-0.29350000000000004,4.7065,5.2935,-0.17823971429258628,0.1786984216530134,-6.396055685333087e-05,0.007979020794457115,-0.0008983457932448117,9.799622653131737
1.6320000000000001,0,4,1,10.757967088390043,127.1534321792377,-1.1018120325579233,5,160,9,1,-6,-12,-1,-0.36450000000000005,4.6355,5.3645,-0.18143978969313077,0.17868318225367794,-6.397089598969216e-05,0.005287290329166607,0.00867043229424294,9.77855474034795
1.6640000000000001,0,4,1,10.203973721731703,137.3574059009694,-0.5539933666583394,5,160,9,1,-6,-18,0,-0.39,4.61,5.39,-0.18464004515409005,0.17864483347557492,-6.403090203602885e-05,0.0026456548457935783,0.022555399044377575,9.828326094186338
1.696,0,4,1,9.648045316098152,147.00545121706756,-0.5559284056335514,5,160,9,1,-5,-23,1,-0.3605,4.6395,5.3605,-0.1878402162727111,0.17857798922615264,-6.41968830812703e-05,-0.0004564982752166111,0.028292161076691913,9.806942371543693
1.728,0,4,1,9.090276920822312,156.09572813788986,-0.5577683952758399,5,160,9,1,-5,-28,0,-0.39,4.61,5.39,-0.19103978572678704,0.1784809381591705,-6.448571430820588e-05,-0.003925840426341765,0.030526606642173947,9.857303810300131
1.76,0,4,1,9.090276920822312,165.18600505871217,0.0,5,160,9,1,-3,-31,2,-0.29600000000000004,4.704,5.296,-0.19423849943415883,0.17835636630499302,-6.490211824213693e-05,-0.0071718678899809945,0.028565600117345446,9.834348145853692
1.792,0,4,1,8.530765609948096,173.71677066866027,-0.5595113108742158,5,160,9,1,-3,-34,0,-0.32000000000000006,4.68,5.32,-0.19743566107818614,0.17820226705104164,-6.534977439118586e-05,-0.010625907834237822,0.031577542492656645,9.791772611633897
1.824,0,4,1,7.969610394321354,181.68638106298164,-0.5611552156267425,5,160,9,1,-2,-36,1,-0.2755,4.7245,5.2755,-0.20063155471485056,0.17802642122072423,-6.583833975139751e-05,-0.013559789848663443,0.025027092980662562,9.817205350714339
1.856,0,4,1,7.406912128495223,189.09329319147687,-0.562698265826131,5,160,9,1,-2,-38,0,-0.29000000000000004,4.71,5.29,-0.2038257920305652,0.17782713554286317,-6.626587935566232e-05,-0.012053600051356868,0.02783975855665208,9.803695130384874
1.8880000000000001,0,4,1,6.842773412630916,195.9360666041078,-0.5641387158643063,5,160,9,1,-1,-39,1,-0.2405,4.7595,5.2405,-0.20701859661666241,0.17760810157809395,-6.667766043459179e-05,-0.010026449977596502,0.025258879483142642,9.777840726634752
1.92,0,4,1,6.842773412630916,202.7788400167387,0.0,5,160,9,1,0,-39,1,-0.1905,4.8095,5.1905,-0.21020966494251764,0.1773682939325002,-6.696731772930925e-05,-0.008151699725608398,0.027031184545031207,9.815211364198491
1.952,0,4,1,6.842773412630916,209.62161342936963,0.0,5,160,9,1,0,-39,0,-0.195,4.805,5.195,-0.21339919041956115,0.17711179269285515,-6.71191518619961e-05,-0.0061335361462151045,0.02400296994409179,9.80713837762216
1.984,0,4,1,6.277298489597548,215.89891191896717,-0.565474923033368,5,160,9,1,0,-39,0,-0.195,4.805,5.195,-0.21658757860426608,0.1768424944470636,-6.718998088325878e-05,-0.004000800550944237,0.02079205556911366,9.818290544477659
2.016,0,4,1,5.710593137499568,221.60950505646673,-0.5667053520979799,5,160,9,1,0,-39,0,-0.195,4.805,5.195,-0.21977478883605156,0.17655998328164596,-6.71807469914236e-05,-0.0020100043655590727,0.021610333418741155,9.813657266086347
2.048,0,4,1,5.710593137499568,227.3200981939663,0.0,5,160,9,1,0,-39,0,-0.195,4.805,5.195,-0.22296079635138438,0.1762641645195825,-6.710476492969263e-05,-0.00017778646055820115,0.021856760806784663,9.743768990807737
2.08,0,4,1,5.710593137499568,233.03069133146585,0.0,5,160,9,1,1,-38,1,-0.1355,4.8645,5.1355,-0.22614556090161123,0.17595493169607834,-6.697843398691464e-05,0.0014106394034999006,0.022246931340286498,9.80357672125272
2.112,0,4,1,5.142764557884225,238.17345588935007,-0.5678285796153437,5,160,9,1,1,-37,0,-0.135,4.865,5.135,-0.2293289454460468,0.17563223807303274,-6.676245089785003e-05,0.00260635548215113,0.022187403905114738,9.786385797939522
2.144,0,4,1,5.710593137499568,243.88404902684962,0.5678285796153437,5,160,9,1,1,-36,0,-0.13,4.87,5.13,-0.23251143770450522,0.1753005987501507,-6.653125207388248e-05,0.003606257001041997,0.017649905498347107,9.76004322580989
2.176,0,4,1,6.277298489597548,250.16134751644717,0.5667053520979799,5,160,9,1,1,-35,0,-0.125,4.875,5.125,-0.2356930123047455,0.17495993371358598,-6.628975619447051e-05,0.004216463812423908,0.01756386418176768,9.789788586674316
2.208,0,4,1,7.969610394321354,258.13095791076853,1.6923119047238053,5,160,9,1,1,-34,0,-0.12000000000000001,4.88,5.12,-0.23887367853897828,0.17461051143574527,-6.604732864975808e-05,0.004487489731525317,0.017001445398106788,9.810791967503363
2.24,0,4,1,10.203973721731703,268.33493163250023,2.2343633274103496,5,160,9,1,1,-33,0,-0.115,4.885,5.115,-0.24205344368730225,0.17425260654018113,-6.581196846561221e-05,0.004450153657836944,0.016396123125415576,9.808061873310974
2.2720000000000002,0,4,1,12.407418527400745,280.742350159901,2.203444805669042,5,160,9,1,1,-32,0,-0.11,4.89,5.11,-0.24523231501289616,0.17388650347823253,-6.558983173776851e-05,0.004061698077374773,0.015655639794349606,9.792011862196176
2.3040000000000003,0,4,1,15.109575122340447,295.85192528224144,2.7021565949397015,5,160,9,1,1,-31,0,-0.105,4.895,5.105,-0.24841030129668104,0.1735124982397491,-6.538512803252149e-05,0.003398780392150261,0.014934508592071606,9.7831802972762
2.336,0,4,1,17.22343619113144,313.0753614733729,2.1138610687909942,5,160,9,1,1,-30,0,-0.09999999999999999,4.9,5.1,-0.2515874139330263,0.1731308986254044,-6.52002585144959e-05,0.0024986745502534632,0.014285108638405004,9.782197892936331
2.368,0,4,1,19.290046219188728,332.36540769256163,2.066610028057287,5,160,9,1,1,-29,0,-0.09499999999999999,4.905,5.095,-0.2547636676379144,0.17274202356867677,-6.503609518539351e-05,0.00143739378858029,0.013527198816207618,9.781455549513765
2.4,0,4,1,21.80140948635181,354.16681717891345,2.511363267163084,5,160,9,1,1,-28,0,-0.09000000000000001,4.91,5.09,-0.2579390808342769,0.17234620189267671,-6.489232299566536e-05,0.0002695378118013117,0.012748051572031002,9.818958539591112
2.432,0,4,1,23.749494492866766,377.9163116717802,1.9480850065149546,5,160,9,1,1,-27,0,-0.085,4.915,5.085,-0.26111367578317796,0.17194378380008668,-6.476778400151505e-05,-0.0009283836281601222,0.012078178804059727,9.788829810839006
2.464,0,4,1,26.104854009099288,404.0211656808795,2.3553595162325216,5,160,9,1,1,-26,0,-0.08,4.92,5.08,-0.2642874785007991,0.17153511376064426,-6.466079770727981e-05,-0.002089869283578432,0.011442769214314993,9.856267400881713
2.496,0,4,1,27.474431626277134,431.49559730715663,1.3695776171778462,5,160,9,1,0,-26,-1,-0.1345,4.8655,5.1345,-0.2674605185891924,0.17112053871211058,-6.456941613214133e-05,-0.0031685435463089996,0.010759683870678776,9.827474945098716
2.528,0,4,1,27.02158159117705,458.51717889833367,-0.45285003510008437,5,160,9,1,-5,-31,-5,-0.42750000000000005,4.5725,5.4275,-0.2706328646739815,0.17070041443523093,-6.451317680282107e-05,-0.003957271073981283,0.010161972287598412,9.801972062674691
2.56,0,4,1,25.641005824305285,484.15818472263896,-1.3805757668717646,5,160,9,1,-9,-40,-4,-0.668,4.332,5.668,-0.27380413252755326,0.17027045864079596,-6.457334622777741e-05,-0.004238590706362503,0.014102418322532681,9.85137778088057
2.592,0,4,1,23.749494492866766,507.9076792155057,-1.8915113314385188,5,160,9,1,-11,-51,-2,-0.8140000000000001,4.186,5.814,-0.27697171460974646,0.16980764841366466,-6.478835132484387e-05,-0.003103430647611037,0.03655811086247261,9.8180285502455
2.624,0,4,1,22.293629159694085,530.2013083751998,-1.4558653331726816,5,160,9,1,-11,-62,0,-0.8600000000000001,4.14,5.86,-0.2801335840815264,0.16929326384937257,-6.532015297064375e-05,-0.0007136460303912355,0.05487797335499595,9.797677018721437
2.656,0,4,1,20.80679101271124,551.008099387911,-1.4868381469828442,5,160,9,1,-10,-72,1,-0.8555,4.1445,5.8555,-0.2832873725457374,0.16871629179380182,-6.635156667645324e-05,0.0009806016235372529,0.06654992252522203,9.81910095740942
2.688,0,4,1,20.304473709960448,571.3125730978715,-0.502317302750793,5,160,9,1,-7,-79,3,-0.7315000000000002,4.2684999999999995,5.7315000000000005,-0.28642985499640095,0.1680738714851482,-6.79567100045457e-05,0.0002117003011867981,0.07078358571956253,9.832774048602573
2.72,0,4,1,19.290046219188728,590.6026193170602,-1.0144274907717197,5,160,9,1,-6,-85,1,-0.7205000000000001,4.2795,5.7205,-0.28955744517485743,0.16736753412335822,-6.992318942098362e-05,-0.003323069390972562,0.07134202321281648,9.79366925508153
2.7520000000000002,0,4,1,18.262889942194125,608.8655092592543,-1.027156276994603,5,160,9,1,-5,-90,1,-0.6955,4.3045,5.6955,-0.29267108508902157,0.1666079925755794,-7.215311551884464e-05,-0.006492091621375709,0.06296671724774625,9.788447169551079
2.7840000000000003,0,4,1,17.22343619113144,626.0889454503857,-1.039453751062684,5,160,9,1,-3,-93,2,-0.606,4.394,5.606,-0.2957699239391089,0.16579700397259556,-7.437685757337095e-05,-0.0038187612142179966,0.06400112568230952,9.83966791220336
2.816,0,4,1,16.699244233993618,642.7881896843793,-0.5241919571378233,5,160,9,1,-2,-95,1,-0.5705000000000001,4.4295,5.5705,-0.29885426615468685,0.16493757589347838,-7.632648653616708e-05,-0.0007571019151067185,0.0632453119168092,9.770066064539856
2.848,0,4,1,15.642246457208763,658.4304361415881,-1.0569977767848542,5,160,9,1,-1,-96,1,-0.5255000000000001,4.4745,5.5255,-0.30192564327518007,0.16403724757886085,-7.614383776180858e-05,-0.0007328396598848567,0.05680722823516906,9.80614798568243
2.88,0,4,1,14.036243467926484,672.4666796095146,-1.6060029892822794,5,160,9,1,-1,-97,0,-0.535,4.465,5.535,-0.3049846192544653,0.16309894624759486,-7.581096861893066e-05,-0.0005230351716976581,0.05526805251766368,9.791790686904182
2.912,0,4,1,12.95276451337554,685.4194441228901,-1.0834789545509445,5,160,9,1,1,-96,2,-0.421,4.579,5.421,-0.30803225862215117,0.1621259662119734,-7.542632125851628e-05,-3.305854895165589e-05,0.0531579386111265,9.805636185167291
2.944,0,4,1,10.203973721731703,695.6234178446218,-2.7487907916438363,5,160,9,1,1,-95,0,-0.42500000000000004,4.575,5.425,-0.31106762962671963,0.16111802067187925,-7.480300028609582e-05,-0.00044364131836638994,0.05441101589302344,9.827965128887381
2.976,0,4,1,7.969610394321354,703.5930282389431,-2.2343633274103496,5,160,9,1,2,-93,1,-0.3605,4.6395,5.3605,-0.3140937296537995,0.1600831325658596,-7.417085406027403e-05,9.907641209009679e-05,0.04641014021661369,9.836971334480168
3.008,0,4,1,5.142764557884225,708.7357927968274,-2.826845836437129,5,160,9,1,2,-91,0,-0.355,4.645,5.355,-0.31711010404646117,0.15902101691807782,-7.344971904000956e-05,7.802644976801672e-06,0.04713509777800623,9.813198514352369
3.04,0,4,1,1.7183580016555007,710.4541507984828,-3.424406556228724,5,160,9,1,2,-89,0,-0.345,4.655,5.345,-0.3201184135202781,0.15793604251743237,-7.276964193636722e-05,0.00028809456281418016,0.04292412509180634,9.791338269080232
3.072,0,4,1,1.1457628381751443,711.599913636658,-0.5725951634803563,5,160,9,1,2,-87,0,-0.33499999999999996,4.665,5.335,-0.32311862344011383,0.1568283602813795,-7.214662987134988e-05,0.0003842117548988753,0.042688516764245905,9.86001505509877
3.104,0,4,1,4.004172940709389,715.6040865773674,2.8584101025342448,5,160,9,1,2,-85,0,-0.32499999999999996,4.675,5.325,-0.3261107897832329,0.15569845663898677,-7.159647187574003e-05,0.0004428509564292077,0.04175693490963258,9.744820174314059
3.136,0,4,1,6.842773412630916,722.4468599899983,2.838600471921527,5,160,9,1,2,-83,0,-0.31500000000000006,4.685,5.315,-0.32909495120520094,0.15454684614644632,-7.112754092164324e-05,0.00045889551641865005,0.04080360056684279,9.762867130691747
3.168,0,4,1,9.648045316098152,732.0949053060965,2.8052719034672355,5,160,9,1,3,-80,1,-0.2455,4.7545,5.2455,-0.3320711426956105,0.1533740772858428,-7.074209040524443e-05,0.0004465901874861461,0.03956112725349321,9.789066348177565
3.2,0,4,1,12.407418527400745,744.5023238334973,2.7593732113025933,5,160,9,1,3,-77,0,-0.235,4.765,5.235,-0.3350392836782472,0.15218086929742897,-7.023565783832904e-05,3.1812821095665547e-05,0.03865649333434685,9.804587030669188
3.232,0,4,1,14.036243467926484,758.5385673014238,1.628824940525739,5,160,9,1,4,-73,1,-0.16049999999999998,4.8395,5.1605,-0.3380012791712953,0.15097206551404865,-6.968356297422894e-05,-0.00032080724488552965,0.032500675666383316,9.832731524866517
3.2640000000000002,0,4,1,13.495733280795811,772.0343005822195,-0.540510187130673,5,160,9,1,10,-63,6,0.212,5.212,4.788,-0.34095718107974304,0.1497483979176099,-6.903460906222333e-05,-0.0010407945087642153,0.031227366242138437,9.783491591874599
3.2960000000000003,0,4,1,12.407418527400745,784.4417191096203,-1.088314753395066,5,160,9,1,12,-51,2,0.3540000000000001,5.354,4.646,-0.3439114502981382,0.14851443913457676,-6.797704139810921e-05,0.0008365120551693828,0.024488915745187887,9.815910758061243
3.3280000000000003,0,4,1,11.859779120947966,796.3014982305683,-0.5476394064527792,5,160,9,1,13,-38,1,0.4645,5.4645,4.5355,-0.34686818985952217,0.1472980465268421,-6.69294789013529e-05,-0.006764697514284733,-0.0031786695725289356,9.814690104415607
3.36,0,4,1,10.757967088390043,807.0594653189584,-1.1018120325579233,5,160,9,1,13,-25,0,0.525,5.525,4.475,-0.34983742647022914,0.14610910473329936,-6.60793087974218e-05,-0.001646037035569226,-0.017045570795777395,9.787547756681223
3.392,0,4,1,10.203973721731703,817.2634390406901,-0.5539933666583394,5,160,9,1,11,-14,-2,0.47100000000000003,5.471,4.529,-0.3528220985716646,0.14495526743540407,-6.560927769482666e-05,-0.001579292642721235,-0.026648867443377265,9.772141184768765
3.424,0,4,1,11.200797787884444,828.4642368285745,0.9968240661527403,5,160,9,1,10,-4,-1,0.4755,5.4755,4.5245,-0.3558227830235293,0.14384068350447413,-6.561872250838464e-05,-0.002219849672347617,-0.03254305501285331,9.75081683823149
3.456,0,4,1,13.902687114220551,842.366923942795,2.701889326336108,5,160,9,1,8,4,-2,0.41100000000000003,5.411,4.589,-0.35883668670884283,0.14276090052963436,-6.600810483756853e-05,-0.003141717872614377,-0.029556914835383037,9.827583784125197
3.488,0,4,1,18.262889942194125,860.6298138849891,4.360202827973573,5,160,9,1,7,11,-1,0.4005,5.4005,4.5995,-0.36186256473546713,0.14171586083571108,-6.66449836105032e-05,-0.004525455670554027,-0.032027603986151086,9.834445512735062
3.52,0,4,1,23.749494492866766,884.3793083778559,5.4866045506726415,5,160,9,1,6,17,-1,0.38050000000000006,5.3805,4.6195,-0.36489804364178563,0.14070026212143283,-6.740487164783905e-05,-0.005849278582819246,-0.028595303489833836,9.795124521075914
3.552,0,4,1,29.683140179123296,914.0624485569791,5.933645686256529,5,160,9,1,5,22,-1,0.3555,5.3555,4.6445,-0.36794222397975634,0.1397129473961031,-6.817093848076813e-05,-0.007711155766898663,-0.0299411171408824,9.800874991023033
3.584,0,4,1,35.753887254436755,949.8163358114159,6.070747075313459,5,160,9,1,3,25,-2,0.266,5.266,4.734,-0.37099416388452494,0.13875214574151756,-6.88513267889275e-05,-0.009847105737929181,-0.030264446798283412,9.804002282579079
3.616,0,4,1,40.36453657309736,990.1808723845132,4.610649318660606,5,160,9,1,3,28,0,0.29000000000000004,5.29,4.71,-0.37405253446784736,0.137815885351211,-6.929510566149044e-05,-0.012926385622424699,-0.03009350146998924,9.834744644711126
3.648,0,4,1,44.71208393344291,1034.892956317956,4.347547360345551,5,160,9,1,2,30,-1,0.2455,5.2455,4.7545,-0.37711597817043463,0.1368972294599432,-6.960806106936189e-05,-0.009752146852626854,-0.024952976187250467,9.832878854573561
3.68,0,4,1,48.742988295687134,1083.6359446136432,4.030904362244222,5,160,9,1,2,32,0,0.26,5.26,4.74,-0.3801845848154685,0.13599808198830107,-6.972220296409468e-05,-0.007956195795099312,-0.02819161714102347,9.79192778210651
3.712,0,4,1,51.78304885520115,1135.4189934688443,3.0400605595140178,5,160,9,1,1,33,-1,0.21050000000000002,5.2105,4.7895,-0.38325783390671636,0.13511509206267894,-6.97142214970397e-05,-0.005431701688027599,-0.025948447829195937,9.81684288880568
3.744,0,4,1,54.02312971289068,1189.442123181735,2.2400808576895272,5,160,9,1,1,34,0,0.22000000000000003,5.22,4.78,-0.3863356741730766,0.13424950878563632,-6.951533660566785e-05,-0.003953528489407083,-0.027953390220961664,9.837713004093198
3.7760000000000002,0,4,1,55.738897100905454,1245.1810202826405,1.7157673880147755,5,160,9,1,4,38,3,0.4035,5.4035,4.5965,-0.38941750454864876,0.1333976869651834,-6.924086210203899e-05,-0.0019143999736977385,-0.02480195376574448,9.823226481065246
3.8080000000000003,0,4,1,54.21102654081667,1299.3920468234571,-1.527870560088786,5,160,9,1,16,54,12,1.124,6.1240000000000006,3.876,-0.3925045293579414,0.1325604189789153,-6.913363906232116e-05,0.0008530198371606502,-0.025960181916709728,9.793151319614516
3.84,0,4,1,52.36107767157794,1351.753124495035,-1.8499488692387303,5,160,9,1,29,83,13,1.9235000000000002,6.28,3.0765,-0.39560235247715,0.13175140683790615,-6.984387381558585e-05,0.0057925538106245395,-0.040503574769195014,9.807927719883384
3.872,0,4,1,75,1426.753124495035,22.638922328422062,5,160,9,1,32,115,3,2.1885000000000003,6.28,2.8114999999999997,-0.3985258844993246,0.13107114601774322,-7.131189759534799e-05,-0.22741933073263615,-0.10104732139887145,9.813939875319221
3.904,0,4,1,75,1501.753124495035,0,5,160,9,1,34,149,2,2.454,6.28,2.546,-0.4013966123901852,0.1305175689165748,-7.397114988095047e-05,-0.09795040980211787,-0.1276760300510866,9.80402967961564
3.936,0,4,1,75,1576.753124495035,0,5,160,9,1,32,181,-2,2.496,6.28,2.504,-0.40420929981962445,0.1300967217154445,-7.872196973395147e-05,-0.09093650194762991,-0.13574978012786795,9.789258240718317
3.968,0,4,1,75,1651.753124495035,0,5,160,9,1,28,209,-4,2.4270000000000005,6.28,2.5729999999999995,-0.40702765113185796,0.12980344630531623,-8.546450555508775e-05,-0.0139699325154682,-0.1402214923968151,9.763510777066193
4.0,0,4,1,75,1726.753124495035,0,5,160,9,1,23,232,-5,2.2875,6.28,2.7125,-0.4098393977530884,0.12963248873488298,-9.388118934808114e-05,-0.011029223501349616,-0.13766999069631278,9.776939865218603
4.032,0,4,1,75,1801.753124495035,0,5,160,9,1,37,269,14,3.2580000000000005,6.28,1.7419999999999995,-0.4110859123976061,0.12963888661599382,-9.662688436582953e-05,-1.5330263892228893,-0.12551364767509077,9.820626453483644
4.064,0,4,1,75,1876.753124495035,0,5,160,9,1,50,319,13,4.153499999999999,6.28,0.8465000000000007,-0.4115617994752664,0.12964465636259537,-9.998133042909453e-05,-0.7544399639340253,0.028965410371138884,9.809281964495828
4.096,0,4,1,75,1951.753124495035,0,5,160,9,1,57,376,7,4.761500000000001,6.28,0.23849999999999927,-0.41179939761273265,0.12964855407299308,-0.00010288164638704196,-0.23297399210068423,-0.0024174646098765558,9.80824478953087
4.128,0,4,1,75,2026.753124495035,0,5,160,9,1,58,434,1,5.0745000000000005,6.28,-0.07450000000000045,-0.41194298987880684,0.12965497265778228,-0.00010419094177443675,-0.09311005759193508,-0.016986119623200083,9.789153469137906
4.16,0,4,1,75,2101.753124495035,0,5,160,9,1,57,491,-1,5.3004999999999995,6.28,-0.30049999999999955,-0.4119278372343236,0.1296701183220178,-0.00010358062522944703,-0.15704478148253698,-0.01708893685061649,9.826334078445726
4.192,0,4,1,75,2176.753124495035,0,5,160,9,1,32,523,-25,4.1025,6.28,0.8975,-0.41382217360249,0.1295323811658095,-0.00010155254307944728,1.8751139988136205,0.12321136892050491,9.81538205104113
4.224,0,4,1,75,2251.753124495035,0,5,160,9,1,15,538,-17,3.3635,6.28,1.6364999999999998,-0.41613241192191747,0.1295427458472108,-9.911193388571077e-05,0.414536387006437,-0.13975044909448994,9.793643794301204
4.256,0,4,1,75,2326.753124495035,0,5,160,9,1,1,539,-14,2.6819999999999995,6.28,2.3180000000000005,-0.4186858011222975,0.12970617955630784,-9.818569752752075e-05,0.25214528292659544,-0.13894744841628875,9.814978125795642
4.288,0,4,1,75,2401.753124495035,0,5,160,9,1,6,545,5,3.0475000000000003,6.28,1.9524999999999997,-0.4201597167389143,0.12990494928667104,-9.916211739068037e-05,-1.043285581032,-0.16730662749684022,9.837088297010746
4.32,0,4,1,75,2476.753124495035,0,5,160,9,1,16,561,10,3.6500000000000004,6.28,1.3499999999999996,-0.4208999881592735,0.1300257193796666,-0.00010150105800738399,-0.7195386966004026,-0.008047767847243752,9.854992043017731
4.352,0,4,1,75,2551.753124495035,0,5,160,9,1,26,587,10,4.28,6.28,0.7199999999999998,-0.4212784016264537,0.13009059490679512,-0.00010366917366204202,-0.3578410151617643,0.009073791827801127,9.791288839845036
4.384,0,4,1,75,2626.753124495035,0,5,160,9,1,28,615,2,4.484000000000001,6.28,0.5159999999999991,-0.4216885379537412,0.13013877672867002,-0.00010455689894321024,0.028941095856601498,-0.0005969655923807447,9.810271622323729
4.416,0,4,1,75,2701.753124495035,0,5,160,9,1,29,644,1,4.6745,6.28,0.3254999999999999,-0.4220602790110424,0.1301792926061608,-0.00010384840089982042,-0.03856973881103947,-0.013818319141113533,9.851366171104784
4.448,0,4,1,75,2776.753124495035,0,5,160,9,1,13,657,-16,3.863,6.28,1.137,-0.4240198119043768,0.1303360384436189,-0.00010192184845329508,1.55778453658934,0.08052444998008004,9.83824840227668
4.48,0,4,1,75,2851.753124495035,0,5,160,9,1,7,664,-6,3.6430000000000002,6.28,1.3569999999999998,-0.4263785319363877,0.13066446211497193,-9.984441340150398e-05,0.4162571187605266,-0.10489519331746625,9.712519187070495
4.5120000000000005,0,4,1,75,2926.753124495035,0,5,160,9,1,5,669,-2,3.5860000000000003,6.28,1.4139999999999997,-0.4287935953714758,0.13115816494188132,-9.911960968287531e-05,0.09380427601433701,-0.15902505980452353,9.880480484941408
4.5440000000000005,0,4,1,75,3001.753124495035,0,5,160,9,1,16,685,11,4.274500000000001,6.28,0.7254999999999994,-0.42946537508693505,0.1313665856696076,-0.00010144557558083855,-1.7198899720112866,-0.15620977945248846,9.813367690566572
4.5760000000000005,0,4,1,75,3076.753124495035,0,5,160,9,1,22,707,6,4.662,6.28,0.3380000000000001,-0.4297315160112346,0.1314692708754355,-0.00010352698019212847,-0.41025833555579955,-0.00995711992513739,9.798702734603518
4.6080000000000005,0,4,1,75,3151.753124495035,0,5,160,9,1,26,733,4,4.983,6.28,0.017000000000000348,-0.4298307147110036,0.13152055582709454,-0.00010531942330009592,-0.17101587562105497,-0.0069848745876127825,9.848963612543976
4.64,0,4,1,75,3226.753124495035,0,5,160,9,1,26,759,0,5.095,6.28,-0.09499999999999975,-0.4298353345570713,0.1315395348056446,-0.00010608112845154893,-0.0971697256447805,-0.009015044146806763,9.785241324994864
4.672,0,4,1,75,3301.753124495035,0,5,160,9,1,25,784,-1,5.1655,6.28,-0.16549999999999976,-0.42981541569177983,0.13154942778299086,-0.00010562015474879435,-0.02581900332884659,-0.01510052370369222,9.77570184033862
4.704,0,4,1,75,3376.753124495035,0,5,160,9,1,19,803,-6,4.938,6.28,0.06200000000000028,-0.4305125851392035,0.1317270853128591,-0.00010409502166887699,0.7193203061185247,0.0063076911069522915,9.85813840906983
4.736,0,4,1,75,3451.753124495035,0,5,160,9,1,12,815,-7,4.6435,6.28,0.3564999999999996,-0.4324690605481445,0.13225837275577593,-0.00010211211735773433,1.271882294719535,0.05868984979261219,9.836321522231978
4.768,0,4,1,59.257035359650075,3511.0101598546853,-15.742964640349925,5,160,9,1,4,819,-8,4.259,6.28,0.7409999999999997,-0.4344888567752943,0.13297539259104532,-0.00010092398493870627,0.1286021701534893,-0.15876556417141321,9.845846222246555
4.8,0,4,1,75,3586.0101598546853,15.742964640349925,5,160,9,1,9,828,5,4.6125,6.28,0.3875000000000002,-0.43478271664444296,0.13313239313870115,-0.00010289175172165967,-1.7597922746574377,-0.15961334520829004,9.83849159608703
4.832,0,4,1,75,3661.0101598546853,0,5,160,9,1,12,840,3,4.8135,6.28,0.18649999999999967,-0.4349260556446522,0.1332239514775388,-0.00010475328766624062,-0.16025329739091276,-0.014610188586065708,9.801801791937445
4.864,0,4,1,75,3736.0101598546853,0,5,160,9,1,14,854,2,4.979000000000001,6.28,0.02099999999999902,-0.43498005368150894,0.133270747342963,-0.00010650597707462066,-0.09766205949872198,-0.01092230826401954,9.795634469220428
4.896,0,4,1,75,3811.0101598546853,0,5,160,9,1,14,868,0,5.04,6.28,-0.040000000000000036,-0.4349845487349647,0.13328876119143324,-0.0001073822220374436,-0.055412960435309154,-0.01093421686483957,9.808478925883934
4.928,0,4,1,75,3886.0101598546853,0,5,160,9,1,13,881,-1,5.0505,6.28,-0.05050000000000043,-0.43497761211224967,0.1332992541848291,-0.00010712216798697792,-0.013446376591196562,-0.0159102696305425,9.803294433648318
4.96,0,4,1,58.69587650440903,3944.7060363590945,-16.30412349559097,5,160,9,1,11,892,-2,5.0009999999999994,6.28,-0.0009999999999994458,-0.4351545359095574,0.13340101985162575,-0.0001057826732284925,0.1997080158754444,-0.030039173965877606,9.884710205677866
4.992,0,4,1,57.652556500557964,4002.3585928596526,-1.0433200038510648,5,160,9,1,-3,889,-14,4.232,6.28,0.7679999999999998,-0.43685695380584216,0.13418311809378217,-0.00010368554365326396,1.6356438107806526,0.06449916065532897,9.827174111636507
5.024,0,4,1,57.188633201931886,4059.5472260615843,-0.46392329862607795,5,160,9,1,-16,873,-13,3.5065000000000004,6.28,1.4934999999999996,-0.43872774632288947,0.13514810432259064,-0.00010197870537399095,0.23445450301967521,-0.08559406945756402,9.83965259829737
5.056,0,4,1,56.85300416774401,4116.400230229328,-0.3356290341878747,5,160,9,1,-7,866,9,4.0205,6.28,0.9794999999999998,-0.439261290804716,0.13550175979847393,-0.00010338529272073578,-1.4354600370032307,-0.1558211289279541,9.786571924281953
5.088,0,4,1,56.12540564175872,4172.525635871087,-0.7275985259852931,5,160,9,1,0,866,7,4.3615,6.28,0.6384999999999996,-0.4396021068950226,0.135746711997895,-0.00010446763846119929,-0.21653808714373649,-0.018264027412032542,9.78752764134739
5.12,0,4,1,55.84030545433057,4228.365941325417,-0.28510018742814935,5,160,9,1,4,870,4,4.5680000000000005,6.28,0.4319999999999995,-0.4398234579426121,0.13590709181901453,-0.00010538332860168115,-0.14231967358608968,-0.002994478064544508,9.847261807477967
5.152,0,4,1,55.45625059223089,4283.8221919176485,-0.3840548620996813,5,160,9,1,7,877,3,4.748499999999999,6.28,0.25150000000000095,-0.4399723230425053,0.13601636355939653,-0.0001054157197741025,-0.08600005435955868,-0.008627806907545768,9.806815268001568
5.184,0,4,1,55.56101069119639,4339.383202608845,0.10476009896549954,5,160,9,1,2,879,-5,4.4725,6.28,0.5274999999999999,-0.44056844056738464,0.13636345912817727,-0.00010437126497578504,0.49330721391919674,0.004645565194405945,9.816287085717448
5.216,0,4,1,55.30484646876603,4394.688049077611,-0.25616422243035686,5,160,9,1,-14,865,-16,3.553,6.28,1.447,-0.4422952244030081,0.13738379534355757,-0.00010265031287957915,1.2822680850826473,0.06882055509895885,9.842666047802394
5.248,0,4,1,54.07149757717717,4448.759546654788,-1.2333488915888609,5,160,9,1,-25,840,-11,2.9005,6.28,2.0995,-0.4442195020293957,0.13872703772395303,-0.00010147934303023944,0.34508310131343944,-0.1456471198069555,9.861027271792247
5.28,0,4,1,54.07149757717717,4502.831044231965,0.0,5,160,9,1,-20,820,5,3.1224999999999996,6.28,1.8775000000000004,-0.4453864847569875,0.13968083782177237,-0.00010194968556871686,-0.8183936754008333,-0.17789672100023404,9.862004334364817
5.312,0,4,1,53.94758475481564,4556.778628986781,-0.12391282236153245,5,160,9,1,-8,812,12,3.7140000000000004,6.28,1.2859999999999996,-0.445942497046691,0.14020836585348465,-0.00010368141691104518,-0.7303729313874,-0.04880602670192928,9.760777819786242
5.344,0,4,1,53.82037955202106,4610.599008538802,-0.1272052027945776,5,160,9,1,0,812,8,4.096,6.28,0.9039999999999999,-0.4463310212869786,0.14056655877822274,-0.00010532503591993009,-0.23161483137742833,0.01659464243632437,9.791232702312255
5.376,0,4,1,53.61564818416412,4664.2146567229665,-0.20473136785693669,5,160,9,1,5,817,5,4.3575,6.28,0.6425000000000001,-0.4466074804435036,0.14081697198600832,-0.00010583889030802568,-0.15021276847009457,0.00183018705421075,9.833660742385106
5.408,0,4,1,53.689750289139575,4717.904407012106,0.07410210497545222,5,160,9,1,8,825,3,4.5385,6.28,0.4615,-0.4469329641716332,0.14107215132935708,-0.0001049359459380974,0.04107741059782652,0.0069544166554732535,9.81292631896441
5.44,0,4,1,53.26717333551064,4771.171580347617,-0.42257695362893344,5,160,9,1,-12,813,-20,3.3750000000000004,6.28,1.6249999999999996,-0.4485325918823884,0.14223754312893994,-0.00010281274247166822,1.5235029726363205,0.11223688925134105,9.795215469247843
5.472,0,4,1,52.00126755749534,4823.172847905113,-1.265905778015302,5,160,9,1,-24,789,-12,2.6910000000000003,6.28,2.3089999999999997,-0.4503635089350616,0.14380147008285415,-0.00010066199199385874,0.43033395110731076,-0.14050982141215002,9.805424585919253
5.5040000000000004,0,4,1,50.88860874604566,4874.061456651159,-1.112658811449677,5,160,9,1,-33,756,-9,2.0894999999999997,6.28,2.9105000000000003,-0.4522716273020228,0.14564688900859615,-9.997356674390848e-05,0.25246696717680484,-0.15051379194172354,9.853611254683104
5.5360000000000005,0,4,1,51.34019174590991,4925.401648397068,0.4515829998642502,5,160,9,1,-21,735,12,2.679,6.28,2.321,-0.4532263743604232,0.14670992781802622,-0.0001009035404684333,-1.1991400875205005,-0.1473792751574206,9.827656820259605
5.5680000000000005,0,4,1,51.78304885520115,4977.184697252269,0.4428571092912392,5,160,9,1,-8,727,13,3.2935000000000003,6.28,1.7064999999999997,-0.45388752541542915,0.14736958550214507,-0.00010272918686236691,-0.4820366491192157,0.06332469407536209,9.850213232820275
5.6000000000000005,0,4,1,51.84277341263094,5029.0274706649,0.05972455742978866,5,160,9,1,3,730,11,3.8495,6.28,1.1505,-0.4543673575660521,0.1478505498007472,-0.00010395925704957676,-0.24873646073463404,-0.013525706645511917,9.834012872924239
5.632,0,4,1,51.620776082314975,5080.648246747215,-0.2219973303159648,5,160,9,1,10,740,7,4.2315000000000005,6.28,0.7684999999999995,-0.4546883962926442,0.14817339509929603,-0.00010380585878930551,-0.21959059986105806,-0.010699726579613374,9.82019770937598
5.664,0,4,1,50.659481840162485,5131.307728587378,-0.9612942421524906,5,160,9,1,-10,730,-20,3.06,6.28,1.94,-0.4562250852016986,0.14958319231854483,-0.00010212673023995804,1.591895513451332,0.12168446751671662,9.85144098685364
5.696,0,4,1,49.72013693104356,5181.027865518421,-0.9393449091189225,5,160,9,1,-23,707,-13,2.3265,6.28,2.6735,-0.45794889490248647,0.15141627713133612,-9.991185459935423e-05,0.4342412645709442,-0.14310390032174372,9.778177432119433
5.728,0,4,1,49.47946045235028,5230.5073259707715,-0.24067647869328113,5,160,9,1,-33,674,-10,1.675,6.28,3.325,-0.45973294422794364,0.1535479002830814,-9.879829224696164e-05,0.2674061487696583,-0.14810051599738971,9.79880931305312
5.76,0,4,1,49.72013693104356,5280.227462901815,0.24067647869328113,5,160,9,1,-31,643,2,1.6739999999999997,6.28,3.3260000000000005,-0.4611809435748249,0.15549125959484586,-9.899729478617808e-05,-0.3432261649451418,-0.16873736670095985,9.828617505253833
5.792,0,4,1,49.95845091948537,5330.1859138213,0.23831398844180995,5,160,9,1,-14,629,17,2.5214999999999996,6.28,2.4785000000000004,-0.462046410007035,0.15659348900339712,-0.00010006807266269187,-0.9951421246990575,0.04759376801177878,9.817127285425673
5.824,0,4,1,50.19442890773481,5380.380342729035,0.23597798824943794,5,160,9,1,0,629,14,3.208,6.28,1.7919999999999998,-0.46271210015016234,0.1573893071643818,-0.0001011949949742564,-0.35520984914322673,0.022459499500554536,9.839055665896604
5.856,0,4,1,50.19442890773481,5430.57477163677,0.0,5,160,9,1,10,639,10,3.74,6.28,1.2599999999999998,-0.4631893930996822,0.1579603480399991,-0.0001012664255974488,-0.2881802377167207,-0.015589008434792386,9.792618412240119
5.888,0,4,1,48.99091309842977,5479.565684735199,-1.2035158093050384,5,160,9,1,-6,633,-16,2.793,6.28,2.207,-0.46466784740909645,0.1596629013270091,-9.986345080022045e-05,1.4724457104399193,0.09837407944331981,9.836937867892134
5.92,0,4,1,47.46575899499777,5527.031443730197,-1.5251541034320013,5,160,9,1,-16,617,-10,2.24,6.28,2.76,-0.466239987668316,0.16174091500133214,-9.768934882321313e-05,0.35405997073166295,-0.1465126422207955,9.767872383723837
5.952,0,4,1,45.56726640985794,5572.598710140055,-1.8984925851398273,5,160,9,1,-21,596,-5,1.9075,6.28,3.0925000000000002,-0.46780865314773584,0.16406786565584436,-9.638826513164687e-05,0.20611287088206204,-0.14545612167590072,9.796382459993522
5.984,0,4,1,43.22853025996593,5615.827240400021,-2.3387361498920143,5,160,9,1,-23,573,-2,1.7060000000000002,6.28,3.2939999999999996,-0.4693279247243272,0.16656589883941456,-9.632662780417918e-05,0.12202340221841014,-0.14100316458163714,9.74751124091346
6.016,0,4,1,42.614055969611194,5658.441296369632,-0.6144742903547353,5,160,9,1,-7,566,16,2.552,6.28,2.448,-0.4700166179188325,0.1678743740259093,-9.731003656250625e-05,-1.4146376749239045,-0.12251637625339477,9.798882777393967
6.048,0,4,1,41.98721249581667,5700.428508865449,-0.6268434737945228,5,160,9,1,6,572,13,3.2185,6.28,1.7814999999999999,-0.47057800328154403,0.1688049928901724,-9.90083071139361e-05,-0.3804076758899116,0.06988884135738413,9.802978786971071
6.08,0,4,1,41.34777721969367,5741.776286085143,-0.6394352761230024,5,160,9,1,16,588,10,3.785,6.28,1.2149999999999999,-0.4709974535270712,0.16947131914118116,-0.0001000761678666591,-0.2933102358586866,0.0026830100014547903,9.802727941671302
6.112,0,4,1,40.69553103949202,5782.471817124635,-0.6522461802016508,5,160,9,1,19,607,3,3.9985000000000004,6.28,1.0014999999999996,-0.47143015772834823,0.1701821566747054,-9.987255849794492e-05,0.043407614883287704,-0.030578789647765635,9.79780318986224
6.144,0,4,1,39.00747255212105,5821.479289676756,-1.6880584873709665,5,160,9,1,1,608,-18,3.009,6.28,1.991,-0.4725964982963295,0.1720051629097028,-9.837596567162724e-05,1.3011483782413198,0.09036774406732527,9.850210011862771
6.176,0,4,1,37.23483398157467,5858.71412365833,-1.772638570546384,5,160,9,1,-12,596,-13,2.3215,6.28,2.6785,-0.4738065039824083,0.17422736008255976,-9.648925139020548e-05,0.370985153506639,-0.14709800520303049,9.84865819764667
6.208,0,4,1,36.12944414324087,5894.843567801571,-1.1053898383337994,5,160,9,1,-22,574,-10,1.725,6.28,3.275,-0.4749935680332694,0.17673903943177455,-9.573087134993538e-05,0.25190689973510727,-0.14667990853386562,9.820141847948697
6.24,0,4,1,35.37475184387608,5930.218319645447,-0.754692299364784,5,160,9,1,-19,555,3,1.8384999999999998,6.28,3.1615,-0.47585522416869813,0.17886446049576807,-9.627494786805871e-05,-0.4677433971448019,-0.16471975461459282,9.820736487737847
6.272,0,4,1,34.605675551638576,5964.823995197085,-0.7690762922375072,5,160,9,1,-6,549,13,2.5035000000000003,6.28,2.4964999999999997,-0.47643065368738485,0.18025020009592732,-9.773110155538237e-05,-0.767988198858972,0.015620697005002985,9.78543988418282
6.304,0,4,1,34.21570213243741,5999.039697329523,-0.38997341920116924,5,160,9,1,5,554,11,3.0695,6.28,1.9304999999999999,-0.47690591125852577,0.18132530565341268,-9.924904702839077e-05,-0.31873906721056117,0.018118869819369353,9.786766372205252
6.336,0,4,1,33.424811182603804,6032.4645085121265,-0.790890949833603,5,160,9,1,14,568,9,3.5805000000000002,6.28,1.4194999999999998,-0.4772859119304155,0.18214431282856192,-9.984814559346397e-05,-0.26740261503269797,0.0034940289116977756,9.799461064304069
6.368,0,4,1,32.61924307119282,6065.083751583319,-0.8055681114109845,5,160,9,1,1,569,-13,2.8365,6.28,2.1635,-0.4782169294621244,0.18394094099058458,-9.913617046195845e-05,1.0845563946052093,0.1115630017563261,9.847765475338077
6.4,0,4,1,30.96375653207352,6096.047508115393,-1.6554865391192983,5,160,9,1,-12,557,-13,2.1265,6.28,2.8735,-0.479209726006315,0.18632274977498242,-9.74419944996651e-05,0.5593147328585878,-0.15404319648805875,9.82184548869629
6.432,0,4,1,30.5406048496815,6126.588112965074,-0.42315168239202094,5,160,9,1,-23,534,-11,1.4704999999999997,6.28,3.5295000000000005,-0.48015729601666085,0.188998635348584,-9.620165578551852e-05,0.2610460755356539,-0.1448038728461612,9.78519021397407
6.464,0,4,1,30.11373315098243,6156.701846116057,-0.4268716986990704,5,160,9,1,-31,503,-8,0.929,5.929,4.071,-0.48105198331723487,0.19193557015426185,-9.586387249043565e-05,0.23303713913559546,-0.13429422007475653,9.833174001869713
6.496,0,4,1,29.683140179123296,6186.38498629518,-0.43059297185913437,5,160,9,1,-25,478,6,1.167,6.167,3.833,-0.4817047398554209,0.19445967347649679,-9.576862068151441e-05,-0.44849513939338176,-0.13898993820002012,9.826077264601416
6.5280000000000005,0,4,1,29.683140179123296,6216.068126474303,0.0,5,160,9,1,-13,465,12,1.7290000000000003,6.28,3.271,-0.4822145117784176,0.19635280433740154,-9.624965451711376e-05,-0.6291616813169375,0.019728002132934803,9.805047067966795
6.5600000000000005,0,4,1,30.11373315098243,6246.181859625286,0.43059297185913437,5,160,9,1,-2,463,11,2.2645,6.28,2.7355,-0.48268013848452584,0.19794210624678488,-9.680130580368325e-05,-0.29680153085725663,0.026564298078092373,9.806331204471332
6.5920000000000005,0,4,1,30.5406048496815,6276.722464474968,0.4268716986990704,5,160,9,1,3,466,5,2.5025,6.28,2.4975,-0.4831588052988999,0.19953033647310542,-9.663892908797628e-05,0.0025583625842975207,-0.007515476899234854,9.783879060808392
6.6240000000000006,0,4,1,31.38319105635903,6308.105655531327,0.8425862066775309,5,160,9,1,-11,455,-14,1.662,6.28,3.338,-0.48397307484816743,0.20209127843631586,-9.541820288036518e-05,1.004396262572157,0.055188106160245366,9.798343582320316
6.656000000000001,0,4,1,32.210927723673755,6340.316583255001,0.8277366673147242,5,160,9,1,-21,434,-10,1.075,6.075,3.925,-0.4847360974879858,0.20498376467979545,-9.345794327425203e-05,0.3044268605455002,-0.13832040690192657,9.801283327815232
6.688,0,4,1,32.61924307119282,6372.935826326194,0.4083153475190642,5,160,9,1,-26,408,-5,0.7175,5.7175,4.2825,-0.48541887347890283,0.2080499938081607,-9.168959675452844e-05,0.1514575052401517,-0.12737971712454693,9.784860317301142
6.72,0,4,1,33.424811182603804,6406.3606375087975,0.8055681114109845,5,160,9,1,-29,379,-3,0.43149999999999983,5.4315,4.5685,-0.48601935160197085,0.21115374725925865,-9.005685570414625e-05,0.022231074066989605,-0.10298502061109106,9.843070295392573
6.752,0,4,1,34.99202019855866,6441.352657707356,1.5672090159548588,5,160,9,1,-30,349,-1,0.2405000000000001,5.2405,4.7595,-0.48656197744121454,0.2142817128285127,-8.828633246611879e-05,0.014281860935024659,-0.07776835307041491,9.840498124423846
6.784,0,4,1,35.37475184387608,6476.727409551232,0.38273164531742054,5,160,9,1,-27,322,3,0.2735,5.2735,4.7265,-0.48707064297332925,0.21742397996167734,-8.625280500084223e-05,0.00881373105998635,-0.05341329191852865,9.827700757316117
6.816,0,4,1,36.12944414324087,6512.856853694473,0.754692299364784,5,160,9,1,-25,297,2,0.2440000000000001,5.244,4.756,-0.48756489650016577,0.22056601257241198,-8.42778119865134e-05,-0.0021387002561750646,-0.03304312179046719,9.768225128627465
6.848,0,4,1,36.86989764584401,6549.726751340317,0.7404535026031454,5,160,9,1,-23,274,2,0.22899999999999998,5.229,4.771,-0.4880410471866799,0.22371218971169557,-8.231120445727734e-05,0.0015960099968538905,-0.037388076134147574,9.75407737481238
6.88,0,4,1,35.753887254436755,6585.480638594753,-1.1160103914072579,5,160,9,1,-16,258,7,0.5215,5.5215,4.4785,-0.488501555220493,0.22686161744847733,-8.042972286637085e-05,0.0011373284285446672,-0.035030739952487316,9.781483669089717
6.912,0,4,1,34.21570213243741,6619.696340727191,-1.5381851219993479,5,160,9,1,-11,247,5,0.7075,5.7075,4.2925,-0.4889495968125252,0.23000210913943103,-7.911883544530103e-05,-0.0100675801431001,-0.030354262706141125,9.844537493061233
6.944,0,4,1,32.61924307119282,6652.315583798383,-1.5964590612445875,5,160,9,1,-8,239,3,0.8085,5.8085,4.1915,-0.48935785666676335,0.23315213650931155,-7.815426888461117e-05,0.004906635434595547,-0.05855734060500233,9.822713387640658
6.976,0,4,1,30.96375653207352,6683.279340330457,-1.6554865391192983,5,160,9,1,-6,233,2,0.874,5.874,4.126,-0.48970950247442535,0.23633302433748304,-7.742285065471914e-05,0.024767895047658285,-0.07645505240660577,9.810187425754748
7.008,0,4,1,29.683140179123296,6712.96248050958,-1.2806163529502257,5,160,9,1,-6,227,0,0.835,5.835,4.165,-0.4900018884075481,0.2395215512329709,-7.691779340210196e-05,0.0031072556198991825,-0.07665484912783317,9.797002044349394
7.04,0,4,1,27.923589715138373,6740.886070224718,-1.7595504639849224,5,160,9,1,-5,222,1,0.8645,5.8645,4.1355,-0.4902295499941077,0.24271631464133028,-7.653905338987112e-05,0.0025254274380773754,-0.08189408815758747,9.803599011558479
7.072,0,4,1,26.565051177077994,6767.451121401797,-1.3585385380603796,5,160,9,1,-5,217,0,0.835,5.835,4.165,-0.4903956600382664,0.24591550853945754,-7.637758694182574e-05,0.002121767378762563,-0.07860965971708968,9.82300855124262
7.104,0,4,1,25.173524524530173,6792.624645926327,-1.391526652547821,5,160,9,1,-6,211,-1,0.7505,5.7505,4.2495,-0.49049790758232936,0.24911747920535032,-7.632890063263495e-05,0.0016117227622474903,-0.08101490524856061,9.81544725091915
7.136,0,4,1,24.22774531795417,6816.852391244281,-0.9457792065760025,5,160,9,1,-6,205,0,0.7249999999999999,5.725,4.275,-0.4905387335480909,0.2523201876992677,-7.626096579500981e-05,0.0006842637165504239,-0.07913499443101982,9.76156684765172
7.168,0,4,1,23.26770481005697,6840.120096054337,-0.960040507897201,5,160,9,1,-7,198,-1,0.6355,5.6355,4.3645,-0.49052515895009663,0.25552246896812014,-7.620549656623364e-05,0.00044768017770021874,-0.07252918392305872,9.837712885604994
7.2,0,4,1,22.293629159694085,6862.413725214032,-0.9740756503628845,5,160,9,1,-7,191,0,0.605,5.605,4.395,-0.4904601428885667,0.2587230785447789,-7.600517328074964e-05,-8.256337796521269e-05,-0.07012284719003747,9.780548408073702
7.232,0,4,1,20.80679101271124,6883.220516226743,-1.4868381469828442,5,160,9,1,-6,185,1,0.6295,5.6295,4.3705,-0.4903510773096141,0.26192170751686206,-7.572714152617212e-05,-9.55112138362664e-07,-0.06372079161302191,9.810701470864762
7.264,0,4,1,19.79887635452493,6903.019392581267,-1.007914658186312,5,160,9,1,-7,178,-1,0.5355000000000001,5.5355,4.4645,-0.49019887035242665,0.2651183081284058,-7.545242673467727e-05,0.0005127204774931896,-0.06343093645949148,9.771322696921661
7.296,0,4,1,18.778033222445536,6921.797425803713,-1.020843132079392,5,160,9,1,-7,171,0,0.5049999999999999,5.505,4.495,-0.4900021056428309,0.2683118598845526,-7.498148463815253e-05,0.00011776390143083356,-0.06491171090283,9.821610193675568
7.328,0,4,1,18.262889942194125,6940.060315745907,-0.5151432802514115,5,160,9,1,-7,164,0,0.47000000000000003,5.47,4.53,-0.48976787705316066,0.2715025781437189,-7.444523061584697e-05,0.000263093497040434,-0.05845983104425017,9.77504286649078
7.36,0,4,1,17.22343619113144,6957.283751937039,-1.039453751062684,5,160,9,1,-6,158,1,0.4945,5.4945,4.5055,-0.48950239497924036,0.27469034880159166,-7.385569351098069e-05,-2.569700525115157e-05,-0.05217774494350566,9.770159628237742
7.392,0,4,1,17.22343619113144,6974.50718812817,0.0,5,160,9,1,-7,151,-1,0.40049999999999997,5.4005,4.5995,-0.4892047109623718,0.2778753690335432,-7.332990271869191e-05,0.000583094937587466,-0.053034950715492364,9.79967495327279
7.424,0,4,1,17.744671625056924,6992.251859753227,0.521235433925483,5,160,9,1,-6,145,1,0.42949999999999994,5.4295,4.5705,-0.48887279443944015,0.2810568088275705,-7.269389672432888e-05,0.0002630348241439458,-0.054916489682405714,9.80679069731141
7.456,0,4,1,18.778033222445536,7011.029892975673,1.0333615973886126,5,160,9,1,-6,139,0,0.395,5.395,4.605,-0.48851351736704846,0.28423547235365043,-7.216893748220043e-05,0.0005518731210913669,-0.04779596040427587,9.823073308385775
7.488,0,4,1,20.304473709960448,7031.3343666856335,1.5264404875149111,5,160,9,1,-6,133,0,0.365,5.365,4.635,-0.48812450384204015,0.2874107335815093,-7.166448695653319e-05,0.00046529552662592273,-0.049763951234887596,9.810245823119681
7.5200000000000005,0,4,1,22.293629159694085,7053.627995845328,1.9891554497336372,5,160,9,1,-6,127,0,0.33499999999999996,5.335,4.665,-0.4877082303692431,0.290582636158858,-7.119967146014539e-05,0.00040408095776662807,-0.04686135182945147,9.795492414181897
7.5520000000000005,0,4,1,23.749494492866766,7077.377490338195,1.4558653331726816,5,160,9,1,-6,121,0,0.30499999999999994,5.305,4.695,-0.48726684043911916,0.29375123323863117,-7.078242726504119e-05,0.0003434369990627305,-0.0440522621697904,9.806878078475686
7.5840000000000005,0,4,1,25.173524524530173,7102.5510148627245,1.4240300316634062,5,160,9,1,-5,116,1,0.33449999999999996,5.3345,4.6655,-0.48680248378213603,0.29691662889247744,-7.041810781078205e-05,0.0002881040455793209,-0.04112089021117839,9.834662734526974
7.6160000000000005,0,4,1,26.565051177077994,7129.116066039803,1.391526652547821,5,160,9,1,-5,111,0,0.30500000000000005,5.305,4.695,-0.4863172161928675,0.30007910993402087,-7.017669380221352e-05,0.0004105416364211347,-0.0383720175724699,9.859493971702218
7.648000000000001,0,4,1,27.923589715138373,7157.039655754941,1.3585385380603796,5,160,9,1,-5,106,0,0.28,5.28,4.72,-0.4858086675205573,0.30323804223261286,-6.984137103429287e-05,0.00011782929383231692,-0.040243144937722186,9.807339278173414
7.68,0,4,1,29.683140179123296,7186.722795934064,1.7595504639849224,5,160,9,1,-5,101,0,0.255,5.255,4.745,-0.48527899465741314,0.3063935750655271,-6.944510818309574e-05,-0.00030137058186844294,-0.03708903725917234,9.837412765627517
7.712,0,4,1,31.38319105635903,7218.105986990424,1.7000508772357357,5,160,9,1,-5,96,0,0.22999999999999998,5.23,4.77,-0.48473002086240635,0.3095458513120516,-6.90181351639084e-05,-0.000803491402489438,-0.03484112450667033,9.848052198407617
7.744,0,4,1,31.38319105635903,7249.489178046783,0.0,5,160,9,1,-1,95,4,0.44300000000000006,5.443,4.557,-0.4841635727430517,0.31269505743772524,-6.857961445272225e-05,-0.0013605483684085036,-0.03206655223730092,9.810191315140349
7.776,0,4,1,29.683140179123296,7279.172318225907,-1.7000508772357357,5,160,9,1,4,99,5,0.7175,5.7175,4.2825,-0.48358118895939883,0.3158418353938733,-6.842021897330089e-05,-0.0012794893319652344,-0.03012680140708479,9.83121222330273
7.808,0,4,1,27.923589715138373,7307.095907941045,-1.7595504639849224,5,160,9,1,7,106,3,0.8935000000000001,5.8935,4.1065,-0.48296610513069016,0.3189834570178515,-6.860329102742133e-05,-0.0004315945377410598,-0.04556393124957884,9.834388562723513
7.84,0,4,1,26.565051177077994,7333.660959118123,-1.3585385380603796,5,160,9,1,7,113,0,0.915,5.915,4.085,-0.48229719503808166,0.32211587292538607,-6.915207031147133e-05,0.001107253163497311,-0.06614420015286684,9.812058712317016
7.872,0,4,1,25.173524524530173,7358.834483642653,-1.391526652547821,5,160,9,1,6,119,-1,0.8905000000000001,5.8905,4.1095,-0.48156127090371814,0.32523539528438883,-7.012948909906544e-05,0.0022893797524066307,-0.07934877913498592,9.87408469970327
7.904,0,4,1,23.749494492866766,7382.58397813552,-1.4240300316634062,5,160,9,1,5,124,-1,0.8655,5.8655,4.1345,-0.4807574867071504,0.3283392107558726,-7.160424452465688e-05,0.002197558489260843,-0.08143212254461339,9.816206261349304
7.936,0,4,1,22.782405730481685,7405.366383866001,-0.9670887623850817,5,160,9,1,4,128,-1,0.8355000000000001,5.8355,4.1645,-0.4798887222589314,0.33142534925425754,-7.352964238357788e-05,0.0023847343300630605,-0.07961823462180968,9.817904744513788
7.968,0,4,1,23.061519532293538,7428.427903398295,0.2791138018118531,5,160,9,1,2,130,-2,0.741,5.741,4.259,-0.47895804599336694,0.3344918751986592,-7.425834184039519e-05,0.0007738417759579787,-0.07839792843446115,9.831152006155973
8.0,0,4,1,25.880273670068842,7454.308177068364,2.8187541377753043,5,160,9,1,1,131,-1,0.7005000000000001,5.7005,4.2995,-0.47796916363460623,0.33753897660426213,-7.485148427095224e-05,0.0007416534510452911,-0.07637004620228227,9.818323694257973
8.032,0,4,1,29.438489674671505,7483.746666743035,3.558216004602663,5,160,9,1,0,131,-1,0.6505000000000001,5.6505,4.3495,-0.47693006149521694,0.3405679226358815,-7.530504969959981e-05,0.00016545132491994612,-0.06923427397219985,9.820205325129084
8.064,0,4,1,33.82208521749396,7517.568751960529,4.383595542822452,5,160,9,1,-1,130,-1,0.5955,5.5955,4.4045,-0.4758540262695653,0.34355156902163514,-7.555493256647915e-05,-0.02833800290779969,-0.06742271709537002,9.865016691756892
8.096,0,4,1,39.69267315066882,7557.261425111198,5.8705879331748605,5,160,9,1,-3,127,-2,0.476,5.476,4.524,-0.47473351481480264,0.3465147244195248,-7.55702788561765e-05,-0.002557108237630518,-0.06664899776986692,9.837064207496864
8.128,0,4,1,44.71208393344291,7601.973509044641,5.019410782774095,5,160,9,1,-3,124,0,0.47,5.47,4.53,-0.47356875210137633,0.3494687339613331,-7.523579191026121e-05,0.008140977238444274,-0.06369604209304548,9.79960667303889
8.16,0,4,1,48.99091309842977,7650.964422143071,4.27882916498686,5,160,9,1,-3,121,0,0.45499999999999996,5.455,4.545,-0.4723634374287098,0.35243089713368525,-7.478778403023807e-05,0.02285535902251746,-0.054381590496278234,9.773533413373013
8.192,0,4,1,52.06260267041578,7703.027024813487,3.0716895719860062,5,160,9,1,-3,118,0,0.43999999999999995,5.4399999999999995,4.5600000000000005,-0.47112885238103086,0.3553806192290929,-7.424902113367833e-05,0.00026923913119021066,-0.05209889687758892,9.818447756484955
8.224,0,4,1,54.30205471129882,7757.329079524786,2.2394520408830445,5,160,9,1,-3,115,0,0.42500000000000004,5.425,4.575,-0.4698658511816273,0.3583181867320275,-7.365901845492184e-05,0.00045548843787419246,-0.051459252593362294,9.768504415473029
