Time,SetPointAngle,SensorAngleRow,SensorAngleWidth,Angle,IntegralAngle,DeltaAngle,BaseSpeed,SetPointError,SensorErrorRow,SensorErrorWidth,Error,IntegralError,DeltaError,DeltaSpeed,LeftSpeed,RightSpeed,X,Y,Z,Roll,Pitch,Yaw
0.032,0,4,1,0.5729386976839008,0.5729386976839008,0.5729386976839008,6.223655143819362,160,9,1,0,0,0,0.0,6.223655143819362,6.223655143819362,-0.5615000000000011,0.12999999999999848,-6.397122042420787e-05,-4.3620539166896293e-07,1.0325584285277141e-07,9.779364542073948
0.064,0,4,1,0.5729386976839008,1.1458773953678016,0.0,6.223655143819362,160,9,1,0,0,0,0.0,6.223655143819362,6.223655143819362,-0.5614999959419241,0.12601891272907162,-1.5455532091172494e-05,4.674075623920865,9.018511485543164e-08,9.5567681094207
0.096,0,4,1,0.5729386976839008,1.7188160930517025,0.0,6.223655143819362,160,9,1,0,0,0,0.0,6.223655143819362,6.223655143819362,-0.5614999934022588,0.12203417353904172,-6.069528945177108e-05,0.39437119380561153,-2.343689737341795e-06,9.680315379531736
0.128,0,4,1,0.5729386976839008,2.2917547907356033,0.0,6.223655143819362,160,9,1,0,0,0,0.0,6.223655143819362,6.223655143819362,-0.5614999888784465,0.11805072691579244,-7.870602045032676e-05,-0.02707892239349124,1.2668504240000216e-06,9.865686447292427
0.16,0,4,1,0.5729386976839008,2.864693488419504,0.0,6.223655143819362,160,9,1,0,0,0,0.0,6.223655143819362,6.223655143819362,-0.5614999861224291,0.11406774835847089,-7.098084722141282e-05,0.18041855758285213,-2.330862875711088e-06,9.848222883011676
0.192,0,4,1,0.5729386976839008,3.4376321861034045,0.0,6.223655143819362,160,9,1,0,0,0,0.0,6.223655143819362,6.223655143819362,-0.5614999834599709,0.11008471777725917,-7.066043523832818e-05,0.08017807214885342,-8.234207424258039e-07,9.794654711035966
0.224,0,4,1,0.5729386976839008,4.010570883787305,0.0,6.223655143819362,160,9,1,0,0,0,0.0,6.223655143819362,6.223655143819362,-0.5614999786872471,0.10610164179049461,-7.007628354602398e-05,-0.024946987169067347,1.468402888490942e-06,9.816786836994291
0.256,0,4,1,0.5729386976839008,4.583509581471206,0.0,6.223655143819362,160,9,1,0,0,0,0.0,6.223655143819362,6.223655143819362,-0.5614999758115113,0.10211855986202759,-6.841669227833531e-05,-0.0234598456559215,-2.3062774653242274e-06,9.791018466061859
0.28800000000000003,0,4,1,0.5729386976839008,5.156448279155106,0.0,6.223655143819362,160,9,1,0,0,0,0.0,6.223655143819362,6.223655143819362,-0.5614999713151634,0.09813546357363104,-6.752763192407162e-05,-0.020228718490108506,1.216779944038167e-06,9.789386066742088
0.32,0,4,1,0.5729386976839008,5.729386976839007,0.0,6.223655143819362,160,9,1,0,0,0,0.0,6.223655143819362,6.223655143819362,-0.5614999669143087,0.09415235869426548,-6.682237578808058e-05,-0.01601708632114883,-3.8758203752174054e-07,9.775790893031099
0.352,0,4,1,0.5729386976839008,6.3023256745229075,0.0,6.223655143819362,160,9,1,0,0,0,0.0,6.223655143819362,6.223655143819362,-0.5614999625879545,0.09016924694128316,-6.626008981150747e-05,-0.010763373247000236,-3.1377653734519947e-07,9.8596771133121
0.384,0,4,1,0.5729386976839008,6.875264372206808,0.0,6.223655143819362,160,9,1,0,0,0,0.0,6.223655143819362,6.223655143819362,-0.5614999583192479,0.0861861296904474,-6.580834877091372e-05,-0.004859130403345333,-2.5212427958780367e-07,9.80354623616424
0.41600000000000004,0,4,1,0.5729386976839008,7.448203069890709,0.0,6.223655143819362,160,9,1,0,0,0,0.0,6.223655143819362,6.223655143819362,-0.5614999540947458,0.08220300804522672,-6.544167215240954e-05,0.0013414143396068144,-2.0512270824863117e-07,9.878232419523481
0.448,0,4,1,0.5729386976839008,8.02114176757461,0.0,6.223655143819362,160,9,1,0,0,0,0.0,6.223655143819362,6.223655143819362,-0.5614999499037847,0.0782198828903117,-6.514092570440895e-05,0.007441932404874158,-1.6818100307501393e-07,9.752580702702616
0.48,0,4,1,0.5729386976839008,8.59408046525851,0.0,6.223655143819362,160,9,1,0,0,0,0.0,6.223655143819362,6.223655143819362,-0.56149994573798,0.07423675493299356,-6.489254996413368e-05,0.013010720264791173,-1.3851966513017218e-07,9.735746729964458
0.512,0,4,1,0.5729386976839008,9.167019162942411,0.0,6.223655143819362,160,9,1,0,0,0,0.0,6.223655143819362,6.223655143819362,-0.5614999415908237,0.07025362473599595,-6.468753209446475e-05,0.018049684718842385,-1.1460856296020946e-07,9.744617572000871
0.544,0,4,1,0.5729386976839008,9.739957860626312,0.0,6.223655143819362,160,9,1,0,0,0,0.0,6.223655143819362,6.223655143819362,-0.5614999378063287,0.0662704933294575,-6.451957993157918e-05,0.017261372997858217,-4.294037910671172e-07,9.852024361115884
0.5760000000000001,0,4,1,0.5729386976839008,10.312896558310213,0.0,6.223655143819362,160,9,1,0,0,0,0.0,6.223655143819362,6.223655143819362,-0.5614999335813677,0.062287359782526024,-6.440786918022329e-05,0.015464724460059804,3.6710518220010206e-07,9.813970958366893
0.608,0,4,1,0.5729386976839008,10.885835255994113,0.0,6.223655143819362,160,9,1,0,0,0,0.0,6.223655143819362,6.223655143819362,-0.5614999293803271,0.05830422508236341,-6.432173982587157e-05,0.01278100399525362,-7.347487800617382e-08,9.845495514812397
0.64,0,4,1,0.5729386976839008,11.458773953678014,0.0,6.223655143819362,160,9,1,0,0,0,0.0,6.223655143819362,6.223655143819362,-0.5614999251984969,0.054321089458034426,-6.425456768999194e-05,0.009305509854186338,-5.886240576243923e-08,9.802249349355336
0.672,0,4,1,0.5729386976839008,12.031712651361914,0.0,6.223655143819362,160,9,1,0,0,0,0.0,6.223655143819362,6.223655143819362,-0.5614999210322897,0.05033795309261163,-6.420067729991617e-05,0.005277091324120553,-4.5312201530591666e-08,9.78906264475929
0.704,0,4,1,0.5729386976839008,12.604651349045815,0.0,6.223655143819362,160,9,1,0,0,0,0.0,6.223655143819362,6.223655143819362,-0.5614999168790498,0.0463548161319179,-6.41555654927236e-05,0.0009504602879432513,-3.437308143677397e-08,9.826781517803415
0.736,0,4,1,0.5729386976839008,13.177590046729716,0.0,6.223655143819362,160,9,1,0,0,0,0.0,6.223655143819362,6.223655143819362,-0.5614999127368752,0.042371678692092594,-6.411610115169761e-05,-0.0034311049776056288,-2.4062897343257685e-08,9.793391461298624
0.768,0,4,1,0.5729386976839008,13.750528744413616,0.0,6.223655143819362,160,9,1,0,0,0,0.0,6.223655143819362,6.223655143819362,-0.5614999086044569,0.038388540866240106,-6.408057417803259e-05,-0.007620902782257234,-1.4925948373178795e-08,9.824288151747416
0.8,0,4,1,0.5729386976839008,14.323467442097517,0.0,6.223655143819362,160,9,1,0,0,0,0.0,6.223655143819362,6.223655143819362,-0.5614999044809388,0.034405402730023474,-6.404854772500829e-05,-0.011331121490840661,-6.7557397387636174e-09,9.871978045572293
0.8320000000000001,0,4,1,0.5729386976839008,14.896406139781417,0.0,6.223655143819362,160,9,1,0,0,0,0.0,6.223655143819362,6.223655143819362,-0.5614999003657947,0.030422264345931847,-6.402052092383155e-05,-0.014442151275029652,2.981577676105421e-10,9.842115879796053
0.864,0,4,1,0.5729386976839008,15.469344837465318,0.0,6.223655143819362,160,9,1,0,0,0,0.0,6.223655143819362,6.223655143819362,-0.5614998964178168,0.0264391258069577,-6.399538127640006e-05,-0.014393554978438564,-1.465198487643073e-07,9.818106319327171
0.896,0,4,1,0.5729386976839008,16.04228353514922,0.0,6.223655143819362,160,9,1,0,0,0,0.0,6.223655143819362,6.223655143819362,-0.561499892322511,0.022455987082399584,-6.398694451191164e-05,-0.013505055618184316,1.649678681156425e-07,9.798224458370871
0.928,0,4,1,0.5729386976839008,16.615222232833123,0.0,6.223655143819362,160,9,1,0,0,0,0.0,6.223655143819362,6.223655143819362,-0.5614998882359002,0.018472848245489247,-6.398265435557729e-05,-0.0118372241527766,1.553620073630398e-08,9.803385103016453
0.96,0,4,1,0.5729386976839008,17.188160930517025,0.0,6.223655143819362,160,9,1,0,0,0,0.0,6.223655143819362,6.223655143819362,-0.5614998841574517,0.014489709320739714,-6.398100649903336e-05,-0.009353428907235412,1.8391641568646114e-08,9.804803039118651
0.992,0,4,1,0.5729386976839008,17.761099628200927,0.0,6.223655143819362,160,9,1,0,0,0,0.0,6.223655143819362,6.223655143819362,-0.5614998800866866,0.010506570327543792,-6.398039232723314e-05,-0.006349122167088775,2.0060868760846188e-08,9.814869689635893
1.024,0,4,1,0.5729386976839008,18.33403832588483,0.0,6.223655143819362,160,9,1,0,0,0,0.0,6.223655143819362,6.223655143819362,-0.5614998760231104,0.00652343128150111,-6.39793594128836e-05,-0.003037221711354644,2.0801482414766597e-08,9.866030353465534
1.056,0,4,1,0.5729386976839008,18.906977023568732,0.0,6.223655143819362,160,9,1,0,0,0,0.0,6.223655143819362,6.223655143819362,-0.561499871966159,0.002540292195274491,-6.397687329913644e-05,0.0004946942268519562,2.0550243818482425e-08,9.765209777640186
1.088,0,4,1,0.5729386976839008,19.479915721252635,0.0,6.223655143819362,160,9,1,0,0,0,0.0,6.223655143819362,6.223655143819362,-0.561499867915163,-0.0014428469210444638,-6.397249696217348e-05,0.003977278502729028,1.9332331616123067e-08,9.856226668052555
1.12,0,4,1,0.5729386976839008,20.052854418936537,0.0,6.223655143819362,160,9,1,0,0,0,0.0,6.223655143819362,6.223655143819362,-0.5614998638693326,-0.005425986059897959,-6.396644250521687e-05,0.007265284967015885,1.7284549496720443e-08,9.83342369255644
1.1520000000000001,0,4,1,0.5729386976839008,20.62579311662044,0.0,6.223655143819362,160,9,1,0,0,0,0.0,6.223655143819362,6.223655143819362,-0.561499859827756,-0.00940912521627593,-6.395948036242056e-05,0.010075055453322466,1.4431078116894723e-08,9.846191745840729
1.184,0,4,1,0.5729386976839008,21.19873181430434,0.0,6.223655143819362,160,9,1,0,0,0,0.0,6.223655143819362,6.223655143819362,-0.5614998557894119,-0.01339226438751853,-6.395272533332372e-05,0.0123015931596848,1.1019137961671538e-08,9.841687814779172
1.216,0,4,1,0.5729386976839008,21.771670511988244,0.0,6.223655143819362,160,9,1,0,0,0,0.0,6.223655143819362,6.223655143819362,-0.561499851753194,-0.01737540357278503,-6.394734814090322e-05,0.013847126135559837,7.008083076083211e-09,9.814308716837447
1.248,0,4,1,0.5729386976839008,22.344609209672146,0.0,6.223655143819362,160,9,1,0,0,0,0.0,6.223655143819362,6.223655143819362,-0.5614998477179438,-0.021358542772265246,-6.394427907362513e-05,0.014510407060853811,2.6649808249410715e-09,9.802089733358672
1.28,0,4,1,0.5729386976839008,22.91754790735605,0.0,6.223655143819362,160,9,1,0,0,0,0.0,6.223655143819362,6.223655143819362,-0.5614998436824874,-0.02534168198636372,-6.394397237755034e-05,0.014300087365540491,-1.8364440037011013e-09,9.793632861379068
1.312,0,4,1,0.5729386976839008,23.49048660503995,0.0,6.223655143819362,160,9,1,0,0,0,0.0,6.223655143819362,6.223655143819362,-0.5614998396456763,-0.029324821215121172,-6.394628599652383e-05,0.01329485997465356,-6.369979321081068e-09,9.809402880061706
1.344,0,4,1,0.5729386976839008,24.063425302723854,0.0,6.223655143819362,160,9,1,0,0,0,0.0,6.223655143819362,6.223655143819362,-0.5614998356064299,-0.033307960458034226,-6.395050427648527e-05,0.011353321758204294,-1.0609120801967101e-08,9.770080153424292
1.3760000000000001,0,4,1,0.5729386976839008,24.636364000407756,0.0,6.223655143819362,160,9,1,0,0,0,0.0,6.223655143819362,6.223655143819362,-0.5614998315637756,-0.03729109971424811,-6.395549776427867e-05,0.008879423333315047,-1.4547510409623433e-08,9.756505068912741
1.408,0,4,1,0.5729386976839008,25.20930269809166,0.0,6.223655143819362,160,9,1,0,0,0,0.0,6.223655143819362,6.223655143819362,-0.5614998275168861,-0.04127423898292473,-6.395998206555273e-05,0.005819892829747779,-1.8047199504889443e-08,9.811661522968905
1.44,0,4,1,0.5729386976839008,25.78224139577556,0.0,6.223655143819362,160,9,1,0,0,0,0.0,6.223655143819362,6.223655143819362,-0.5614998234651097,-0.0452573782635189,-6.396281453180212e-05,0.0024249588624719602,-2.080172241360916e-08,9.842628464906399
1.472,0,4,1,0.5729386976839008,26.355180093459463,0.0,6.223655143819362,160,9,1,0,0,0,0.0,6.223655143819362,6.223655143819362,-0.5614998194079968,-0.049240517555763606,-6.396325869298218e-05,-0.0011154558376399958,-2.2595219998287358e-08,9.808562500598697
1.504,0,4,1,0.5729386976839008,26.928118791143365,0.0,6.223655143819362,160,9,1,0,0,0,0.0,6.223655143819362,6.223655143819362,-0.5614998153453157,-0.05322365685933756,-6.396115400858493e-05,-0.00457812781384751,-2.3676715778616507e-08,9.8102105542275
1.536,0,4,1,0.5729386976839008,27.501057488827268,0.0,6.223655143819362,160,9,1,0,0,0,0.0,6.223655143819362,6.223655143819362,-0.561499811277062,-0.05720679617337284,-6.395695082367717e-05,-0.007808699672648196,-2.3935524648166106e-08,9.808353774451897
1.568,0,4,1,0.5729386976839008,28.07399618651117,0.0,6.223655143819362,160,9,1,0,0,0,0.0,6.223655143819362,6.223655143819362,-0.5614998072034583,-0.06118993549606235,-6.395160216743877e-05,-0.010535094811392757,-2.3168460415162986e-08,9.816663499198945
1.6,0,4,1,0.5729386976839008,28.646934884195073,0.0,6.223655143819362,160,9,1,0,0,0,0.0,6.223655143819362,6.223655143819362,-0.561499803124943,-0.06517307482459313,-6.394633773623877e-05,-0.012658318001674137,-2.1305798548770092e-08,9.799616492014882
1.6320000000000001,0,4,1,0.5729386976839008,29.219873581878975,0.0,6.223655143819362,160,9,1,0,0,0,0.0,6.223655143819362,6.223655143819362,-0.5614997990421551,-0.06915621415547808,-6.394237314688925e-05,-0.013977699710717268,-1.8863775684924976e-08,9.77855106283968
1.6640000000000001,0,4,1,0.5729386976839008,29.792812279562877,0.0,6.223655143819362,160,9,1,0,0,0,0.0,6.223655143819362,6.223655143819362,-0.5614997949559054,-0.0731393534851649,-6.394062279148176e-05,-0.014502198988292879,-1.5611240911924688e-08,9.828361946531016
1.696,0,4,1,0.5729386976839008,30.36575097724678,0.0,6.223655143819362,160,9,1,0,0,0,0.0,6.223655143819362,6.223655143819362,-0.5614997908671444,-0.07712249281066484,-6.394148379261846e-05,-0.014142254341744362,-1.1771410735953455e-08,9.807034132941796
1.728,0,4,1,0.5729386976839008,30.938689674930682,0.0,6.223655143819362,160,9,1,0,0,0,0.0,6.223655143819362,6.223655143819362,-0.561499786776925,-0.08110563212993802,-6.394474183602991e-05,-0.013004833416018269,-7.396795358061362e-09,9.857417311239798
1.76,0,4,1,0.5729386976839008,31.511628372614584,0.0,6.223655143819362,160,9,1,0,0,0,0.0,6.223655143819362,6.223655143819362,-0.5614997826863586,-0.08508877144189594,-6.394962100389479e-05,-0.010955104474068764,-2.7370673613840396e-09,9.834473251070627
1.792,0,4,1,0.5729386976839008,32.08456707029848,0.0,6.223655143819362,160,9,1,0,0,0,0.0,6.223655143819362,6.223655143819362,-0.5614997785965711,-0.08907191074607705,-6.395496584914173e-05,-0.008303050096656208,1.9965842877681385e-09,9.791813686033578
1.824,0,4,1,0.5729386976839008,32.657505767982386,0.0,6.223655143819362,160,9,1,0,0,0,0.0,6.223655143819362,6.223655143819362,-0.561499774508658,-0.09305505004220845,-6.395951285463608e-05,-0.005249787264466168,6.655530222979114e-09,9.817263473277293
1.856,0,4,1,0.5729386976839008,33.23044446566629,0.0,6.223655143819362,160,9,1,0,0,0,0.0,6.223655143819362,6.223655143819362,-0.5614997704236422,-0.09703818932991705,-6.396218739713501e-05,-0.0018096976080510315,1.1088587929048393e-08,9.803657860524913
1.8880000000000001,0,4,1,0.5729386976839008,33.80338316335019,0.0,6.223655143819362,160,9,1,0,0,0,0.0,6.223655143819362,6.223655143819362,-0.5614997663424324,-0.10102132860876076,-6.39623563284588e-05,0.00173478418802053,1.510113081149113e-08,9.77784610309069
1.92,0,4,1,0.5729386976839008,34.37632186103409,0.0,6.223655143819362,160,9,1,0,0,0,0.0,6.223655143819362,6.223655143819362,-0.5614997622657876,-0.1050044678785706,-6.395997674652626e-05,0.0051966155551136746,1.8398308568974443e-08,9.81511290290067
1.952,0,4,1,0.5729386976839008,34.949260558717995,0.0,6.223655143819362,160,9,1,0,0,0,0.0,6.223655143819362,6.223655143819362,-0.5614997581942879,-0.10898760713991795,-6.395560593687975e-05,0.00830368605535384,2.121138201314336e-08,9.807019572795367
1.984,0,4,1,0.5729386976839008,35.5221992564019,0.0,6.223655143819362,160,9,1,0,0,0,0.0,6.223655143819362,6.223655143819362,-0.5614997541283122,-0.11297074639444127,-6.395027014417624e-05,0.010992525352894678,2.3073031595393842e-08,9.818220710155224
2.016,0,4,1,0.5729386976839008,36.0951379540858,0.0,6.223655143819362,160,9,1,0,0,0,0.0,6.223655143819362,6.223655143819362,-0.5614997500680224,-0.11695388564482488,-6.394522303981333e-05,0.01299394925231479,2.399623792849759e-08,9.813585436871273
2.048,0,4,1,0.5729386976839008,36.6680766517697,0.0,6.223655143819362,160,9,1,0,0,0,0.0,6.223655143819362,6.223655143819362,-0.5614997460133591,-0.12093702489439069,-6.394165070067702e-05,0.014101787038940031,2.3885362552446202e-08,9.743708295615443
2.08,0,4,1,0.5729386976839008,37.241015349453605,0.0,6.223655143819362,160,9,1,0,0,0,0.0,6.223655143819362,6.223655143819362,-0.5614997419640416,-0.12492016414645388,-6.394039251037854e-05,0.01443238196363668,2.3138059168517642e-08,9.803530849473805
2.112,0,4,1,0.5729386976839008,37.81395404713751,0.0,6.223655143819362,160,9,1,0,0,0,0.0,6.223655143819362,6.223655143819362,-0.5614997379195807,-0.12890330340371084,-6.394174363483912e-05,0.014089292964380277,2.1193287685452852e-08,9.786302541711116
2.144,0,4,1,0.5729386976839008,38.38689274482141,0.0,6.223655143819362,160,9,1,0,0,0,0.0,6.223655143819362,6.223655143819362,-0.5614997338792966,-0.13288644266790886,-6.394538554328928e-05,0.012727909680249583,1.8536272715668727e-08,9.760030783221913
2.176,0,4,1,0.5729386976839008,38.95983144250531,0.0,6.223655143819362,160,9,1,0,0,0,0.0,6.223655143819362,6.223655143819362,-0.5614997298423454,-0.1368695819399042,-6.395046091498512e-05,0.010579876525963174,1.5177137576014997e-08,9.789784212136528
2.208,0,4,1,0.5729386976839008,39.532770140189214,0.0,6.223655143819362,160,9,1,0,0,0,0.0,6.223655143819362,6.223655143819362,-0.5614997258077525,-0.14085272122002102,-6.395577531054762e-05,0.00784220790202625,1.1163305896370757e-08,9.810799853377667
2.24,0,4,1,0.5729386976839008,40.10570883787312,0.0,6.223655143819362,160,9,1,0,0,0,0.0,6.223655143819362,6.223655143819362,-0.5614997217744497,-0.14483586050847747,-6.396007815815188e-05,0.004680437081978234,6.7189883575474086e-09,9.808079937100135
2.2720000000000002,0,4,1,0.5729386976839008,40.67864753555702,0.0,6.223655143819362,160,9,1,0,0,0,0.0,6.223655143819362,6.223655143819362,-0.5614997177413172,-0.14881899980562371,-6.396235694970318e-05,0.0011936754672696684,1.9888232093296137e-09,9.792036811582163
2.3040000000000003,0,4,1,0.5729386976839008,41.25158623324092,0.0,6.223655143819362,160,9,1,0,0,0,0.0,6.223655143819362,6.223655143819362,-0.5614997137072283,-0.15280213911184762,-6.396207543078215e-05,-0.0023554464350305,-2.786020059833201e-09,9.783208415242653
2.336,0,4,1,0.5729386976839008,41.824524930924824,0.0,6.223655143819362,160,9,1,0,0,0,0.0,6.223655143819362,6.223655143819362,-0.5614997096710931,-0.1567852784271914,-6.395929974809152e-05,-0.005749233214901394,-7.481141461394114e-09,9.782225664490925
2.368,0,4,1,0.5729386976839008,42.397463628608726,0.0,6.223655143819362,160,9,1,0,0,0,0.0,6.223655143819362,6.223655143819362,-0.5614997056319017,-0.16076841775088835,-6.39546828727286e-05,-0.00881626235521639,-1.183512530781127e-08,9.78148017576278
2.4,0,4,1,0.5729386976839008,42.97040232629263,0.0,6.223655143819362,160,9,1,0,0,0,0.0,6.223655143819362,6.223655143819362,-0.5614997015887638,-0.16475155708108444,-6.394931096724565e-05,-0.011360784415564661,-1.5660848158190287e-08,9.818978404878953
2.432,0,4,1,0.5729386976839008,43.54334102397653,0.0,6.223655143819362,160,9,1,0,0,0,0.0,6.223655143819362,6.223655143819362,-0.5614996975409454,-0.16873469641492925,-6.39444478381778e-05,-0.013149879181356924,-1.899296201880537e-08,9.788844314661565
2.464,0,4,1,0.5729386976839008,44.11627972166043,0.0,6.223655143819362,160,9,1,0,0,0,0.0,6.223655143819362,6.223655143819362,-0.5614996934878955,-0.1727178357490407,-6.394123759986478e-05,-0.014262915508489063,-2.161365633807861e-08,9.856277368333814
2.496,0,4,1,0.5729386976839008,44.689218419344336,0.0,6.223655143819362,160,9,1,0,0,0,0.0,6.223655143819362,6.223655143819362,-0.5614996894292709,-0.1767009750928436,-6.394016886352057e-05,-0.014383579389770442,-2.1571341132436703e-08,9.827482370212635
2.528,0,4,1,0.5729386976839008,45.26215711702824,0.0,6.223655143819362,160,9,1,0,0,0,0.0,6.223655143819362,6.223655143819362,-0.5614996853649543,-0.18068411441554025,-6.39427619088806e-05,-0.013384044113560045,-2.277620939925855e-08,9.801998236477663
2.56,0,4,1,0.5729386976839008,45.83509581471214,0.0,6.223655143819362,160,9,1,0,0,0,0.0,6.223655143819362,6.223655143819362,-0.5614996812950507,-0.18466725373108892,-6.394724202016255e-05,-0.011785374523047017,-2.2848485147348078e-08,9.851489494601845
2.592,0,4,1,0.5729386976839008,46.40803451239604,0.0,6.223655143819362,160,9,1,0,0,0,0.0,6.223655143819362,6.223655143819362,-0.5614996772198756,-0.18865039303887762,-6.395259565229391e-05,-0.009354755222803508,-2.1882081687895285e-08,9.818190157476774
2.624,0,4,1,0.5729386976839008,46.980973210079945,0.0,6.223655143819362,160,9,1,0,0,0,0.0,6.223655143819362,6.223655143819362,-0.5614996731399526,-0.19263353233863256,-6.39575971779268e-05,-0.0064154829665446,-1.9999657714835665e-08,9.798007723661364
2.656,0,4,1,0.5729386976839008,47.55391190776385,0.0,6.223655143819362,160,9,1,0,0,0,0.0,6.223655143819362,6.223655143819362,-0.5614996690559926,-0.1966166716300607,-6.396109700699398e-05,-0.003092897318113826,-1.7395086330868657e-08,9.819622445411234
2.688,0,4,1,0.5729386976839008,48.12685060544775,0.0,6.223655143819362,160,9,1,0,0,0,0.0,6.223655143819362,6.223655143819362,-0.5614996649688655,-0.20059981091275614,-6.396229340253044e-05,0.0004023139612687891,-1.3975229418746313e-08,9.83338010426386
2.72,0,4,1,0.5729386976839008,48.69978930313165,0.0,6.223655143819362,160,9,1,0,0,0,0.0,6.223655143819362,6.223655143819362,-0.5614996608795662,-0.2045829501864333,-6.396092219000671e-05,0.003879335497571241,-9.969499175768037e-09,9.794077002694685
2.7520000000000002,0,4,1,0.5729386976839008,49.272728000815555,0.0,6.223655143819362,160,9,1,0,0,0,0.0,6.223655143819362,6.223655143819362,-0.561499656789174,-0.20856608945136393,-6.395731978288237e-05,0.007143123844542112,-5.600890732828525e-09,9.788762256084384
2.7840000000000003,0,4,1,1.1457628381751443,50.4184908389907,0.5728241404912435,6.169143233402604,160,9,1,0,0,0,0.0,6.169143233402604,6.169143233402604,-0.5614996526988115,-0.2125492287087737,-6.395234473554647e-05,0.009944338162013896,-9.845833754258505e-10,9.83972766004866
2.816,0,4,1,2.2906100426385936,52.70910088162929,1.1448472044634492,6.065199984865566,160,9,1,0,0,0,0.0,6.065199984865566,6.065199984865566,-0.5614996486454146,-0.21649748121661352,-6.396011224184608e-05,-0.028921499797316584,3.6945648183296035e-09,9.769882789153929
2.848,0,4,1,3.4336303624506144,56.142731244079904,1.1430203198120208,5.967401045967872,160,9,1,0,0,0,0.0,5.967401045967872,5.967401045967872,-0.5614996446624838,-0.2203792107547306,-6.395383595192254e-05,-0.07796924611989238,8.141949773406567e-09,9.804086312032627
2.88,0,4,1,5.710593137499568,61.85332438157947,2.276962775048954,5.787647729296528,160,9,1,0,0,0,0.0,5.787647729296528,5.787647729296528,-0.5614996407468158,-0.22419834897700003,-6.380225324262821e-05,-0.10376521959530495,1.2358743260925228e-08,9.791547375989929
2.912,0,4,1,7.969610394321354,69.82293477590082,2.2590172568217852,5.6254744406460215,160,9,1,0,0,0,0.0,5.6254744406460215,5.6254744406460215,-0.5614996384199472,-0.22790244626721384,-6.361404697934753e-05,-0.14970477176821462,-1.4347932009207398e-06,9.805136173036624
2.944,0,4,1,10.757967088390043,80.58090186429087,2.788356694068689,5.442316345653184,160,9,1,0,0,0,0.0,5.442316345653184,5.442316345653184,-0.5614996347500525,-0.23150275276533,-6.361637651757825e-05,-0.13441447906107726,1.4277552743427528e-06,9.827234548451331
2.976,0,4,1,14.574216198038746,95.1551180623296,3.8162491096487035,5.213465200980499,160,9,1,0,0,0,0.0,5.213465200980499,5.213465200980499,-0.5614996312096935,-0.2349858382623748,-6.360313097800163e-05,-0.14424932489583975,1.995187517913804e-09,9.836664245369382
3.008,0,4,1,17.744671625056924,112.89978968738653,3.1704554270181777,5.035903115432742,160,9,1,0,0,0,0.0,5.035903115432742,5.035903115432742,-0.5614996278252018,-0.23832245977857391,-6.356489826190616e-05,-0.1694368440441379,4.973865244122536e-09,9.81279070190543
3.04,0,4,1,21.305783617828766,134.2055733052153,3.561111992771842,4.84372742247341,160,9,1,-1,-1,-1,-0.0595,4.7842274224734105,4.90322742247341,-0.561499624562823,-0.24154544000133515,-6.35582727012713e-05,-0.13471853154407915,6.730088318321704e-09,9.791112452413222
3.072,0,4,1,25.173524524530173,159.37909782974546,3.867740906701407,4.637008452531117,160,9,1,-1,-2,0,-0.060000000000000005,4.577008452531118,4.697008452531117,-0.561499684880924,-0.2446454295129808,-6.354366096418887e-05,-0.1409459036894296,9.988035731721759e-05,9.859846166144722
3.104,0,4,1,27.923589715138373,187.30268754488384,2.7500651906082005,4.487341320305189,160,9,1,-3,-5,-2,-0.18400000000000002,4.303341320305189,4.6713413203051894,-0.5614953556661137,-0.24761312967141566,-6.352410812002739e-05,-0.15002365631599573,0.004647352892214008,9.744665551309316
3.136,0,4,1,31.38319105635903,218.68587860124288,3.459601341220658,4.29098574308139,160,9,1,-3,-8,0,-0.19000000000000003,4.10098574308139,4.480985743081391,-0.5614870315827637,-0.2504850706997438,-6.354269400241433e-05,-0.11322347033095957,0.004582975953739984,9.762764299641281
3.168,0,4,1,33.82208521749396,252.50796381873684,2.4388941611349253,4.143945406112972,160,9,1,-5,-13,-2,-0.324,3.8199454061129723,4.467945406112972,-0.561466603369408,-0.2532313851373239,-6.354862070575597e-05,-0.14159894768326414,0.013239974762552523,9.788967909644157
3.2,0,4,1,36.12944414324087,288.6374079619777,2.307358925746911,3.995526785017012,160,9,1,-6,-19,-1,-0.3995,3.596026785017012,4.395026785017012,-0.5614346747992259,-0.25588365099344257,-6.361850640931518e-05,-0.10892581737974555,0.01323515455498786,9.804278128138057
3.232,0,4,1,38.65980825409008,327.2972162160678,2.530364110849213,3.8190029355949653,160,9,1,-6,-25,0,-0.42500000000000004,3.3940029355949655,4.244002935594965,-0.5613837149003686,-0.25844092092848914,-6.374537973757172e-05,-0.10944319048735525,0.021487792513419632,9.832498282737019
3.2640000000000002,0,4,1,40.69553103949202,367.99274725555983,2.035722785401937,3.6635461858858864,160,9,1,-6,-31,0,-0.45500000000000007,3.2085461858858864,4.1185461858858865,-0.5613112725509899,-0.2608849281496693,-6.393302871967634e-05,-0.12592208505357597,0.02585472629830754,9.783181172493128
3.2960000000000003,0,4,1,42.3021943666837,410.2949416222435,1.6066633271916828,3.5302842522748037,160,9,1,-7,-38,-1,-0.5445,2.9857842522748035,4.074784252274804,-0.5612178060632523,-0.2632288553115498,-6.421707657581523e-05,-0.11138247379081079,0.02618581193480964,9.815277662681037
3.3280000000000003,0,4,1,43.83086067209259,454.1258022943361,1.5286663054088905,3.393043316700771,160,9,1,-6,-44,1,-0.5155000000000001,2.8775433167007707,3.9085433167007713,-0.5611032824146364,-0.26548675313121367,-6.461777152862169e-05,-0.09782907694882355,0.027080126786914085,9.814436900938173
3.36,0,4,1,45.00000000000001,499.1258022943361,1.1691393279074163,3.280000000000774,160,9,1,-6,-50,0,-0.55,2.730000000000774,3.8300000000007737,-0.5609650632861785,-0.26765538110896653,-6.50623282051465e-05,-0.09897476205798135,0.03129055886917944,9.78753396940228
3.392,0,4,1,45.84667402386151,544.9724763181976,0.8466740238615031,3.279281808024616,160,9,1,-6,-56,0,-0.5800000000000001,2.699281808024616,3.8592818080246163,-0.5608061170205663,-0.26975010041817943,-6.55771117551579e-05,-0.08278508957029723,0.02865238117167822,9.77230039677504
3.424,0,4,1,46.95568139752289,591.9281577157204,1.1090073736613775,3.2767789277614137,160,9,1,-6,-62,0,-0.6100000000000001,2.6667789277614133,3.886778927761414,-0.5606206393986741,-0.27184224871916235,-6.620118644103112e-05,-0.012092245174682987,0.02888187505200129,9.751127926713027
3.456,0,4,1,47.489552921999156,639.4177106377196,0.5338715244762682,3.2749442308448744,160,9,1,-6,-68,0,-0.6400000000000001,2.6349442308448743,3.9149442308448745,-0.5604073752930508,-0.2739302234488152,-6.685734296705409e-05,-0.012210455829800767,0.030516305450648547,9.82788486908219
3.488,0,4,1,48.270487923183566,687.6881985609032,0.7809350011844103,3.2715446274402296,160,9,1,-6,-74,0,-0.67,2.6015446274402296,3.9415446274402295,-0.5601649538699097,-0.2760139280122269,-6.754387742392322e-05,-0.010873841829554072,0.03281933664968116,9.83462686978727
3.52,0,4,1,48.77819770716159,736.4663962680647,0.5077097839780222,3.268877841652202,160,9,1,-6,-80,0,-0.7000000000000001,2.568877841652202,3.968877841652202,-0.5598921758658616,-0.27809178743725516,-6.825803852571893e-05,-0.010998531100384623,0.03433138016834414,9.79519437621783
3.552,0,4,1,49.028263666485145,785.4946599345499,0.2500659593235568,3.267433624586714,160,9,1,-6,-86,0,-0.73,2.537433624586714,3.997433624586714,-0.5595876965806267,-0.280163628500843,-6.900103325185696e-05,-0.00979832870425245,0.03639750337685053,9.800837404833649
3.584,0,4,1,49.52095789958143,835.0156178341313,0.49269423309628735,3.2643354096939783,160,9,1,-6,-92,0,-0.76,2.5043354096939785,4.024335409693978,-0.5592501182802505,-0.2822295221788657,-6.977385737919062e-05,-0.008177726889278654,0.038117902145963424,9.803881673842461
3.616,0,4,1,50.29008120537127,885.3056990395025,0.7691233057898401,3.258833185239641,160,9,1,-6,-98,0,-0.79,2.468833185239641,4.048833185239641,-0.5588783414084815,-0.28428765327997957,-7.0575388031539e-05,-0.008452409123556192,0.03992180106170557,9.834483179777871
3.648,0,4,1,50.76263288659845,936.068331926101,0.4725516812271806,3.255052993768896,160,9,1,-6,-104,0,-0.8200000000000001,2.4350529937688963,4.075052993768896,-0.5584714353747416,-0.28633567632493334,-7.140566162675867e-05,-0.009138518428537116,0.041692561284724136,9.832715150380112
3.68,0,4,1,51.225829064425774,987.2941609905267,0.4631961778273208,3.2510543322231515,160,9,1,-6,-110,0,-0.8500000000000001,2.4010543322231515,4.101054332223152,-0.5580280353827758,-0.2883737788551828,-7.226878173566438e-05,-0.0072643722684335174,0.04348908797545182,9.791696644766493
3.712,0,4,1,51.45398659035337,1038.7481475808802,0.22815752592759253,3.2489812530865705,160,9,1,-6,-116,0,-0.88,2.3689812530865706,4.128981253086571,-0.5575470265679614,-0.290400855764772,-7.316472831541375e-05,-0.006599745153349969,0.045199478383030574,9.81668190530295
3.744,0,4,1,52.18853714273665,1090.9366847236167,0.7345505523832827,3.241818856066461,160,9,1,-6,-122,0,-0.91,2.331818856066461,4.151818856066461,-0.557027045850647,-0.2924170643182036,-7.409677317628607e-05,-0.004578884876908294,0.0470444253605542,9.837481720982879
3.7760000000000002,0,4,1,52.409438731638325,1143.346123455255,0.22090158890167544,3.2395205534067664,160,9,1,-6,-128,0,-0.9400000000000001,2.2995205534067664,4.179520553406767,-0.5564678503304904,-0.29441813398325256,-7.505981563722501e-05,-0.006999018619747674,0.048821643524282116,9.823105966817648
3.8080000000000003,0,4,1,52.91416450904766,1196.2602879643027,0.5047257774093339,3.234028991344196,160,9,1,-6,-134,0,-0.9700000000000001,2.2640289913441958,4.204028991344196,-0.5558676188640078,-0.29640589024706343,-7.606285703419535e-05,-0.003080704796684762,0.050256271874175036,9.79325874386542
3.84,0,4,1,53.13010235415599,1249.3903903184587,0.21593784510832847,3.23157480231107,160,9,1,-6,-140,0,-1.0,2.23157480231107,4.23157480231107,-0.5552259428000078,-0.29837710875318546,-7.710041535986464e-05,-0.004215793243972877,0.05242093134161929,9.808688965643881
3.872,0,4,1,53.55555824341289,1302.9459485618715,0.42545588925690225,3.2265569378934815,160,9,1,-6,-146,0,-1.03,2.1965569378934813,4.256556937893482,-0.5545413064125446,-0.3003323071631605,-7.817851824688977e-05,-0.001499801259480783,0.05396675349776664,9.815363096683615
3.904,0,4,1,54.050721677183724,1356.9966702390552,0.49516343377083416,3.2204057561876165,160,9,1,-6,-152,0,-1.06,2.1604057561876164,4.2804057561876165,-0.5538133564492415,-0.30226851493557194,-7.92930102759392e-05,-0.0022238999704465175,0.05581940425258511,9.80560132607021
3.936,0,4,1,54.46232220802562,1411.4589924470808,0.41160053084189485,3.215045320377791,160,9,1,-5,-157,1,-1.0305000000000002,2.184545320377791,4.245545320377791,-0.5530415741574578,-0.30418357642217414,-8.044428337857477e-05,-0.002049901246906628,0.05757127974265309,9.791543219768682
3.968,0,4,1,54.86580694308437,1466.3247993901653,0.40348473505875404,3.2095655234610367,160,9,1,-5,-162,0,-1.06,2.1495655234610367,4.269565523461036,-0.5522253985565635,-0.3060760844846117,-8.090489718701362e-05,-0.002041556916173972,0.05896811929246478,9.766279088090002
4.0,0,4,1,54.86580694308437,1521.1906063332497,0.0,3.2095655234610367,160,9,1,-6,-168,-1,-1.1445,2.065065523461037,4.354065523461037,-0.5513667932192446,-0.30794580224593576,-8.139296228162202e-05,-0.001982884170566653,0.05764252234978009,9.77872808600374
4.032,0,4,1,55.26137471723438,1576.451981050484,0.39556777415000965,3.203980094086971,160,9,1,-5,-173,1,-1.1105,2.093480094086971,4.314480094086971,-0.5504633100782648,-0.3097946852540923,-8.196519392367901e-05,0.001969368312462632,0.05900654457053712,9.815496450967554
4.064,0,4,1,55.45625059223089,1631.9082316427148,0.19487587499650516,3.2011513883574594,160,9,1,-5,-178,0,-1.1400000000000001,2.0611513883574593,4.34115138835746,-0.5495138323387789,-0.31161610416373686,-8.248612586932505e-05,-0.0020338462431769653,0.06366751932773373,9.809929588130293
4.096,0,4,1,55.45625059223089,1687.3644822349456,0.0,3.2011513883574594,160,9,1,-6,-184,-1,-1.2245000000000001,1.9766513883574592,4.425651388357459,-0.5485197471312891,-0.31341149307847127,-8.302874421020102e-05,-0.00017688658853656636,0.062154466238855836,9.807737146567675
4.128,0,4,1,55.369199619742986,1742.7336818546887,-0.08705097248790139,3.202422744020444,160,9,1,-5,-189,1,-1.1905000000000001,2.0119227440204437,4.392922744020444,-0.5474793102671112,-0.3151809574865822,-8.365709365662846e-05,0.002169120780890044,0.06319646007076231,9.787478296079373
4.16,0,4,1,55.369199619742986,1798.1028814744318,0.0,3.202422744020444,160,9,1,-5,-194,0,-1.22,1.9824227440204438,4.4224227440204436,-0.5463897888912099,-0.3169213441210957,-8.423144600141347e-05,0.0024279451127308133,0.06785753165619553,9.824468142649986
4.192,0,4,1,54.8966719676691,1852.999553442101,-0.4725276520738859,3.2091393805798987,160,9,1,-5,-199,0,-1.245,1.9641393805798986,4.454139380579899,-0.545253746477764,-0.31863173633761827,-8.48305570487675e-05,0.0017882306965420868,0.06654154234439372,9.813654227560377
4.224,0,4,1,54.7003919439458,1907.6999453860467,-0.1962800237232969,3.2118375114089437,160,9,1,-5,-204,0,-1.27,1.9418375114089437,4.481837511408944,-0.54406842308344,-0.32031364149729563,-8.544707965373391e-05,0.006078830740613009,0.06841822591709358,9.793384280795053
4.256,0,4,1,54.02312971289068,1961.7230750989374,-0.6772622310551242,3.2207583004378497,160,9,1,-5,-209,0,-1.295,1.9257583004378498,4.51575830043785,-0.5428363434189668,-0.32196113304662943,-8.607886248623853e-05,0.0015616539773809467,0.06936074515949633,9.81659281439326
4.288,0,4,1,53.61564818416412,2015.3387232831017,-0.4074815287265565,3.225825543214272,160,9,1,-5,-214,0,-1.32,1.905825543214272,4.5458255432142725,-0.541582933801019,-0.32353896941908994,-8.672909476857386e-05,-0.03901053694433105,0.0728744039071932,9.839154723776703
4.32,0,4,1,53.13010235415599,2068.468825637258,-0.4855458300081352,3.23157480231107,160,9,1,-3,-217,2,-1.226,2.00557480231107,4.45757480231107,-0.5402963533314318,-0.3250579104614054,-8.740310874295193e-05,-0.021530571492593655,0.07591389194365442,9.856258588873139
4.352,0,4,1,52.70933308003393,2121.178158717292,-0.42076927412205833,3.236298478447972,160,9,1,-2,-219,1,-1.1905000000000001,2.045798478447972,4.426798478447973,-0.5389545077738775,-0.32654110370673894,-8.79479791209628e-05,0.011598574557393979,0.07741822597963186,9.791142053012125
4.384,0,4,1,52.06260267041578,2173.2407613877076,-0.6467304096181508,3.2430982718956147,160,9,1,-2,-221,0,-1.205,2.0380982718956147,4.448098271895615,-0.5375652265945595,-0.32798678052707003,-8.843464761151137e-05,0.00677690996203049,0.07290907631488176,9.808964899136404
4.416,0,4,1,51.620776082314975,2224.8615374700225,-0.44182658810080255,3.247417615928308,160,9,1,-1,-222,1,-1.1555000000000002,2.091917615928308,4.402917615928308,-0.5361320350353239,-0.3293936067984495,-8.891376824102064e-05,0.005176494901883922,0.07147248165527362,9.849724771780764
4.448,0,4,1,50.94151979375276,2275.8030572637754,-0.6792562885622146,3.2535432541239677,160,9,1,-1,-223,0,-1.165,2.0885432541239677,4.418543254123968,-0.5346541366739638,-0.3307613013947604,-8.927335807940376e-05,0.007207330700160644,0.07191077225500718,9.836999152006419
4.48,0,4,1,49.95845091948537,2325.761508183261,-0.9830688742673885,3.2613062976048606,160,9,1,0,-223,1,-1.1105,2.1508062976048605,4.371806297604861,-0.5331360024575414,-0.3320888369673344,-8.959118994364065e-05,0.004853347994965152,0.06979812976759416,9.712505480536471
4.5120000000000005,0,4,1,48.49259316085606,2374.254101344117,-1.465857758629312,3.270421264403934,160,9,1,0,-223,0,-1.115,2.155421264403934,4.385421264403934,-0.5315748846172975,-0.333377849280644,-8.976301437019912e-05,0.00944632185146952,0.0708455265853485,9.882106748196046
4.5440000000000005,0,4,1,47.202598161765806,2421.4566995058826,-1.2899949990902542,3.275979110934449,160,9,1,1,-222,1,-1.0555,2.2204791109344493,4.331479110934449,-0.5299754651052735,-0.3346275500044313,-8.987718008923382e-05,0.00684960981933739,0.06849800952214176,9.816660938870852
4.5760000000000005,0,4,1,45.56726640985794,2467.0239659157405,-1.635331751907863,3.279634342897736,160,9,1,1,-221,0,-1.055,2.224634342897736,4.334634342897736,-0.5283375198726835,-0.33583758290413784,-8.983282747872245e-05,0.0082033429194716,0.06848884611657337,9.798554831054426
4.6080000000000005,0,4,1,44.12754287709797,2511.1515087928383,-1.4397235327599702,3.365066958299731,160,9,1,2,-219,1,-0.9905,2.374566958299731,4.355566958299731,-0.5266675296039706,-0.33700655395749746,-8.972441346363595e-05,0.0035666340538826947,0.06598586507935955,9.848658475233494
4.64,0,4,1,42.614055969611194,2553.7655647624497,-1.5134869074867794,3.503173325335575,160,9,1,3,-216,1,-0.9255000000000001,2.577673325335575,4.428673325335575,-0.5249200995292705,-0.33816514033956013,-8.949340495272885e-05,0.0579768086372658,0.06457076930742489,9.784271563621083
4.672,0,4,1,41.34777721969367,2595.1133419821435,-1.2662787499175252,3.610684500117931,160,9,1,3,-213,0,-0.9149999999999999,2.695684500117931,4.525684500117931,-0.5230681914429397,-0.3393312584090857,-8.916119397477627e-05,0.09101904244202617,0.06259157459632464,9.774534624839227
4.704,0,4,1,39.69267315066882,2634.8060151328123,-1.6551040690248513,3.7418264811416044,160,9,1,3,-210,0,-0.9,2.8418264811416045,4.641826481141605,-0.5211316504820247,-0.34049167289250404,-8.878985829074808e-05,0.0689548527720523,0.06202568911583626,9.85702074607096
4.736,0,4,1,38.30873556744772,2673.11475070026,-1.3839375832210976,3.8445060828139765,160,9,1,3,-207,0,-0.8849999999999999,2.9595060828139768,4.729506082813977,-0.5190965985177715,-0.34165125552176984,-8.83757028086133e-05,0.08383849569387615,0.06323660326506131,9.835816207864433
4.768,0,4,1,36.86989764584401,2709.984648346104,-1.4388379216037066,3.9455326768225967,160,9,1,3,-204,0,-0.87,3.0755326768225966,4.815532676822596,-0.516978385384571,-0.3427980200813828,-8.79093236141465e-05,0.06662191981875196,0.0649130141365023,9.846833426093461
4.8,0,4,1,35.753887254436755,2745.738535600541,-1.1160103914072579,4.020413348586382,160,9,1,4,-200,1,-0.7955000000000001,3.2249133485863823,4.815913348586383,-0.5147778821255424,-0.34392908275670303,-8.739528443436201e-05,0.06517943497056491,0.06599711777579671,9.841873545828838
4.832,0,4,1,34.21570213243741,2779.9542377329785,-1.5381851219993479,4.1193386230042215,160,9,1,3,-197,-1,-0.8394999999999999,3.2798386230042214,4.958838623004222,-0.5125072203634933,-0.34503638885954707,-8.673962507411634e-05,0.05216101666458255,0.06775295752365375,9.801753033406735
4.864,0,4,1,33.02386755579664,2812.978105288775,-1.1918345766407654,4.19304638433589,160,9,1,4,-193,1,-0.7605,3.43254638433589,4.9535463843358905,-0.5101606698139599,-0.34612535858493115,-8.61381828962636e-05,0.06056218956677572,0.0636584106364639,9.79538588683472
4.896,0,4,1,31.798912824294433,2844.7770181130695,-1.2249547315022085,4.2665169762980515,160,9,1,4,-189,0,-0.7450000000000001,3.5215169762980514,5.011516976298052,-0.5077450853501124,-0.3471870766479669,-8.539461654898106e-05,0.051575884185808676,0.06808364643971404,9.807660620953898
4.928,0,4,1,30.5406048496815,2875.317622962751,-1.2583079746129329,4.339928803294204,160,9,1,4,-185,0,-0.7250000000000001,3.614928803294204,5.064928803294205,-0.5052663214714024,-0.3482226318828356,-8.461833694744895e-05,0.04801740893273904,0.06442355738209916,9.802129235840619
4.96,0,4,1,29.24882633654698,2904.5664492992983,-1.2917785131345205,4.4134673294980225,160,9,1,4,-181,0,-0.7050000000000001,3.7084673294980224,5.1184673294980225,-0.5027246457577742,-0.3492310759399774,-8.380547943158748e-05,0.04809266459623835,0.06464949020010781,9.88361632902454
4.992,0,4,1,27.923589715138373,2932.4900390144367,-1.3252366214086067,4.487341320305189,160,9,1,4,-177,0,-0.685,3.8023413203051892,5.17234132030519,-0.5001206088474517,-0.35021175820320566,-8.296260455484608e-05,0.04839561138215001,0.06428713655906912,9.826377821343595
5.024,0,4,1,27.02158159117705,2959.5116206056136,-0.9020081239613233,4.536885666549905,160,9,1,4,-173,0,-0.665,3.871885666549905,5.201885666549905,-0.4974456691009782,-0.35116745338770733,-8.209702840954528e-05,0.05798846742548787,0.06454728726667093,9.840097711508314
5.056,0,4,1,25.641005824305285,2985.152626429919,-1.3805757668717646,4.611824293778742,160,9,1,3,-170,-1,-0.7044999999999999,3.9073242937787422,5.316324293778742,-0.4947044347213822,-0.3520971038099072,-8.121808721730205e-05,0.054078266416633075,0.06281965580704028,9.789790120584021
5.088,0,4,1,24.702430227771313,3009.8550566576905,-0.9385755965339726,4.662311779000834,160,9,1,4,-166,1,-0.6255000000000002,4.036811779000834,5.287811779000835,-0.4919033814875745,-0.3530005177770064,-8.04318321436584e-05,0.048493235539569864,0.06081981030568804,9.787042925448024
5.12,0,4,1,23.26770481005697,3033.1227614677473,-1.4347254177143434,4.739046251688796,160,9,1,3,-163,-1,-0.6695,4.069546251688796,5.408546251688796,-0.48905801288944717,-0.35386847924465975,-7.954760659619788e-05,0.03192631650191934,0.06472731005861096,9.847078224327017
5.152,0,4,1,22.293629159694085,3055.416390627441,-0.9740756503628845,4.791006603323376,160,9,1,4,-159,1,-0.5905,4.200506603323376,5.381506603323375,-0.4861528729919069,-0.35471008049705266,-7.877590274595059e-05,0.04932936124533748,0.05996346018252109,9.80574411305573
5.184,0,4,1,21.305783617828766,3076.72217424527,-0.9878455418653189,4.84372742247341,160,9,1,4,-155,0,-0.575,4.26872742247341,5.4187274224734105,-0.4832038649938041,-0.3555161505376769,-7.791947734099927e-05,0.03273471686226531,0.06425319493366333,9.81518896584018
5.216,0,4,1,20.304473709960448,3097.02664795523,-1.0013099078683183,4.897317877337974,160,9,1,4,-151,0,-0.5549999999999999,4.342317877337974,5.452317877337974,-0.48021171157021175,-0.3562913378064794,-7.709113635208202e-05,0.033761226419677624,0.05970863400528531,9.84185720092243
5.248,0,4,1,19.290046219188728,3116.316694174419,-1.0144274907717197,4.951896852666751,160,9,1,4,-147,0,-0.5349999999999999,4.416896852666751,5.486896852666751,-0.4771764662658808,-0.3570357931008916,-7.628553119096333e-05,0.0340751635546211,0.05879317107497847,9.861699296692128
5.28,0,4,1,18.262889942194125,3134.579584116613,-1.027156276994603,5.007593001934974,160,9,1,4,-143,0,-0.5149999999999999,4.492593001934974,5.522593001934974,-0.4740980988879854,-0.3577500386153061,-7.550630225597495e-05,0.03498062888895377,0.05823103043583204,9.863749122538147
5.312,0,4,1,17.744671625056924,3152.32425574167,-0.518218317137201,5.035903115432742,160,9,1,4,-139,0,-0.49500000000000005,4.540903115432742,5.530903115432742,-0.4709764745855233,-0.3584346479673845,-7.475676258494011e-05,0.035710385016987235,0.05671794653986739,9.76196562490102
5.344,0,4,1,16.699244233993618,3169.023499975664,-1.0454273910633063,5.093540962357318,160,9,1,4,-135,0,-0.47500000000000003,4.618540962357319,5.568540962357318,-0.4678292588613197,-0.3590864735131326,-7.404719172997461e-05,0.018529489115435924,0.05615148495161528,9.790974545059417
5.376,0,4,1,16.17215901578257,3185.1956589914466,-0.5270852182110488,5.122908774330808,160,9,1,5,-130,1,-0.3955,4.727408774330808,5.518408774330808,-0.4646386914033103,-0.3597101047374659,-7.337319198149651e-05,0.03653069558466544,0.05469330408422467,9.832413470329662
5.408,0,4,1,15.109575122340447,3200.3052341137873,-1.0625838934421221,5.182847707968271,160,9,1,4,-126,-1,-0.4345,4.748347707968271,5.617347707968271,-0.4614237454000555,-0.36030272720752865,-7.265677847209141e-05,0.018273262411687988,0.05373411037211694,9.81146540698659
5.44,0,4,1,14.574216198038746,3214.879450311826,-0.5353589243017005,5.213465200980499,160,9,1,5,-121,1,-0.3505,4.862965200980499,5.563965200980499,-0.45816499286644136,-0.3608735113183005,-7.207029967028558e-05,0.03877578474943614,0.04779058833390635,9.793726742206042
5.472,0,4,1,13.495733280795811,3228.375183592622,-1.078482917242935,5.276118264105919,160,9,1,4,-117,-1,-0.38949999999999996,4.886618264105919,5.665618264105919,-0.45488207288179133,-0.3614153225808307,-7.144445281207466e-05,0.018866003194643148,0.05086567582611071,9.805602138754107
5.5040000000000004,0,4,1,12.95276451337554,3241.327948105997,-0.5429687674202714,5.3082052579305765,160,9,1,4,-113,0,-0.36500000000000005,4.943205257930576,5.673205257930577,-0.45155436470686017,-0.36193762693041276,-7.094842051312208e-05,0.04061679021169502,0.0447268103368163,9.855095950866827
5.5360000000000005,0,4,1,12.407418527400745,3253.735366633398,-0.5453459859747944,5.3408386412503175,160,9,1,4,-109,0,-0.34500000000000003,4.995838641250318,5.685838641250317,-0.4482016243984217,-0.36243351226378445,-7.049965712473648e-05,0.020731260564994945,0.048006820627153585,9.829353865660467
5.5680000000000005,0,4,1,11.859779120947966,3265.595145754346,-0.5476394064527792,5.374047857621811,160,9,1,4,-105,0,-0.325,5.049047857621811,5.699047857621811,-0.4448238753216999,-0.3629045234271079,-7.010311949133367e-05,0.02114885682426541,0.046006931155101155,9.850858362542903
5.6000000000000005,0,4,1,11.309932474020227,3276.905078228366,-0.5498466469277385,5.40786162681162,160,9,1,5,-100,1,-0.2455,5.16236162681162,5.65336162681162,-0.4414211220688638,-0.36335188919113326,-6.975633739040449e-05,0.021414578486053604,0.0440621876435948,9.83333414283543
5.632,0,4,1,10.757967088390043,3287.6630453167563,-0.5519653856301847,5.442316345653184,160,9,1,4,-96,-1,-0.2845,5.157816345653185,5.726816345653184,-0.43799410273065176,-0.3637768656808921,-6.938833680021801e-05,0.021045366806232983,0.04264392559174397,9.818818033113685
5.664,0,4,1,10.203973721731703,3297.8670190384883,-0.5539933666583394,5.477446571130509,160,9,1,4,-92,0,-0.26,5.217446571130509,5.7374465711305085,-0.4345415821997881,-0.3641857719168612,-6.914227596216405e-05,0.023126660039040705,0.03602602982255342,9.84964312810552
5.696,0,4,1,9.648045316098152,3307.5150643545862,-0.5559284056335514,5.513285433885829,160,9,1,4,-88,0,-0.24,5.273285433885829,5.7532854338858295,-0.43106386579186573,-0.3645750343182724,-6.88779227883702e-05,0.02256895297832746,0.03885445576787277,9.777871032806383
5.728,0,4,1,9.090276920822312,3316.6053412754086,-0.5577683952758399,5.54987562742334,160,9,1,3,-85,-1,-0.27949999999999997,5.27037562742334,5.82937562742334,-0.4275606723129834,-0.3649463776245992,-6.85604225470187e-05,0.02335019164782435,0.03682724998179936,9.800128639347694
5.76,0,4,1,9.090276920822312,3325.695618196231,0.0,5.54987562742334,160,9,1,4,-81,1,-0.2005,5.34937562742334,5.75037562742334,-0.42403095804605473,-0.3653012143574403,-6.828799589681661e-05,0.024906798040507584,0.034669052224020926,9.830061933070027
5.792,0,4,1,7.969610394321354,3333.6652285905525,-1.1206665265009583,5.6254744406460215,160,9,1,3,-78,-1,-0.2445,5.380974440646021,5.869974440646022,-0.4204993926962526,-0.3656335748514326,-6.793879378414608e-05,0.00045619840733491406,0.03742810778259522,9.81793418559773
5.824,0,4,1,7.969610394321354,3341.634838984874,0.0,5.6254744406460215,160,9,1,4,-74,1,-0.16549999999999998,5.459974440646022,5.790974440646021,-0.4169169289925971,-0.3659545729645507,-6.762815362717362e-05,0.0497408309858265,0.030218063751701562,9.838989423321195
5.856,0,4,1,7.406912128495223,3349.041751113369,-0.562698265826131,5.664570104644827,160,9,1,3,-71,-1,-0.20949999999999996,5.455070104644827,5.874070104644828,-0.4133293274498258,-0.36625604377600207,-6.728817981005615e-05,0.005142217606950163,0.0338412851977524,9.791605609617754
5.888,0,4,1,7.406912128495223,3356.4486632418643,0.0,5.664570104644827,160,9,1,3,-68,0,-0.19,5.474570104644827,5.854570104644828,-0.40971570612779273,-0.36654697628778454,-6.700698774783631e-05,0.026754269197655434,0.02611876549889161,9.835284680649988
5.92,0,4,1,6.842773412630916,3363.291436654495,-0.5641387158643063,5.704596124854936,160,9,1,3,-65,0,-0.175,5.529596124854936,5.8795961248549355,-0.4061007718127444,-0.36682125664876875,-6.67489184602698e-05,0.002547149707543344,0.029588346736621834,9.767316269746658
5.952,0,4,1,6.842773412630916,3370.134210067126,0.0,5.704596124854936,160,9,1,3,-62,0,-0.15999999999999998,5.544596124854936,5.864596124854936,-0.402459181726812,-0.36708236301871133,-6.648290913888188e-05,0.028182701191295928,0.0271708282618461,9.797439547130146
5.984,0,4,1,5.710593137499568,3375.8448032046254,-1.132180275131348,5.787647729296528,160,9,1,2,-60,-1,-0.2045,5.5831477292965275,5.992147729296528,-0.3988166272309501,-0.3673295636267553,-6.625065565001031e-05,0.003377534418439384,0.025930204704495603,9.74887764337762
6.016,0,4,1,5.710593137499568,3381.555396342125,0.0,5.787647729296528,160,9,1,3,-57,1,-0.1305,5.657147729296528,5.918147729296527,-0.39512013421503894,-0.3675674956151832,-6.606645614523621e-05,0.06601320818140419,0.023815291787793794,9.800011919743604
6.048,0,4,1,5.142764557884225,3386.698160900009,-0.5678285796153437,5.830783204987616,160,9,1,2,-55,-1,-0.17950000000000002,5.651283204987616,6.010283204987616,-0.39142262847331666,-0.3677882204348883,-6.581704283660159e-05,0.012547649274477799,0.027970200045405243,9.803573013000175
6.08,0,4,1,5.710593137499568,3392.4087540375085,0.5678285796153437,5.787647729296528,160,9,1,3,-52,1,-0.10549999999999998,5.682147729296528,5.893147729296528,-0.3876969163849184,-0.3680003738173054,-6.566960545912638e-05,0.038493202648838515,0.020493332845548898,9.801954175208433
6.112,0,4,1,4.573921259900898,3396.9826752974095,-1.1366718775986708,5.875075771441796,160,9,1,2,-50,-1,-0.1545,5.720575771441796,6.029575771441795,-0.38399800734607675,-0.36819614778481224,-6.5515080167243e-05,-0.02310570392443285,0.02482990171734328,9.796601653352669
6.144,0,4,1,4.573921259900898,3401.5565965573105,0.0,5.875075771441796,160,9,1,2,-48,0,-0.13999999999999999,5.735075771441796,6.015075771441795,-0.3802427679097125,-0.36838659554672265,-6.539947935434685e-05,0.0622827692070258,0.017502099492803493,9.848720760284957
6.176,0,4,1,4.004172940709389,3405.56076949802,-0.5697483191915085,5.920591547727139,160,9,1,2,-46,0,-0.13,5.790591547727139,6.050591547727139,-0.3764868893622279,-0.3685641144185394,-6.527775592237231e-05,0.007513212509871678,0.02214519788036449,9.848510428740731
6.208,0,4,1,4.573921259900898,3410.134690757921,0.5697483191915085,5.875075771441796,160,9,1,3,-43,1,-0.06049999999999998,5.814575771441795,5.935575771441796,-0.372701382648417,-0.36873130136345544,-6.515633578596004e-05,0.036039188754253326,0.020232847711145474,9.82144749565332
6.24,0,4,1,4.004172940709389,3414.1388636986303,-0.5697483191915085,5.920591547727139,160,9,1,2,-41,-1,-0.10950000000000001,5.811091547727139,6.030091547727139,-0.3689445813021354,-0.36888646073495235,-6.503428316823393e-05,-0.026994773714147678,0.0191772866272938,9.822260019677188
6.272,0,4,1,3.4336303624506144,3417.5724940610808,-0.5705425782587747,5.967401045967872,160,9,1,2,-39,0,-0.095,5.872401045967872,6.062401045967872,-0.36515847466198914,-0.3690384268239426,-6.494745204648107e-05,0.029080672732425587,0.01251957289951497,9.786259377615181
6.304,0,4,1,3.4336303624506144,3421.006124423531,0.0,5.967401045967872,160,9,1,2,-37,0,-0.08499999999999999,5.882401045967872,6.052401045967872,-0.3613420801210035,-0.36918248458255815,-6.485404476359348e-05,0.0356254363669095,0.01674392765436797,9.786765788380283
6.336,0,4,1,3.4336303624506144,3424.4397547859817,0.0,5.967401045967872,160,9,1,2,-35,0,-0.07500000000000001,5.892401045967872,6.042401045967872,-0.3575253972641569,-0.36931868090750397,-6.475676323223177e-05,0.011135749846655262,0.015222479739295712,9.798541801432489
6.368,0,4,1,2.862405226111651,3427.3021600120933,-0.5712251363389633,6.01557734440487,160,9,1,1,-34,-1,-0.12450000000000001,5.89107734440487,6.140077344404871,-0.3537084743968113,-0.36944789817780527,-6.465205045080684e-05,0.010761803258350248,0.01400295459785846,9.846276688238643
6.4,0,4,1,2.862405226111651,3430.164565238205,0.0,6.01557734440487,160,9,1,2,-32,1,-0.0555,5.96007734440487,6.071077344404871,-0.3498605012211202,-0.36957200333218465,-6.457859198479021e-05,0.040812877192447326,0.012773963826058056,9.821094028957967
6.432,0,4,1,2.2906100426385936,3432.4551752808434,-0.5717951834730575,6.065199984865566,160,9,1,1,-31,-1,-0.1095,5.955699984865566,6.1746999848655655,-0.34601220385181536,-0.36968522154560635,-6.450833416352629e-05,0.00976478981460833,0.017159738864415307,9.785861813635645
6.464,0,4,1,2.862405226111651,3435.317580506955,0.5717951834730575,6.01557734440487,160,9,1,2,-29,1,-0.04049999999999999,5.975077344404871,6.05607734440487,-0.34213200989137665,-0.36979490804317877,-6.444903519715363e-05,0.04096929235991703,0.010414998270820255,9.834239025865827
6.496,0,4,1,2.2906100426385936,3437.6081905495935,-0.5717951834730575,6.065199984865566,160,9,1,1,-28,-1,-0.09450000000000001,5.970699984865566,6.159699984865566,-0.3382833246758641,-0.36989412520430404,-6.440200686092142e-05,-0.027796970975792906,0.015247785031619755,9.826533129660012
6.5280000000000005,0,4,1,2.2906100426385936,3439.898800592232,0.0,6.065199984865566,160,9,1,2,-26,1,-0.0255,6.039699984865566,6.090699984865566,-0.33440279623978986,-0.36999108106109024,-6.437340961096445e-05,0.033321837416107246,0.008476253094556598,9.805529738971376
6.5600000000000005,0,4,1,2.862405226111651,3442.7612058183436,0.5717951834730575,6.01557734440487,160,9,1,3,-23,1,0.039500000000000014,6.055077344404871,5.97607734440487,-0.3305220945780711,-0.37007974532910237,-6.43231697316296e-05,0.001478780486426928,0.013419179052167192,9.806349991644037
6.5920000000000005,0,4,1,2.2906100426385936,3445.051815860982,-0.5717951834730575,6.065199984865566,160,9,1,1,-22,-2,-0.06899999999999999,5.996199984865566,6.134199984865566,-0.3266731350634265,-0.3701659571208659,-6.425352626812306e-05,-0.03678091341021094,0.006725136361934248,9.783179343702264
6.6240000000000006,0,4,1,2.2906100426385936,3447.3424259036206,0.0,6.065199984865566,160,9,1,1,-21,0,-0.05499999999999999,6.010199984865566,6.1201999848655655,-0.32279249639846647,-0.37025739134874586,-6.422841872177378e-05,0.02465390560580429,0.0003321680763151857,9.79719875987799
6.656000000000001,0,4,1,2.2906100426385936,3449.633035946259,0.0,6.065199984865566,160,9,1,1,-20,0,-0.05,6.015199984865566,6.115199984865566,-0.3189117108944529,-0.37034281833924565,-6.419952558306755e-05,-0.006654146783779655,0.010275459894190937,9.800813313896196
6.688,0,4,1,2.2906100426385936,3451.9236459888975,0.0,6.065199984865566,160,9,1,1,-19,0,-0.045,6.020199984865566,6.110199984865566,-0.3150308204158698,-0.37042348140547837,-6.417279366984635e-05,-0.006539316370559862,0.008704967160067887,9.785259473846208
6.72,0,4,1,2.2906100426385936,3454.214256031536,0.0,6.065199984865566,160,9,1,1,-18,0,-0.039999999999999994,6.025199984865566,6.105199984865566,-0.3111498408525738,-0.370499796149431,-6.414908543363185e-05,-0.0060206544090456865,0.007962999127090347,9.843365922711813
6.752,0,4,1,1.7183580016555007,3455.9326140331914,-0.5722520409830929,6.116357855429741,160,9,1,0,-18,-1,-0.0945,6.021857855429741,6.210857855429741,-0.3072687866915037,-0.3705721995487395,-6.412841337448925e-05,-0.0051602960077434925,0.007273859147080907,9.84048274684854
6.784,0,4,1,1.7183580016555007,3457.6509720348467,0.0,6.116357855429741,160,9,1,1,-17,1,-0.030500000000000003,6.085857855429741,6.146857855429741,-0.3033549197114929,-0.37064173404019624,-6.412394435342458e-05,0.034644261983518894,0.006485913623793349,9.82750548175516
6.816,0,4,1,1.7183580016555007,3459.369330036502,0.0,6.116357855429741,160,9,1,1,-16,0,-0.03,6.086357855429741,6.146357855429741,-0.29944090757262326,-0.37070247800562345,-6.409980332380827e-05,0.010028706985065314,0.011600468414508316,9.76833794302118
6.848,0,4,1,1.7183580016555007,3461.0876880381575,0.0,6.116357855429741,160,9,1,1,-15,0,-0.024999999999999994,6.091357855429741,6.141357855429741,-0.295526864172621,-0.37076061969140517,-6.406983429916614e-05,0.01689101645827322,0.0053606808030672234,9.754129573701034
6.88,0,4,1,1.7183580016555007,3462.806046039813,0.0,6.116357855429741,160,9,1,1,-14,0,-0.020000000000000004,6.0963578554297415,6.136357855429741,-0.2916127926865874,-0.3708162359544272,-6.403422840738603e-05,0.01604569835592236,0.0051769913951018875,9.781604687821474
6.912,0,4,1,1.1457628381751443,3463.951808877988,-0.5725951634803563,6.169143233402604,160,9,1,0,-14,-1,-0.07450000000000001,6.0946432334026035,6.243643233402604,-0.2876986965419672,-0.3708698222838813,-6.403476972835151e-05,0.01415441030162862,0.004626012604723025,9.845091001220013
6.944,0,4,1,1.7183580016555007,3465.670166879643,0.5725951634803563,6.116357855429741,160,9,1,1,-13,1,-0.010499999999999999,6.105857855429741,6.1268578554297415,-0.28375079069916365,-0.37092226894369146,-6.402208878170633e-05,0.04656427473819447,0.00403468473534671,9.823102859218796
6.976,0,4,1,1.1457628381751443,3466.815929717818,-0.5725951634803563,6.169143233402604,160,9,1,0,-13,-1,-0.0695,6.099643233402604,6.238643233402604,-0.27983658340070333,-0.3709674537176181,-6.403545229304898e-05,-0.026943218262138566,0.009161053449703938,9.810538361827719
7.008,0,4,1,1.1457628381751443,3467.961692555993,0.0,6.169143233402604,160,9,1,1,-12,1,-0.005499999999999995,6.163643233402604,6.174643233402604,-0.27588857919103427,-0.37101233988465965,-6.404292788176127e-05,0.03744094868655985,0.0030141004972150543,9.797332759856141
7.04,0,4,1,1.1457628381751443,3469.107455394168,0.0,6.169143233402604,160,9,1,1,-11,0,-0.0049999999999999975,6.164143233402604,6.174143233402604,-0.2719405171468623,-0.3710508081536704,-6.40385753106279e-05,0.0026642657873254187,0.008635645713659743,9.803865513264412
7.072,0,4,1,1.1457628381751443,3470.253218232343,0.0,6.169143233402604,160,9,1,0,-11,-1,-0.0595,6.109643233402604,6.228643233402604,-0.26799245680505246,-0.37108907005689035,-6.403364270734374e-05,0.0006902714192676494,0.002489025663200437,9.823349898368207
7.104,0,4,1,1.1457628381751443,3471.398981070518,0.0,6.169143233402604,160,9,1,1,-10,1,0.0045,6.173643233402604,6.164643233402604,-0.2640443884886243,-0.3711271780393338,-6.403657831534001e-05,-0.0013231395664885163,0.0023657102912079007,9.815684242667036
7.136,0,4,1,0.5729386976839008,3471.971919768202,-0.5728241404912435,6.223655143819362,160,9,1,0,-10,-1,-0.0545,6.169155143819362,6.278155143819362,-0.26009627731066265,-0.37115979965231166,-6.402758488173975e-05,-0.0032581170103842673,0.007518013200497077,9.76169097347473
7.168,0,4,1,1.1457628381751443,3473.117682606377,0.5728241404912435,6.169143233402604,160,9,1,1,-9,1,0.009500000000000005,6.178643233402604,6.159643233402604,-0.25611327979357656,-0.3711934719633347,-6.403004280797729e-05,0.036208136197760754,0.001276094246784324,9.83783393962157
