Time,SetPointAngle,SensorAngleRow,SensorAngleWidth,Angle,IntegralAngle,DeltaAngle,BaseSpeed,SetPointError,SensorErrorRow,SensorErrorWidth,Error,IntegralError,DeltaError,DeltaSpeed,LeftSpeed,RightSpeed,X,Y,Z,Roll,Pitch,Yaw
0.032,0,4,1,9.1805419576262,9.1805419576262,9.1805419576262,5.811792360161064,160,9,1,2,2,2,0.18299999999999997,5.994792360161064,5.628792360161064,-0.4973879999999996,0.18556899999999787,-6.396505846564468e-05,2.0868937111807938e-07,1.8490637654919146e-07,9.779363044771253
0.064,0,4,1,10.864059922087714,20.044601879713916,1.6835179644615135,5.735113485931153,160,9,1,-5,-3,-7,-0.4605,5.2746134859311535,6.195613485931153,-0.49417660814697234,0.18742021787910854,-2.189283742420889e-05,4.35301553856221,0.012974106330169613,9.589926924911683
0.096,0,4,1,9.743641287037166,29.78824316675108,-1.120418635050548,5.793938354283192,160,9,1,-2,-5,3,-0.1605,5.633438354283192,5.954438354283192,-0.49101917180814364,0.1892378941161449,-6.0961543306592425e-05,0.3023586261927428,0.0007971891811246522,9.700832410181883
0.128,0,4,1,9.272601777200324,39.0608449439514,-0.4710395098368423,5.81684095064982,160,9,1,-1,-6,1,-0.111,5.70584095064982,5.92784095064982,-0.48782167575051083,0.19111763950938457,-7.650776785438594e-05,0.05409603101689553,0.03769974808684306,9.861187501784025
0.16,0,4,1,9.1805419576262,48.2413869015776,-0.09205981957412313,5.821064961938264,160,9,1,-3,-9,-2,-0.3105,5.510564961938264,6.131564961938264,-0.4846189964917942,0.19301589961412893,-6.96752019175885e-05,0.18674310278985898,0.016497929829065314,9.846697401386056
0.192,0,4,1,9.1805419576262,57.4219288592038,0.0,5.82097290211869,160,9,1,-1,-10,2,-0.132,5.6889729021186906,5.95297290211869,-0.4814362553188749,0.19491617286679316,-6.972903488542889e-05,0.06775882664669804,0.013637880472711075,9.795785486409073
0.224,0,4,1,8.702223789946824,66.12415264915063,-0.47831816767937596,5.845367128670338,160,9,1,-2,-12,-1,-0.249,5.596367128670338,6.094367128670338,-0.47825221305539023,0.19685088297297373,-6.970592438932006e-05,0.01084248873214371,0.03158996919362216,9.816585014796095
0.256,0,4,1,8.130102354156005,74.25425500330664,-0.5721214357908195,5.874067003727991,160,9,1,-2,-14,0,-0.255,5.6190670037279915,6.129067003727991,-0.47506038846151877,0.1988028528937267,-6.826852858883223e-05,-0.08040290012594259,0.0142656749915592,9.791852058142515
0.28800000000000003,0,4,1,7.556344056439443,81.81059905974608,-0.5737582977165623,5.902756555475745,160,9,1,-2,-16,0,-0.27,5.632756555475744,6.172756555475745,-0.47186421130913897,0.20078271678801676,-6.763978104385414e-05,-0.06037664877833473,0.025854017110356033,9.7886238216272
0.32,0,4,1,6.981057406829782,88.79165646657586,-0.5752866496096605,5.931522416308121,160,9,1,-1,-17,1,-0.1935,5.73802241630812,6.125022416308121,-0.4686644586612925,0.20279158371131603,-6.770304977670068e-05,-0.03560451464991309,0.027280266790620088,9.775273500597791
0.352,0,4,1,5.767888897914106,94.55954536448996,-1.2131685089156763,5.992818723613211,160,9,1,-1,-18,0,-0.21000000000000002,5.782818723613211,6.202818723613211,-0.46546229962095603,0.20483069903183967,-6.772317843917706e-05,-0.00429677311126438,0.02973018971668007,9.859892348122182
0.384,0,4,1,2.9207215210003468,97.48026688549031,-2.847167376913759,6.136811091326897,160,9,1,-3,-21,-2,-0.40049999999999997,5.736311091326897,6.28,-0.4622362731353933,0.2069051484572761,-6.759942339915233e-05,0.056562864720029166,0.023079469846013684,9.80374217554085
0.41600000000000004,0,4,1,1.7534048600716274,99.23367174556194,-1.1673166609287193,6.193497073657348,160,9,1,-2,-23,1,-0.3135,5.879997073657347,6.28,-0.459011982444526,0.2090004865837814,-6.73394586462768e-05,0.0254416346417793,0.025430537948958946,9.87828013133507
0.448,0,4,1,0.5846305207048678,99.8183022662668,-1.1687743393667596,6.251937248304124,160,9,1,-2,-25,0,-0.3375,5.914437248304123,6.28,-0.45576242620683827,0.21114090259519216,-6.72179179504219e-05,0.05806752722410687,0.03158252107817011,9.75242010059074
0.48,0,4,1,1.735704588928346,101.55400685519514,1.1510740682234784,6.192063696485359,160,9,1,-4,-29,-2,-0.5355,5.656563696485359,6.28,-0.4525132951388252,0.21330172989527166,-6.71136626172273e-05,0.02180747552930922,0.026155010015305964,9.735750824270688
0.512,0,4,1,2.3137224978242195,103.86772935301936,0.5780179088958735,6.163735857199893,160,9,1,-2,-31,2,-0.36449999999999994,5.799235857199894,6.28,-0.44934125363694105,0.21542995920207153,-6.714624719302183e-05,-0.08821230353293324,0.02596867882329958,9.744483156199932
0.544,0,4,1,2.9207215210003468,106.7884508740197,0.6069990231761273,6.133356924926806,160,9,1,0,-31,2,-0.2145,5.918856924926806,6.28,-0.4461466889032251,0.2176061839053703,-6.703890361136645e-05,0.03767580689239231,0.036967576321845844,9.852182487098052
0.5760000000000001,0,4,1,2.3373058591238247,109.12575673314353,-0.583415661876522,6.163718122705685,160,9,1,2,-29,2,-0.0495,6.114218122705685,6.213218122705685,-0.4429325268969475,0.2198212477127773,-6.693269100498979e-05,0.0389443844023295,0.031073262308771794,9.814007248509563
0.608,0,4,1,1.1573330681298035,110.28308980127333,-1.1799727909940212,6.223313319384504,160,9,1,4,-25,2,0.13049999999999998,6.28,6.092813319384504,-0.4396935432767798,0.22207211887718575,-6.664504123563182e-05,0.05794023385861148,0.02613300787978164,9.845607210880923
0.64,0,4,1,0.5787255656079755,110.86181536688132,-0.578607502521828,6.251642329222124,160,9,1,4,-21,0,0.1425,6.28,6.109142329222124,-0.4364450301723273,0.2243337167041498,-6.614898943247023e-05,0.029018722132321397,0.0148289211563214,9.802411206836815
0.672,0,4,1,1.7534048600716274,112.61522022695294,1.174679294463652,6.191155077701955,160,9,1,5,-16,1,0.264,6.28,5.927155077701955,-0.43318552995770737,0.22658913848502946,-6.57883726081672e-05,0.01823898635850275,0.000366647836214856,9.78893540991219
0.704,0,4,1,4.085616779974888,116.70083700692783,2.3322119199032607,6.073386949081353,160,9,1,4,-12,-1,0.20099999999999998,6.274386949081353,5.872386949081354,-0.42996684257085555,0.22880315007239488,-6.541991076302288e-05,-0.05789740278856745,-4.177712654838068e-05,9.826808754146557
0.736,0,4,1,8.702223789946824,125.40306079687466,4.616607009971936,5.840272203492687,160,9,1,3,-9,-1,0.14849999999999997,5.988772203492688,5.691772203492687,-0.4267536146102012,0.2309912050140091,-6.50904082695452e-05,-0.03878708568926365,-0.008175433946095323,9.793322384436285
0.768,0,4,1,14.858614447924657,140.2616752447993,6.156390657977832,5.5309128869457895,160,9,1,2,-7,-1,0.08850000000000001,5.619412886945789,5.44241288694579,-0.4236526777711324,0.2330789876707628,-6.474454951801469e-05,-0.16431283425158932,-0.012073603311337376,9.82399681668025
0.8,0,4,1,22.70284212321281,162.9645173680121,7.844227675288154,5.137013666164072,160,9,1,2,-5,0,0.11249999999999999,5.249513666164072,5.024513666164072,-0.42070844731010615,0.23504467267753298,-6.456172801681988e-05,-0.21109914800454366,-0.007655860519408647,9.871453458462005
0.8320000000000001,0,4,1,29.494955817687707,192.4594731856998,6.792113694474896,4.79846009542114,160,9,1,1,-4,-1,0.036,4.834460095421139,4.76246009542114,-0.4179697947948007,0.23686415995365848,-6.43851083016421e-05,-0.26473620944740656,-0.003237775417686798,9.841651896114788
0.864,0,4,1,35.26301172959725,227.72248491529706,5.768055911909546,4.511081357608228,160,9,1,0,-4,-1,-0.039,4.472081357608229,4.550081357608228,-0.41540708148430927,0.23855662573905706,-6.425222288235569e-05,-0.22917947841744776,-0.00532720401172736,9.817692340875846
0.896,0,4,1,40.3141001604973,268.03658507579433,5.051088430900045,4.2592439035442355,160,9,1,-1,-5,-1,-0.12149999999999998,4.137743903544235,4.380743903544236,-0.4129969735771581,0.24014599935303327,-6.412679389419633e-05,-0.19659380039957972,0.00040955136817802097,9.797929620029855
0.928,0,4,1,44.706178065349285,312.7427631411436,4.392077904851988,4.040299018827684,160,9,1,0,-5,1,-0.028499999999999998,4.011799018827684,4.068799018827685,-0.41072324201401317,0.24164935651692848,-6.39828439863814e-05,-0.17403868051560167,0.004930461755051826,9.803150392016532
0.96,0,4,1,47.489552921999156,360.2323160631428,2.7833748566498713,3.902738979043393,160,9,1,-2,-7,-2,-0.22049999999999997,3.682238979043393,4.123238979043393,-0.40857099893005117,0.24308255421713487,-6.390290409607167e-05,-0.1517174255314263,0.009102573983989734,9.804525385222112
0.992,0,4,1,50.527540151656176,410.75985621479896,3.03798722965702,3.750585005187534,160,9,1,-1,-8,1,-0.126,3.624585005187534,3.876585005187534,-0.4064932592659862,0.24446880577890703,-6.38083828481354e-05,-0.0999911620479325,0.0023901673749203074,9.814747303590634
1.024,0,4,1,52.34429928950268,463.1041555043016,1.8167591378465033,3.6609682763870195,160,9,1,-3,-11,-2,-0.3255,3.3354682763870196,3.9864682763870194,-0.40450398458076425,0.24581232663812708,-6.376345069873147e-05,-0.10933105979048541,0.013427442011581638,9.865831168484206
1.056,0,4,1,53.82037955202106,516.9245350563227,1.47608026251838,3.587504942136429,160,9,1,-3,-14,0,-0.32999999999999996,3.257504942136429,3.917504942136429,-0.4025662595141747,0.24712991978595214,-6.374046993141286e-05,-0.07006921272382322,0.0070722701813152366,9.76509615019878
1.088,0,4,1,54.30205471129882,571.2265897676216,0.4816751592777635,3.5644155892757814,160,9,1,-7,-21,-4,-0.7185,2.8459155892757813,4.282915589275781,-0.4006776759528979,0.24843643543993568,-6.37841834593162e-05,-0.05944013555699242,0.018070150562168097,9.856084603357408
1.12,0,4,1,54.502194003616594,625.7287837712382,0.20013929231777183,3.5546901605268526,160,9,1,-7,-28,0,-0.735,2.8196901605268527,4.2896901605268525,-0.3988109994813456,0.2497497640412609,-6.39306324572049e-05,-0.027657138569664914,0.017523803751736986,9.83329524025071
1.1520000000000001,0,4,1,53.895856969663306,679.6246407409016,-0.6063370339532881,3.5858134885507877,160,9,1,-11,-39,-4,-1.1535,2.432313488550788,4.7393134885507875,-0.3969716523363175,0.25109252049754,-6.428030436797343e-05,-0.018329906774914778,0.03886458145396166,9.845981080914488
1.184,0,4,1,53.48160579402933,733.1062465349308,-0.4142511756339786,3.6063339614741676,160,9,1,-11,-50,0,-1.2,2.406333961474168,4.806333961474167,-0.3951384370663379,0.25248064982733265,-6.503480228947298e-05,0.013442896777653953,0.03904420631806341,9.841317158732483
1.216,0,4,1,52.1250163489018,785.2312628838326,-1.3565894451275256,3.6751057720000375,160,9,1,-12,-62,-1,-1.3739999999999997,2.301105772000038,5.049105772000037,-0.3933323242072633,0.25392916534660065,-6.631961126829164e-05,0.016088863157779562,0.06335138968106088,9.813800496337636
1.248,0,4,1,50.76263288659845,835.9938957704311,-1.3623834623033488,3.743230739132381,160,9,1,-13,-75,-1,-1.5465,2.196730739132381,5.289730739132381,-0.3915331109082696,0.25545930804994355,-6.835714142034398e-05,0.06256792909612223,0.06581630665980533,9.801288902613999
1.28,0,4,1,49.06631877480598,885.060214545237,-1.696314111792475,3.8283803753714936,160,9,1,-11,-86,2,-1.452,2.3763803753714936,5.280380375371493,-0.38975374075134966,0.2570791274271769,-7.134125553389693e-05,0.05805388390698509,0.08008043756672098,9.792615329600872
1.312,0,4,1,47.24574256589507,932.3059571111321,-1.8205762089109072,3.9195334479141573,160,9,1,-10,-96,1,-1.461,2.4585334479141574,5.380533447914157,-0.38799171853991743,0.2588016052194353,-7.528696021064443e-05,0.06796974498032739,0.08830283541137281,9.80837635028311
1.344,0,4,1,45.29083902235055,977.5967961334827,-1.9549035435445177,4.0174129524260165,160,9,1,-10,-106,0,-1.545,2.4724129524260166,5.562412952426016,-0.3862486775602512,0.26062490883922407,-8.012340514066893e-05,0.06351590137941508,0.08783041911280917,9.769131213083067
1.3760000000000001,0,4,1,43.5159853243379,1021.1127814578206,-1.774853698012656,4.105975587481119,160,9,1,-7,-113,3,-1.3455000000000001,2.7604755874811184,5.451475587481119,-0.3845263771646025,0.2625529666544441,-8.584184434611876e-05,0.06360200121790101,0.0922716483826582,9.755565198404335
1.408,0,4,1,42.24457529949724,1063.3573567573178,-1.2714100248406552,4.169042645049979,160,9,1,-11,-124,-4,-1.791,2.378042645049979,5.960042645049979,-0.3831486252258959,0.2642209556031718,-8.78659456543529e-05,-0.4105671263149529,0.11175662880459404,9.815082979455873
1.44,0,4,1,42.21483357788564,1105.5721903352035,-0.02974172161160027,4.16928806282733,160,9,1,-26,-150,-15,-3.21,0.9592880628273299,6.28,-0.3825062785242262,0.26497149196497105,-9.070952439318644e-05,-1.1479925293899138,-0.022419187268442654,9.841675388447882
1.472,0,4,1,42.510447078000844,1148.0826374132043,0.29561350011520204,4.154182032599842,160,9,1,-32,-182,-6,-3.8189999999999995,0.3351820325998429,6.28,-0.38224458890913027,0.26527893003646885,-9.42102470469601e-05,-0.5722188203286596,0.012279877868476712,9.807814333463089
1.504,0,4,1,42.80942613596177,1190.892063549166,0.2989790579609277,4.139229714143951,160,9,1,-34,-216,-2,-4.188,-0.04877028585604837,6.28,-0.3821552148903464,0.26539648071911665,-9.651869654003255e-05,-0.2511158486735087,0.020901644846403063,9.81131414714223
1.536,0,4,1,41.889159346509224,1232.7812228956752,-0.9202667894525476,4.186462299463991,160,9,1,-25,-241,9,-3.6015,0.5849622994639909,6.28,-0.3818078076874805,0.2658116604582214,-9.730841269256496e-05,0.38440184407225225,0.008720583257880415,9.809873894959313
1.568,0,4,1,39.97592474146046,1272.7571476371356,-1.913234605048764,4.283116997532026,160,9,1,-2,-243,23,-1.7654999999999998,2.5176169975320257,6.048616997532026,-0.3805174856571949,0.2673681744251658,-9.676858842675232e-05,1.4434670982472744,-0.07895126914174101,9.818087269697003
1.6,0,4,1,39.92039213998544,1312.6775397771212,-0.05553260147502215,4.284035925602203,160,9,1,7,-236,9,-1.1640000000000001,3.120035925602203,5.448035925602204,-0.3789800621627815,0.2695262954684627,-9.586553989086172e-05,0.6249858812834054,0.13548106475472793,9.799745188689311
1.6320000000000001,0,4,1,40.20986927763678,1352.8874090547579,0.289477137651339,4.26921705898051,160,9,1,11,-225,4,-0.8265,3.4427170589805094,5.09571705898051,-0.3775241098535018,0.2717830308810171,-9.548751921395308e-05,0.04066245426026071,0.1335865145713083,9.777849113668953
1.6640000000000001,0,4,1,40.64892204842611,1393.536331103184,0.43905277078933125,4.247114844807905,160,9,1,12,-213,1,-0.6885,3.5586148448079054,4.935614844807906,-0.37613177273811493,0.2740861529536683,-9.529032814773082e-05,0.00795875766439451,0.09257845091372162,9.828057943071094
1.696,0,4,1,42.24457529949724,1435.7809064026812,1.595653251071134,4.166175581774067,160,9,1,12,-201,0,-0.6074999999999999,3.558675581774067,4.773675581774067,-0.3748022623722788,0.2764076821170425,-9.498500292531506e-05,-0.01417419044323698,0.07934245312688304,9.807031363287129
1.728,0,4,1,43.5159853243379,1479.296891727019,1.2714100248406552,4.102929323758265,160,9,1,11,-190,-1,-0.6090000000000001,3.493929323758265,4.711929323758265,-0.3735350920100882,0.2787068228534054,-9.434676301287026e-05,-0.04821494692961128,0.06054601088999047,9.857663313732191
1.76,0,4,1,45.872457122902034,1525.169348849921,2.3564717985641366,3.9840206720563343,160,9,1,11,-179,0,-0.5175000000000001,3.466520672056334,4.501520672056334,-0.3723079740705615,0.2809863639605997,-9.344013588134283e-05,-0.034794418781653916,0.04354366006671022,9.83468034321062
1.792,0,4,1,47.51381023617775,1572.6831590860988,1.6413531132757129,3.902668135077837,160,9,1,9,-170,-2,-0.618,3.2846681350778373,4.5206681350778375,-0.37114598645771013,0.283219144583364,-9.208622560531905e-05,-0.06886417149922874,0.05402476212378451,9.792170728941858
1.824,0,4,1,48.81407483429036,1621.4972339203891,1.3002645981126122,3.837995993687369,160,9,1,8,-162,-1,-0.6239999999999999,3.2139959936873694,4.461995993687369,-0.37003683361178735,0.28541349677568184,-9.071474664209753e-05,-0.056376064292056806,0.04788480576033102,9.817208919026923
1.856,0,4,1,50.57863625539339,1672.0758701757825,1.764561421103032,3.7493036258092274,160,9,1,7,-155,-1,-0.6464999999999999,3.1028036258092273,4.3958036258092275,-0.36896678437015934,0.2876088107672107,-8.923287733439596e-05,-0.01545895877660389,0.05301972367286174,9.80368261937839
1.8880000000000001,0,4,1,52.18853714273665,1724.264407318519,1.609900887343258,3.6689632419758245,160,9,1,8,-147,1,-0.49350000000000005,3.1754632419758244,4.162463241975825,-0.3679511904843245,0.28976843043805045,-8.773847917535084e-05,-0.05372247622144975,0.05170788994330325,9.777778952089928
1.92,0,4,1,53.27139868797445,1777.5358060064934,1.0828615452377974,3.61534720405604,160,9,1,6,-141,-2,-0.6255,2.9898472040560398,4.24084720405604,-0.3669881275143847,0.29189547336961397,-8.603933166645428e-05,-0.05006312614705931,0.050995739545576624,9.81523697676018
1.952,0,4,1,53.82037955202106,1831.3561855585144,0.5489808640466123,3.5884320415349005,160,9,1,5,-136,-1,-0.654,2.9344320415349006,4.242432041534901,-0.36606152114158347,0.2940035506015883,-8.461602737772078e-05,-0.031011639281357705,0.04218768024765434,9.80669473899545
1.984,0,4,1,54.42278061353508,1885.7789661720494,0.6024010615140227,3.558258568261732,160,9,1,4,-132,-1,-0.699,2.859258568261732,4.257258568261732,-0.3651711373410812,0.2961100476524214,-8.332882711034259e-05,-0.014937695505485685,0.04823121782321005,9.818027740082664
2.016,0,4,1,55.00797980144134,1940.7869459734907,0.5851991879062552,3.529015810740027,160,9,1,5,-127,1,-0.5685,2.960515810740027,4.097515810740027,-0.3643191309635234,0.2982131966629407,-8.221618895072787e-05,-0.01683299541803297,0.04905609312860242,9.813359457007035
2.048,0,4,1,54.619727799698865,1995.4066737731896,-0.38825200174247243,3.5494018620167993,160,9,1,0,-127,-5,-0.9975,2.5519018620167992,4.546901862016799,-0.3635075728056964,0.3003124254715144,-8.108517148442893e-05,-0.017511651081592715,0.05005604826643819,9.743674208350072
2.08,0,4,1,54.814786672052264,2050.221460445242,0.1950588723533997,3.5390656075250333,160,9,1,3,-124,3,-0.6779999999999999,2.8610656075250334,4.217065607525033,-0.36271777685784234,0.30243809795005905,-8.056975183498571e-05,0.01718591543970679,0.04279471686508973,9.802892380438282
2.112,0,4,1,54.814786672052264,2105.0362471172944,0.0,3.5392606663973867,160,9,1,1,-123,-2,-0.8655,2.6737606663973867,4.404760666397387,-0.3619799893978847,0.3045744497640069,-7.983669588331604e-05,-0.006279076151183544,0.06493375215825244,9.78644707970135
2.144,0,4,1,54.619727799698865,2159.6559749169933,-0.1950588723533997,3.54920866888741,160,9,1,0,-123,-1,-0.9315,2.61770866888741,4.48070866888741,-0.3612750192228667,0.3067240738092639,-7.945157365519054e-05,0.0027851317017321027,0.04751614146533551,9.759648662933225
2.176,0,4,1,53.615648184164115,2213.2716231011573,-1.0040796155347493,3.600221670407329,160,9,1,-3,-126,-3,-1.1969999999999998,2.403221670407329,4.797221670407329,-0.36061115298187396,0.3088947001093686,-7.926045972366479e-05,0.008507881126789523,0.057147463796398075,9.789536466517436
2.208,0,4,1,52.77642919490952,2266.048052296067,-0.8392189892545971,3.642017759243779,160,9,1,-3,-129,0,-1.1925,2.449517759243779,4.834517759243779,-0.3599848643778176,0.31111367709950494,-7.947754258394446e-05,0.036370870305663654,0.060074839011690306,9.810335826334597
2.24,0,4,1,51.45398659035337,2317.5020388864205,-1.3224426045561515,3.708623113086888,160,9,1,-5,-134,-2,-1.398,2.310623113086888,5.106623113086888,-0.3594140760015873,0.3133765743379364,-7.985002667320641e-05,0.02967256899064882,0.07521587898023546,9.807840686911742
2.2720000000000002,0,4,1,49.31602751986562,2366.818066406286,-2.137959070487746,3.8163365830772067,160,9,1,-6,-140,-1,-1.509,2.307336583077207,5.325336583077206,-0.3588965151636679,0.3156998731934214,-8.065643154272877e-05,0.04786638393762204,0.07500578851326574,9.791523292009883
2.3040000000000003,0,4,1,47.51381023617775,2414.331876642464,-1.8022172836878738,3.906111705474801,160,9,1,-5,-145,1,-1.4535,2.452611705474801,5.359611705474801,-0.35844152488225717,0.31810970264829663,-8.185301425307073e-05,0.07376915604780941,0.08669606384244014,9.782719142593608
2.336,0,4,1,45.57872556560777,2459.910602208072,-1.935084670569978,4.002998806390182,160,9,1,-5,-150,0,-1.5,2.502998806390182,5.502998806390182,-0.3580624709858,0.32059160144916515,-8.328890074399929e-05,0.06036638080361188,0.09641464096556011,9.781867140907101
2.368,0,4,1,43.80651057601798,2503.7171127840897,-1.7722149895897914,4.091446686188691,160,9,1,-5,-155,0,-1.5374999999999999,2.5539466861886915,5.628946686188691,-0.35777444830439664,0.32303227850571403,-8.508201846903381e-05,-0.04868948229435196,0.09898125036164009,9.780999792142362
2.4,0,4,1,42.87890360333855,2546.5960163874283,-0.9276069726794276,4.136982426805751,160,9,1,-11,-166,-6,-2.1239999999999997,2.0129824268057517,6.260982426805751,-0.3576279989725771,0.32481087914408174,-8.715767669642029e-05,-0.6575346116642357,0.09322274336324184,9.818553928720627
2.432,0,4,1,42.24457529949724,2588.8405916869256,-0.6343283038413077,4.16840556332898,160,9,1,-18,-184,-7,-2.7929999999999997,1.3754055633289801,6.28,-0.3575407660785388,0.3260058548658493,-9.02240373648576e-05,-0.5710673955892706,0.020069454330866827,9.787836999406032
2.464,0,4,1,42.21483357788564,2631.055425264811,-0.02974172161160027,4.16928806282733,160,9,1,-23,-207,-5,-3.3225,0.8467880628273301,6.28,-0.3574802685673197,0.32682541484097655,-9.3097064207728e-05,-0.36786747961752103,0.007912069092210084,9.856456445926963
2.496,0,4,1,42.21483357788564,2673.270258842697,0.0,4.169258321105718,160,9,1,-26,-233,-3,-3.7245,0.4447583211057182,6.28,-0.35744459393885686,0.32733513379493645,-9.510756825272665e-05,-0.3070972269342323,0.012047753224198696,9.82831131211924
2.528,0,4,1,41.56013030625398,2714.830389148951,-0.6547032716316608,4.202648187958934,160,9,1,-28,-261,-2,-4.0755,0.1271481879589338,6.28,-0.35742472659741253,0.32765040327888084,-9.59814388034972e-05,-0.1913082386420781,0.014240554185593139,9.803097248504095
2.56,0,4,1,40.2625566519899,2755.092945800941,-1.2975736542640846,4.268169741054769,160,9,1,-10,-271,18,-2.6205,1.6476697410547692,6.28,-0.3572640306145405,0.3293552902430059,-9.576319122355133e-05,1.3716588561751997,-0.0651614279643426,9.852654282455518
2.592,0,4,1,39.57477363157967,2794.6677194325207,-0.6877830204102295,4.301949101441427,160,9,1,5,-266,15,-1.4849999999999999,2.8169491014414274,5.786949101441428,-0.3571725647828179,0.33187269071333414,-9.483231025788144e-05,0.7969930487067066,0.07407973013885724,9.818727309896909
2.624,0,4,1,38.516926307102764,2833.1846457396236,-1.0578473244769029,4.3552115319693385,160,9,1,10,-256,5,-1.125,3.2302115319693385,5.4802115319693385,-0.3572284533593366,0.3346410756084457,-9.432484295528003e-05,0.2526753049532756,0.14788067163421348,9.797353384974684
2.656,0,4,1,37.79394299861673,2870.9785887382404,-0.722983308486036,4.3910258333776495,160,9,1,7,-249,-3,-1.3694999999999997,3.02152583337765,5.760525833377649,-0.35736577577195383,0.3369996181175135,-9.439955093479974e-05,-0.3949108051384075,0.11795810433706236,9.818888451949663
2.688,0,4,1,37.79394299861673,2908.772531736857,0.0,4.390302850069164,160,9,1,2,-247,-5,-1.7475,2.6428028500691636,6.137802850069164,-0.35749988111101244,0.3389289209510445,-9.52675123720801e-05,-0.41738112044057146,0.0371340564413825,9.832555410218236
2.72,0,4,1,37.79394299861673,2946.566474735474,0.0,4.390302850069164,160,9,1,-4,-251,-6,-2.2364999999999995,2.153802850069164,6.28,-0.35760958839710577,0.34049795096028584,-9.661854110062061e-05,-0.3531588621740043,0.012040656452730258,9.793593426927838
2.7520000000000002,0,4,1,37.79394299861673,2984.360417734091,0.0,4.390302850069164,160,9,1,-9,-260,-5,-2.67,1.7203028500691637,6.28,-0.35769259893791167,0.3417863747098425,-9.77128374469588e-05,-0.2763601820993434,0.0053737036445060974,9.78901198330254
2.7840000000000003,0,4,1,37.79394299861673,3022.1543607327076,0.0,4.390302850069164,160,9,1,-12,-272,-3,-2.967,1.4233028500691636,6.28,-0.35775781945655627,0.34288733256542403,-9.799468763114702e-05,-0.18430439770584578,0.00950647022866132,9.840520234419193
2.816,0,4,1,37.0565281894096,3059.210888922117,-0.7374148092071309,4.427911005338728,160,9,1,-7,-279,5,-2.5725,1.8554110053387278,6.28,-0.3578456562969754,0.3445118451194162,-9.735627589019247e-05,0.5131413592762948,0.001624627950623989,9.770782248872466
2.848,0,4,1,35.53767779197439,3094.748566714092,-1.5188503974352088,4.5046349607987155,160,9,1,5,-274,12,-1.5719999999999996,2.932634960798716,6.076634960798716,-0.358042495493138,0.3471061190813684,-9.606029515134631e-05,0.9541335581623968,0.005611958067421815,9.80473005695345
2.88,0,4,1,34.359380297589425,3129.107947011681,-1.1782974943849638,4.563209282614914,160,9,1,11,-263,6,-1.0935,3.4697092826149145,5.656709282614914,-0.3584130463473518,0.3499742750281392,-9.478659518568841e-05,0.2911777346846758,0.14094850467011746,9.7914656482685
2.912,0,4,1,33.82616175818528,3162.9341087698663,-0.533218539404146,4.58922513063014,160,9,1,14,-249,3,-0.7904999999999999,3.7987251306301406,5.37972513063014,-0.3589017937931267,0.35286276728239335,-9.390819667933967e-05,0.0412160402131816,0.12611181655376405,9.805085673508174
2.944,0,4,1,33.00310069207643,3195.9372094619425,-0.8230610661088491,4.6306680264622875,160,9,1,15,-234,1,-0.6209999999999999,4.009668026462288,5.251668026462287,-0.35945481429413645,0.35572093406177835,-9.315732375154984e-05,-0.015908682884741076,0.08375564592460412,9.8275666103158
2.976,0,4,1,32.16439051359856,3228.101599975541,-0.8387101784778679,4.67261918449855,160,9,1,14,-220,-1,-0.6089999999999999,4.06361918449855,5.28161918449855,-0.36006801596677906,0.3586020476312987,-9.228479002863083e-05,0.03516809963544603,0.06919906925745066,9.837046390378289
3.008,0,4,1,31.309950382534495,3259.4115503580756,-0.8544401310640666,4.715356921004339,160,9,1,12,-208,-2,-0.6780000000000002,4.037356921004339,5.393356921004339,-0.3607271688954992,0.36149905838223784,-9.130455729767367e-05,0.025845710523673467,0.05760576171005962,9.813200881912772
3.04,0,4,1,29.74488129694223,3289.156431655018,-1.5650690855922669,4.794321004238482,160,9,1,11,-197,-1,-0.6615000000000001,4.132821004238481,5.455821004238482,-0.36143118142242453,0.36440718472157596,-9.028421590737482e-05,0.021609243437186645,0.05849477724456067,9.79138887016685
3.072,0,4,1,28.40524643347077,3317.561678088489,-1.3396348634714599,4.861077313189933,160,9,1,10,-187,-1,-0.6614999999999999,4.199577313189933,5.522577313189934,-0.36219310789752374,0.3673526474287269,-8.908220633443292e-05,0.049854924464160934,0.06462746700685888,9.860203731294215
3.104,0,4,1,27.492836951539683,3345.0545150400285,-0.9124094819310855,4.906270561904948,160,9,1,10,-177,0,-0.5774999999999999,4.328770561904948,5.483770561904947,-0.3630110332723766,0.37032621344451905,-8.77409874333341e-05,0.041861417984244156,0.0650004418152087,9.744974569488617
3.136,0,4,1,26.565051177077994,3371.6195662171067,-0.9277857744616895,4.952675226920562,160,9,1,9,-168,-1,-0.5940000000000001,4.358675226920561,5.546675226920562,-0.36388381455982516,0.37331886872911324,-8.614657298637238e-05,0.03373326933306019,0.06646559099281224,9.763132586898006
3.168,0,4,1,25.144785630678935,3396.7643518477857,-1.420265546399058,5.024180984012452,160,9,1,8,-160,-1,-0.609,4.415180984012452,5.633180984012452,-0.3648042861493629,0.3763259691184774,-8.452848809402218e-05,0.027927416776482347,0.060876327079740285,9.789117345768842
3.2,0,4,1,23.198590513648202,3419.9629423614338,-1.946195117030733,5.12201666943462,160,9,1,7,-153,-1,-0.6315,4.49051666943462,5.75351666943462,-0.3657796692100044,0.3793617347882818,-8.292902545036125e-05,0.04366721666710684,0.06370837645122972,9.80438690245704
3.232,0,4,1,21.700536739317474,3441.6634791007514,-1.498053774330728,5.196471216808457,160,9,1,7,-146,0,-0.57,4.626471216808457,5.7664712168084575,-0.36681783976712,0.38244031769157966,-8.13975242595702e-05,0.06023706492317935,0.06540437135388052,9.832538227050254
3.2640000000000002,0,4,1,20.684080267946797,3462.347559368698,-1.0164564713706774,5.246812443074031,160,9,1,7,-139,0,-0.5175,4.729312443074031,5.764312443074031,-0.36792689306201143,0.38557304766127337,-7.982483312524331e-05,0.07374583889891168,0.06891165403037988,9.78334374047274
3.2960000000000003,0,4,1,18.610164727827343,3480.9577240965255,-2.0739155401194544,5.351565679148752,160,9,1,5,-134,-2,-0.6479999999999999,4.703565679148753,5.999565679148752,-0.3690865387565358,0.38872184915717894,-7.82634853303335e-05,0.03224266366394483,0.06259885100477149,9.81540885264895
3.3280000000000003,0,4,1,17.5535448263399,3498.5112689228654,-1.0566199014874442,5.403379378584493,160,9,1,6,-128,1,-0.501,4.9023793785844925,5.904379378584493,-0.370306377502737,0.39192067694761684,-7.703011007326004e-05,0.0677873279565089,0.05901663157706933,9.814256869222909
3.36,0,4,1,15.945395900922858,3514.4566648237883,-1.6081489254170407,5.4843383538792745,160,9,1,6,-122,0,-0.46499999999999997,5.019338353879275,5.949338353879274,-0.37158492828205797,0.39513210706379864,-7.567523063625216e-05,0.033272000006502975,0.07087918718258027,9.787693201574353
3.392,0,4,1,14.311041262606391,3528.767706086395,-1.6343546383164664,5.566082291507997,160,9,1,5,-117,-1,-0.5115,5.054582291507997,6.077582291507997,-0.3729185517765835,0.3983771609658497,-7.43917223184256e-05,0.05111398783950729,0.05941797253035547,9.772295678569085
3.424,0,4,1,11.534620653644708,3540.3023267400395,-2.7764206089616827,5.706045387926727,160,9,1,4,-113,-1,-0.5564999999999999,5.149545387926727,6.2625453879267265,-0.37430585719508563,0.40165692546829684,-7.331548546505445e-05,0.05256925886068014,0.05713937577570362,9.750942274083085
3.456,0,4,1,9.841131759634363,3550.1434584996737,-1.6934888940103452,5.789636900912292,160,9,1,5,-108,1,-0.42599999999999993,5.363636900912292,6.215636900912292,-0.3757664684914063,0.40500322140318107,-7.241665386761506e-05,0.08879896748184642,0.060881717291328755,9.827642579393176
3.488,0,4,1,8.130102354156005,3558.2735608538296,-1.7110294054783584,5.8752059116976785,160,9,1,5,-103,0,-0.39749999999999996,5.4777059116976785,6.272705911697678,-0.37729067338383415,0.4083795840252628,-7.142435614501674e-05,0.05261364142640464,0.06734355170873944,9.834636365756579
3.52,0,4,1,6.340191745909908,3564.6137525997397,-1.789910608246097,5.964780323312751,160,9,1,6,-97,1,-0.26849999999999996,5.696280323312751,6.233280323312751,-0.37886937160422873,0.41179116183437764,-7.049918872970712e-05,0.0537147189334911,0.056116811987815304,9.795070813602013
3.552,0,4,1,3.503531644784471,3568.117284244524,-2.836660101125437,6.107660077861902,160,9,1,5,-92,-1,-0.32399999999999995,5.783660077861902,6.28,-0.3805017908583812,0.41524036334225595,-6.948488549373029e-05,0.056132698805549684,0.05456960800852228,9.800872640530944
3.584,0,4,1,1.169139327907133,3569.286423572431,-2.334392316877338,6.223877425921521,160,9,1,4,-88,-1,-0.36899999999999994,5.854877425921521,6.28,-0.382171926772123,0.4187190553660709,-6.858349776323394e-05,0.04209657791334592,0.043466448762206414,9.803747598034743
3.616,0,4,1,0.5787255656079755,3569.8651491380388,-0.5904137622991574,6.251654135481901,160,9,1,5,-83,1,-0.23849999999999993,6.0131541354819005,6.28,-0.383869804595906,0.42220965578979974,-6.781166783710081e-05,0.022629090764531075,0.04181534375106753,9.834338665497771
3.648,0,4,1,3.503531644784471,3573.368680782823,2.9248060791764954,6.1018986116816,160,9,1,4,-79,-1,-0.30150000000000005,5.8003986116816,6.28,-0.38560494217710756,0.42573838186152047,-6.712168145920488e-05,0.04969265019256524,0.03828433769515811,9.83262861144679
3.68,0,4,1,6.340191745909908,3579.708872528733,2.836660101125437,5.96015375260338,160,9,1,5,-74,1,-0.17099999999999993,5.789153752603379,6.13115375260338,-0.3873189311299141,0.42920213902576626,-6.683716830912893e-05,-0.0658622024466272,0.03136917069590419,9.791318530412397
3.712,0,4,1,8.130102354156005,3587.838974882889,1.789910608246097,5.871704971683954,160,9,1,7,-67,2,0.04050000000000008,5.912204971683954,5.831204971683954,-0.38902884174289415,0.4326114147012034,-6.664583403055355e-05,-0.049277314774112034,0.04084388228651496,9.816590815981659
3.744,0,4,1,10.40771131249005,3598.246686195379,2.2776089583340458,5.7573368254171635,160,9,1,7,-60,0,0.07500000000000007,5.832336825417164,5.682336825417163,-0.3907250774817344,0.4359662445922667,-6.609802441548927e-05,-0.05386151137357149,0.03127652139233899,9.837854296519204
3.7760000000000002,0,4,1,13.20792846277913,3611.454614658158,2.800217150289079,5.6168033597107545,160,9,1,6,-54,-1,0.03599999999999998,5.652803359710754,5.580803359710755,-0.39238266405688993,0.4392585153762755,-6.553861810221044e-05,-0.07332338246534417,0.011383766291664753,9.82316959639534
3.8080000000000003,0,4,1,15.004920382860202,3626.459535041018,1.796991920081073,5.527956988936909,160,9,1,8,-46,2,0.273,5.800956988936909,5.254956988936909,-0.39399187508571326,0.44247422617620824,-6.5088436670864e-05,-0.09007011473818016,0.007149291808631053,9.793207123306056
3.84,0,4,1,17.02052561151984,3643.480060652538,2.0156052286596378,5.426958114195349,160,9,1,7,-39,-1,0.22350000000000003,5.650458114195349,5.2034581141953495,-0.39557136557551753,0.4456414063493284,-6.459532168454421e-05,-0.05890921117360013,0.009012326480623584,9.80878091788749
3.872,0,4,1,18.610164727827343,3662.0902253803656,1.5896391163075023,5.347902124492325,160,9,1,8,-31,1,0.3765,5.724402124492325,4.971402124492325,-0.39709996919043467,0.44876163830048205,-6.432001182239515e-05,-0.06870894306301695,-0.012651672153785069,9.815221313453023
3.904,0,4,1,20.684080267946797,3682.7743056483123,2.0739155401194544,5.243722071062541,160,9,1,7,-24,-1,0.336,5.579722071062541,4.90772207106254,-0.39858884611390044,0.45184509587907495,-6.421147160635618e-05,-0.0563443243161327,-0.009810735447945085,9.805500207469143
3.936,0,4,1,23.198590513648202,3705.9728961619603,2.5145102457014055,5.117555964071888,160,9,1,6,-18,-1,0.30599999999999994,5.4235559640718884,4.811555964071888,-0.4000204137837839,0.4548820231993592,-6.432044855171973e-05,-0.07399561901803282,-0.02405311386680547,9.791379790463123
3.968,0,4,1,24.66381471246356,3730.636710874424,1.4652241988153563,5.045344040178007,160,9,1,7,-11,1,0.4515,5.496844040178007,4.5938440401780065,-0.4013931135729435,0.4578570956910185,-6.458299184545352e-05,-0.08945399033544135,-0.022046185107140168,9.765437987516844
4.0,0,4,1,26.79608129397346,3757.4327921683976,2.132266581509903,4.938063668719817,160,9,1,6,-5,-1,0.40349999999999997,5.341563668719817,4.534563668719817,-0.4027252265360409,0.4607999605551418,-6.50690140246487e-05,-0.05700430968056695,-0.02054442330175888,9.778538127281163
4.032,0,4,1,27.950969027890196,3785.3837611962877,1.154887733916734,4.881296660871573,160,9,1,7,2,1,0.549,5.430296660871574,4.332296660871573,-0.4039979063788456,0.4636941687602537,-6.561120252210513e-05,-0.07999328800360897,-0.03352989420039179,9.815485272635526
4.064,0,4,1,28.85566121971652,3814.2394224160043,0.9046921918263244,4.836312246822348,160,9,1,7,9,0,0.5925,5.428812246822348,4.243812246822348,-0.4052291825098819,0.46656708282041454,-6.638482516648815e-05,-0.049634011263061315,-0.03066868431438846,9.809652327958995
4.096,0,4,1,30.364271000160343,3844.603693416165,1.5086097804438232,4.760277840211539,160,9,1,6,15,-1,0.5535,5.3137778402115385,4.206777840211539,-0.4064124208399179,0.4694293425121568,-6.728664292120386e-05,-0.03944126598969163,-0.04299821806058702,9.807643800742204
4.128,0,4,1,31.049657186622614,3875.653350602787,0.6853861864622708,4.726831754482407,160,9,1,7,22,1,0.699,5.425831754482407,4.027831754482407,-0.4075377116833019,0.47226254108524557,-6.820873585222827e-05,-0.057102270070730245,-0.04713390155955212,9.787534349480438
4.16,0,4,1,32.47119229084849,3908.124542893636,1.4215351042258781,4.65501885035335,160,9,1,5,27,-2,0.5595,5.2145188503533495,4.09551885035335,-0.408619209400534,0.4750903528759189,-6.939669575897582e-05,-0.027969676892353867,-0.044972547536418786,9.824183555945185
4.192,0,4,1,33.959059819676284,3942.0836027133123,1.4878675288277918,4.580559141487359,160,9,1,6,33,1,0.7065,5.287059141487359,3.8740591414873586,-0.40963845669039367,0.477892205090867,-7.038443434204816e-05,-0.05075604162265921,-0.057073103533905004,9.813875570018867
4.224,0,4,1,35.53767779197439,3977.621280505287,1.5786179722981046,4.501537492428982,160,9,1,5,38,-1,0.6509999999999999,5.152537492428982,3.850537492428982,-0.4106061825138625,0.4806618739924343,-7.158678587763229e-05,-0.05043870374289473,-0.0475248721354426,9.793207958241743
4.256,0,4,1,36.68235075589361,4014.3036312611807,1.14467296391922,4.4447377892414,160,9,1,5,43,0,0.6975,5.1422377892414,3.7472377892414004,-0.41151255088822736,0.48339939458447817,-7.264778118654808e-05,-0.05104099895965871,-0.058030608042063135,9.81675592395984
4.288,0,4,1,37.87498365109821,4052.178614912279,1.1926328952046035,4.3850581845498855,160,9,1,5,48,0,0.735,5.120058184549886,3.6500581845498856,-0.41236719746082784,0.4861155887993077,-7.374247084620568e-05,-0.03608177810890007,-0.054314814962391496,9.839164648544049
4.32,0,4,1,39.22567409733672,4091.4042890096157,1.3506904462385094,4.317365604686926,160,9,1,6,54,1,0.864,5.181365604686926,3.453365604686926,-0.4131675121075158,0.488808812228582,-7.482444936329595e-05,-0.03629317581129844,-0.057697298121642884,9.85632162402601
4.352,0,4,1,40.93663400706695,4132.340923016683,1.710959909730228,4.231457339736923,160,9,1,5,59,-1,0.8085,5.039957339736922,3.422957339736923,-0.413910809526417,0.4914721531074273,-7.521295134739307e-05,-0.04271785116289999,-0.060050374961782324,9.791717163176958
4.384,0,4,1,43.5159853243379,4175.85690834102,2.579351317270948,4.101621382465835,160,9,1,2,61,-3,0.5804999999999999,4.6821213824658345,3.521121382465835,-0.4145870246623134,0.49409568092860157,-7.555902562318521e-05,-0.05323458876126593,-0.0684220109633295,9.808955948167437
4.416,0,4,1,46.134421630977,4221.991329971997,2.6184363066391043,3.9706604821445106,160,9,1,4,65,2,0.8055,4.776160482144511,3.1651604821445107,-0.4151947757541532,0.49664703586734543,-7.561507032056818e-05,-0.08416930256419218,-0.06364272792235225,9.85001196048111
4.448,0,4,1,48.52561519717446,4270.516945169172,2.391193566197458,3.8513280465750794,160,9,1,2,67,-2,0.6345,4.4858280465750795,3.2168280465750794,-0.4157510550453779,0.49912594635123886,-7.598981442067873e-05,-0.08012011162877834,-0.04881500825475613,9.836603356225153
4.48,0,4,1,50.0502284248328,4320.567173594005,1.5246132276583424,3.7759639655307016,160,9,1,3,70,1,0.759,4.534963965530702,3.0169639655307017,-0.4162460120527643,0.5015368447243288,-7.610507552950792e-05,-0.0770813626669784,-0.06022057795373526,9.712729970791898
4.5120000000000005,0,4,1,51.512423029287845,4372.079596623293,1.4621946044550427,3.702916653931153,160,9,1,2,72,-1,0.681,4.383916653931153,3.021916653931153,-0.41669765260083635,0.5039078395670551,-7.637480558250753e-05,-0.04600248489254936,-0.04949715199814461,9.881844823435012
4.5440000000000005,0,4,1,52.98486621525659,4425.064462838549,1.4724431859687428,3.629284246051202,160,9,1,2,74,0,0.705,4.334284246051202,2.9242842460512017,-0.4171002579582199,0.5062382971316289,-7.650815295885162e-05,-0.04696264381616955,-0.05546079568281868,9.816760251311296
4.5760000000000005,0,4,1,54.050721677183724,4479.115184515733,1.0658554619271357,3.5763980606788865,160,9,1,2,76,0,0.72,4.296398060678887,2.8563980606788864,-0.41745957528664934,0.508527646674686,-7.665223937984751e-05,-0.046066636262227526,-0.050127796633712716,9.798421425272858
4.6080000000000005,0,4,1,55.634760938740314,4534.749945454473,1.5840392615565904,3.496677913801428,160,9,1,2,78,0,0.735,4.231677913801428,2.761677913801428,-0.41777749822778465,0.5107888686516113,-7.679327917304093e-05,-0.03264805563457017,-0.05047449696196867,9.848627594217898
4.64,0,4,1,57.346420668726836,4592.0963661232,1.711659729986522,3.4109673068336717,160,9,1,1,79,-1,0.6585,4.069467306833672,2.7524673068336716,-0.4180519104166909,0.5130037691291391,-7.693343201477937e-05,-0.0496082832176585,-0.050688381767275144,9.784181202903097
4.672,0,4,1,57.709388136255775,4649.805754259456,0.3629674675289394,3.3941676257196827,160,9,1,3,82,2,0.858,4.252167625719682,2.5361676257196826,-0.41828308453759905,0.5151660001526317,-7.696552553484136e-05,-0.055424201729837475,-0.05056307716125298,9.774568868594148
4.704,0,4,1,58.52316065041602,4708.328914909872,0.8137725141602417,3.353028194965039,160,9,1,2,84,-1,0.771,4.124028194965039,2.582028194965039,-0.4184809527385266,0.5173236849849299,-7.722091845885695e-05,-0.0071192936619021594,-0.045168312300775726,9.856800184712993
4.736,0,4,1,59.484733560322965,4767.8136484701945,0.9615729099069483,3.304801749073945,160,9,1,3,87,1,0.8865,4.191301749073945,2.418301749073945,-0.41863402517834275,0.5194553264994456,-7.736007873633544e-05,-0.02808350204637667,-0.05503499860798058,9.835916250830156
4.768,0,4,1,60.09406282503658,4827.907711295231,0.6093292647136153,3.2746875294834576,160,9,1,3,90,0,0.8999999999999999,4.174687529483458,2.3746875294834577,-0.4187466363823239,0.521569494094692,-7.762635898532488e-05,-0.01884513552507775,-0.05123610095477819,9.846695859558436
4.8,0,4,1,75,4902.907711295231,14.90593717496342,2.5150940628250367,160,9,1,2,92,-1,0.831,3.3460940628250366,1.6840940628250367,-0.41881593581878174,0.5236665539938988,-7.790525414968011e-05,-0.017620299494120632,-0.054190880732374,9.84185330245583
4.832,0,4,1,75,4977.907711295231,0,2.5300000000000002,160,9,1,1,93,-1,0.7635,3.2935000000000003,1.7665000000000002,-0.4188340786812597,0.5252780171477737,-7.744087967993807e-05,-0.47421159792559514,-0.06128386535419127,9.802313721175876
4.864,0,4,1,75,5052.907711295231,0,2.5300000000000002,160,9,1,1,94,0,0.7799999999999999,3.31,1.7500000000000004,-0.4188231212440802,0.5268985120563666,-7.731836457343551e-05,0.007696807952156795,-0.03909696105368558,9.795166790544346
4.896,0,4,1,75,5127.907711295231,0,2.5300000000000002,160,9,1,2,96,1,0.879,3.4090000000000003,1.6510000000000002,-0.41878447518645673,0.5285184359230223,-7.718227592050722e-05,-0.0014590640645061315,-0.0372239429734452,9.807608036087785
4.928,0,4,1,75,5202.907711295231,0,2.5300000000000002,160,9,1,1,97,-1,0.7934999999999999,3.3235,1.7365000000000004,-0.4187189274270561,0.5301377773467809,-7.715412232238775e-05,-0.0011890916382595864,-0.03602472905330226,9.802062255697368
4.96,0,4,1,75,5277.907711295231,0,2.5300000000000002,160,9,1,2,99,1,0.9015,3.4315,1.6285000000000003,-0.41862165084095,0.5317552199029304,-7.69774057059712e-05,-0.0019466065875697921,-0.04034202773509808,9.883796244576562
4.992,0,4,1,75,5352.907711295231,0,2.5300000000000002,160,9,1,2,101,0,0.9075,3.4375,1.6225000000000003,-0.4184957498185179,0.5333710657533641,-7.693893630963088e-05,-0.001508268013129587,-0.03675176940351393,9.826288322709386
5.024,0,4,1,75,5427.907711295231,0,2.5300000000000002,160,9,1,4,105,2,1.1055,3.6355000000000004,1.4245000000000003,-0.4183370120225583,0.5349841733848397,-7.690564324607137e-05,-0.001782253252119894,-0.04095601840739546,9.840144211588195
5.056,0,4,1,75,5502.907711295231,0,2.5300000000000002,160,9,1,3,108,-1,1.026,3.556,1.5040000000000002,-0.4181449153359876,0.5365946342016198,-7.713950304585361e-05,-0.0008523903841039789,-0.040712245115464486,9.789590284389417
5.088,0,4,1,75,5577.907711295231,0,2.5300000000000002,160,9,1,3,111,0,1.0575,3.5875000000000004,1.4725000000000001,-0.41791208831132237,0.538199833521565,-7.731407446063578e-05,-0.0015178698554035109,-0.048149800175482434,9.78725554292421
5.12,0,4,1,75,5652.907711295231,0,2.5300000000000002,160,9,1,3,114,0,1.08,3.6100000000000003,1.4500000000000002,-0.41764180199759876,0.5397993811968663,-7.759282923804761e-05,-0.0014672985270160488,-0.044923212819897494,9.846956426651042
5.152,0,4,1,75,5727.907711295231,0,2.5300000000000002,160,9,1,4,118,1,1.194,3.724,1.3360000000000003,-0.4173330492815649,0.5413921308200713,-7.796252012266976e-05,-0.0013322815528856913,-0.04603287319305784,9.80583235369411
5.184,0,4,1,75,5802.907711295231,0,2.5300000000000002,160,9,1,4,122,0,1.2149999999999999,3.745,1.3150000000000004,-0.41698498126314393,0.5429774004874639,-7.853864539334766e-05,-0.0005023309442778858,-0.047021260015546636,9.814979818388885
5.216,0,4,1,75,5877.907711295231,0,2.5300000000000002,160,9,1,3,125,-1,1.1535000000000002,3.6835000000000004,1.3765,-0.416593590642096,0.5445529105609164,-7.920923559656505e-05,-0.00022953261562299015,-0.05168059845093771,9.841854531646188
5.248,0,4,1,75,5952.907711295231,0,2.5300000000000002,160,9,1,2,127,-1,1.0935000000000001,3.6235000000000004,1.4365,-0.4161587659125555,0.5461167467228187,-7.986630556560542e-05,-0.0005005877179162089,-0.05199166166716624,9.861795605349302
5.28,0,4,1,75,6027.907711295231,0,2.5300000000000002,160,9,1,3,130,1,1.2089999999999999,3.739,1.3210000000000004,-0.4156834775685493,0.5476681848508744,-8.048514980112977e-05,-0.0006276905052402862,-0.04978417427953401,9.863873202606452
5.312,0,4,1,75,6102.907711295231,0,2.5300000000000002,160,9,1,1,131,-2,1.0394999999999999,3.5695,1.4905000000000004,-0.415169907971497,0.5492077115827926,-8.1280017362911e-05,0.0007171269162318508,-0.04726693501639734,9.761882681753422
5.344,0,4,1,75,6177.907711295231,0,2.5300000000000002,160,9,1,3,134,2,1.248,3.7780000000000005,1.2820000000000003,-0.414614965404512,0.5507316767366093,-8.181562520535347e-05,-0.0003025932852301237,-0.05161661030481036,9.791319292461973
5.376,0,4,1,59.97543441366206,6237.883145708893,-15.024565586337943,3.2962528449032353,160,9,1,2,136,-1,1.161,4.457252844903236,2.1352528449032353,-0.4140242511308343,0.552242951041785,-8.262983432588862e-05,0.0019147819826997089,-0.04571730133413306,9.832230313029555
5.408,0,4,1,59.203937953514036,6297.087083662407,-0.7714964601480219,3.320574598784446,160,9,1,4,140,2,1.368,4.688574598784446,1.952574598784446,-0.4132288875981776,0.5541309382890646,-8.327738340477113e-05,0.4177800470629259,-0.04213136228134665,9.811625576166328
5.44,0,4,1,58.69587650440903,6355.782960166816,-0.5080614491050071,3.3457142362286536,160,9,1,5,145,1,1.4714999999999998,4.817214236228653,1.8742142362286538,-0.41234514686657714,0.5560697864629246,-8.414726515249861e-05,0.08252775809283432,-0.0658253423517212,9.793650168786371
5.472,0,4,1,58.240519915187214,6414.0234800820035,-0.45535658922181454,3.368429360829861,160,9,1,4,149,-1,1.4085,4.776929360829861,1.959929360829861,-0.4113925305213252,0.5579952121068761,-8.519915844005729e-05,0.01980225096109821,-0.0755317408499662,9.80539354729979
5.5040000000000004,0,4,1,57.68038349181982,6471.703863573824,-0.5601364233673962,3.3965409618323767,160,9,1,2,151,-2,1.2645,4.661040961832377,2.132040961832377,-0.4104071290056978,0.5598248620494711,-8.628432007498806e-05,-0.06531969730642613,-0.08532312635874795,9.855172118970541
5.5360000000000005,0,4,1,56.864390451281125,6528.568254025105,-0.815993040538693,3.4375964704764823,160,9,1,2,153,0,1.2974999999999999,4.735096470476482,2.1400964704764824,-0.4093443034123068,0.5616418803608564,-8.72844208814963e-05,0.029196298258212024,-0.08271363737278829,9.829465805681945
5.5680000000000005,0,4,1,55.939091183192154,6584.507345208297,-0.9252992680889705,3.4839707401084814,160,9,1,1,154,-1,1.221,4.7049707401084815,2.2629707401084813,-0.4082121278489699,0.5634452831638527,-8.83697754034251e-05,0.026345021222375604,-0.07642579860112363,9.850806079820027
5.6000000000000005,0,4,1,54.8966719676691,6639.404017175966,-1.0424192155230543,3.5362088208320683,160,9,1,1,155,0,1.2374999999999998,4.773708820832068,2.2987088208320685,-0.40700399844303436,0.5652399009936464,-8.934812400359683e-05,0.03573286767403595,-0.078538345323665,9.833454717077414
5.632,0,4,1,53.615648184164115,6693.019665360131,-1.2810237835049847,3.6004986145752995,160,9,1,1,156,0,1.2449999999999999,4.845498614575299,2.3554986145753,-0.4057240774631054,0.5670237699989694,-9.030637959901375e-05,0.033857733646388506,-0.07678526820294947,9.818777907368261
5.664,0,4,1,52.77642919490952,6745.79609455504,-0.8392189892545971,3.642017759243779,160,9,1,0,156,-1,1.161,4.8030177592437795,2.481017759243779,-0.4043662375635856,0.5688003632135495,-9.12088178184698e-05,0.04221972123201919,-0.07898445879977885,9.849756480096117
5.696,0,4,1,51.45398659035337,6797.250081145394,-1.3224426045561515,3.708623113086888,160,9,1,0,156,0,1.17,4.8786231130868885,2.538623113086888,-0.4029355398106289,0.5705499161006158,-9.187126971360766e-05,0.025954508640011482,-0.087158138635881,9.778012951711442
5.728,0,4,1,50.527540151656176,6847.77762129705,-0.9264464386971909,3.7545494388558884,160,9,1,0,156,0,1.17,4.924549438855888,2.5845494388558885,-0.4014783164716931,0.5722309272305257,-9.244262800292558e-05,-0.03258530963132978,-0.08085926643930105,9.800094657193428
5.76,0,4,1,49.80795396303047,6897.585575260081,-0.7195861886257049,3.790321888037102,160,9,1,3,159,3,1.4445,5.234821888037102,2.3458218880371025,-0.4001189929344047,0.5737173093220823,-9.287722774192937e-05,-0.2044004472075894,-0.07517457488186775,9.830171142829995
5.792,0,4,1,49.563229754237845,6947.148805014319,-0.24472420879262557,3.802083236496901,160,9,1,10,169,7,2.0805000000000002,5.882583236496901,1.7215832364969006,-0.3990849117942158,0.5748072297618098,-9.361602820741333e-05,-0.4991483695474452,-0.04487986587100222,9.81753367735543
5.824,0,4,1,49.80795396303047,6996.95675897735,0.24472420879262557,3.7893575776396835,160,9,1,20,189,10,3.0075,6.28,0.7818575776396837,-0.398598784384496,0.5752886415832928,-9.508852922237611e-05,-0.7999848652385001,-0.012795144677055073,9.838291340171462
5.856,0,4,1,49.60629785064186,7046.563056827991,-0.20165611238861203,3.7998867635802958,160,9,1,26,215,6,3.6165,6.28,0.18338676358029593,-0.3983753105149819,0.5755092033727428,-9.65831535241074e-05,-0.36291098040189657,0.0068826169204907655,9.79159878394798
5.888,0,4,1,47.77916686407208,7094.342223692063,-1.8271309865697773,3.8928687877829655,160,9,1,10,225,-16,2.2935,6.186368787782966,1.5993687877829657,-0.3974654392017621,0.576532660144584,-9.689396276288571e-05,1.030177503370021,0.049458326666073076,9.836633263151962
5.92,0,4,1,46.14576283817511,7140.487986530238,-1.6334040258969722,3.974345262117142,160,9,1,-3,222,-13,1.323,5.297345262117142,2.651345262117142,-0.39581216325914853,0.578217346261568,-9.592030435785423e-05,0.9687168878322244,-0.03176864899307051,9.768516342341652
5.952,0,4,1,45.00000000000001,7185.487986530238,-1.1457628381751022,4.031145762838174,160,9,1,-7,215,-4,1.0514999999999999,5.082645762838174,2.9796457628381745,-0.3939736847655551,0.5798793679939562,-9.473528383526462e-05,0.12363852573322259,-0.15020868886330277,9.797427423272039
5.984,0,4,1,43.793951220780045,7229.281937751019,-1.2060487792199623,4.091508487740218,160,9,1,-6,209,1,1.1264999999999998,5.218008487740218,2.965008487740218,-0.392042272008414,0.5815107474013715,-9.408652201629321e-05,0.05182106022715731,-0.09754460073053918,9.748264996284512
6.016,0,4,1,42.56335175318987,7271.845289504208,-1.2305994675901744,4.153063011808097,160,9,1,-8,201,-2,0.8894999999999998,5.042563011808097,3.263563011808097,-0.3900437446480186,0.5831105698722221,-9.403010268921666e-05,0.0336701021426208,-0.0809477350897503,9.799452112197285
6.048,0,4,1,41.22771639062016,7313.073005894828,-1.335635362569711,4.219949815831562,160,9,1,-6,195,2,1.0305,5.250449815831562,3.189449815831562,-0.38796115288555244,0.5846737382610653,-9.385396614157611e-05,0.04547527388786253,-0.09496530505721516,9.803514848932608
6.08,0,4,1,40.64892204842611,7353.721927943255,-0.5787943421940511,4.248132691920889,160,9,1,-1,194,5,1.4249999999999998,5.673132691920888,2.823132691920889,-0.3862512324216113,0.5858926608020089,-9.393626687633286e-05,-0.49295015657019775,-0.07472153082902273,9.80174048726517
6.112,0,4,1,40.60129464500447,7394.323222588259,-0.04762740342163596,4.249982895153199,160,9,1,13,207,14,2.6534999999999997,6.28,1.596482895153199,-0.3852707810814061,0.586578135979034,-9.456005480211298e-05,-0.8871423698249665,-6.155007777185072e-05,9.796050085795514
6.144,0,4,1,40.20986927763678,7434.5330918658965,-0.3914253673676953,4.269897961485529,160,9,1,23,230,10,3.5399999999999996,6.28,0.7298979614855292,-0.38474208555083134,0.5870005519524552,-9.595188058639237e-05,-0.5079065241514419,0.0511106263452999,9.848149565027233
6.176,0,4,1,39.22567409733672,7473.758765963234,-0.9841951803000555,4.319700490313465,160,9,1,14,244,-9,2.799,6.28,1.5207004903134647,-0.3837944165764929,0.5877311184127507,-9.636117940577463e-05,0.50839559411525,-0.018731784817192242,9.849482334113935
6.208,0,4,1,37.79394299861673,7511.55270896185,-1.4317310987199932,4.391734581167884,160,9,1,-2,242,-16,1.5210000000000001,5.912734581167884,2.870734581167884,-0.38189926325158596,0.5891248480741672,-9.54046870019834e-05,1.1291905485010614,0.020806635339921845,9.822817573338382
6.24,0,4,1,36.86989764584401,7548.4226066076935,-0.9240453527727155,4.437429163060572,160,9,1,-9,233,-7,1.0094999999999998,5.446929163060572,3.427929163060572,-0.3796024429841189,0.590603689626715,-9.409454013853402e-05,0.378040019942507,-0.14626480344175746,9.82234926964985
6.272,0,4,1,35.42577211490818,7583.848378722601,-1.4441255309358354,4.510155519785528,160,9,1,-10,223,-1,0.9134999999999999,5.423655519785528,3.5966555197855277,-0.37719836452298744,0.5920205716366099,-9.318214610671942e-05,0.0615210929631089,-0.12076107044620997,9.785723785266361
6.304,0,4,1,34.633677396549515,7618.482056119151,-0.792094718358662,4.549108224890883,160,9,1,-11,212,-1,0.7559999999999999,5.305108224890883,3.7931082248908834,-0.37471599103254405,0.5933996528997303,-9.272453657248152e-05,0.05077787213466564,-0.0856891285291615,9.786208207679902
6.336,0,4,1,33.41658139531293,7651.898637514464,-1.217096001236584,4.61038802623559,160,9,1,-11,201,0,0.6824999999999999,5.29288802623559,3.92788802623559,-0.37217558187897926,0.5947369764474056,-9.22492013444385e-05,0.03248546405198393,-0.07967469316175803,9.798441295838867
6.368,0,4,1,31.476839349583983,7683.375476864048,-1.9397420457289485,4.70809777456653,160,9,1,-9,192,2,0.783,5.49109777456653,3.9250977745665296,-0.3695745835775084,0.5960348673136365,-9.162936207326652e-05,0.03647757201526994,-0.07914435598651466,9.846292574807112
6.4,0,4,1,31.476839349583983,7714.852316213633,0.0,4.706158032520801,160,9,1,-5,187,4,1.0635,5.7696580325208,3.6426580325208007,-0.36723246598529946,0.597152808171982,-9.105682633749751e-05,-0.30424994664629196,-0.0673842041218862,9.821015491132378
6.432,0,4,1,31.049657186622614,7745.901973400255,-0.427182162961369,4.7279443228318305,160,9,1,1,188,6,1.539,6.26694432283183,3.188944322831831,-0.3651253757912614,0.5981519697679404,-9.078775198739092e-05,-0.2565538917716968,-0.024317216969733595,9.785554692209823
6.464,0,4,1,30.876813079060415,7776.778786479315,-0.1728441075621987,4.736332190154542,160,9,1,6,194,5,1.9499999999999997,6.28,2.786332190154542,-0.3632822763040456,0.5990288186565835,-9.101262804724931e-05,-0.2844808345530678,-0.015361490010934186,9.833792539595057
6.496,0,4,1,28.85566121971652,7805.634447699032,-2.0211518593438953,4.839238090873518,160,9,1,0,194,-6,1.4009999999999998,6.240238090873518,3.4382380908735186,-0.36095101121625095,0.6001495565046843,-9.095421462330423e-05,0.529701607167363,0.0035650637014927097,9.826833169061203
6.5280000000000005,0,4,1,28.651828452648743,7834.286276151681,-0.20383276706777664,4.847612410134631,160,9,1,-8,186,-8,0.7230000000000001,5.570612410134631,4.124612410134631,-0.35819246659927095,0.6013649088839199,-9.011061882860556e-05,0.42088297395152346,-0.09040278959906117,9.80614421804007
6.5600000000000005,0,4,1,27.492836951539683,7861.779113103221,-1.1589915011090604,4.906517143924125,160,9,1,-9,177,-1,0.6435,5.550017143924125,4.263017143924126,-0.3553476483027947,0.6024983485777354,-8.855007350550177e-05,0.050478381027349806,-0.12480117675919837,9.806799771908839
6.5920000000000005,0,4,1,26.565051177077994,7888.344164280299,-0.9277857744616895,4.952675226920562,160,9,1,-8,169,1,0.6764999999999999,5.6291752269205615,4.276175226920562,-0.3524445451654354,0.6035953365817455,-8.70932358917071e-05,0.04153910309544258,-0.07302880446554669,9.78294790551298
6.6240000000000006,0,4,1,26.095424157388344,7914.439588437687,-0.4696270196896499,4.975698419150272,160,9,1,-9,160,-1,0.516,5.491698419150272,4.459698419150272,-0.3494993549816752,0.6046555152811882,-8.579509101990998e-05,0.02744275358102193,-0.06775674330207243,9.796952070520257
6.656000000000001,0,4,1,25.621995944606983,7940.061584382294,-0.4734282127813607,4.999373630982432,160,9,1,-8,152,1,0.5489999999999999,5.548373630982432,4.4503736309824315,-0.34651510169255834,0.6056747038439628,-8.427357973237251e-05,0.023804493149133212,-0.07078074065954995,9.80090524446028
6.688,0,4,1,25.621995944606983,7965.683580326901,0.0,4.998900202769651,160,9,1,-9,143,-1,0.38850000000000007,5.387400202769651,4.61040020276965,-0.3435065518679074,0.6066611771418751,-8.283199521679635e-05,0.013187514490185627,-0.058759002862604964,9.785084750487053
6.72,0,4,1,24.66381471246356,7990.3473950393645,-0.9581812321434242,5.047767445608966,160,9,1,-6,137,3,0.6044999999999999,5.652267445608966,4.443267445608966,-0.34047716557020835,0.6076110387143763,-8.113529190443419e-05,0.009163093256354024,-0.06153986692116787,9.84351121385652
6.752,0,4,1,23.69068940282738,8014.038084442192,-0.9731253096361776,5.096438655168267,160,9,1,-5,132,1,0.624,5.720438655168267,4.4724386551682676,-0.33739728057710416,0.6085464235990539,-7.987329696049032e-05,0.04356573670142038,-0.04920477857051354,9.839977546592312
6.784,0,4,1,23.198590513648202,8037.23667495584,-0.49209888917917866,5.120562573206769,160,9,1,-5,127,0,0.5775,5.6980625732067685,4.543062573206769,-0.33427403112297394,0.609448127393087,-7.870169976811371e-05,0.032386996652827536,-0.06470526172579967,9.827318360910313
6.816,0,4,1,23.198590513648202,8060.435265469488,0.0,5.12007047431759,160,9,1,-5,122,0,0.5399999999999999,5.66007047431759,4.58007047431759,-0.33112304515066,0.6103092249020864,-7.753590137741552e-05,0.016317805400944213,-0.0672577024238592,9.768197513290877
6.848,0,4,1,23.477399892092937,8083.91266536158,0.2788093784447341,5.105851196016909,160,9,1,-6,116,-1,0.41100000000000003,5.516851196016908,4.694851196016909,-0.3279609393322665,0.6111285867310159,-7.641709540961647e-05,0.0008352421591840435,-0.06364511518692276,9.753978318669391
6.88,0,4,1,23.69068940282738,8107.603354764407,0.21328951073444458,5.095252240347897,160,9,1,-5,111,1,0.4665,5.5617522403478965,4.628752240347897,-0.32479860437271907,0.6119067151758969,-7.521417306441056e-05,-0.00902713307614175,-0.06059357044766172,9.781589688034101
6.912,0,4,1,24.179107146689173,8131.782461911097,0.4884177438617918,5.07055622492168,160,9,1,-5,106,0,0.41999999999999993,5.49055622492168,4.65055622492168,-0.3216344976594511,0.6126542736613201,-7.423828472920453e-05,-0.004827865195441705,-0.05085488495841324,9.844827606222418
6.944,0,4,1,22.70284212321281,8154.48530403431,-1.476265023476362,5.146334158862836,160,9,1,-1,105,4,0.7485,5.894834158862836,4.397834158862836,-0.3184778863855436,0.6133649054626334,-7.33317002189239e-05,-0.014653277370815463,-0.05454508053255324,9.822985310021938
6.976,0,4,1,23.198590513648202,8177.683894547958,0.49574839043539143,5.119574725927154,160,9,1,-3,102,-2,0.522,5.641574725927154,4.597574725927154,-0.3152630191124856,0.6140562124755582,-7.301700646887566e-05,0.052104910517305036,-0.05022715697862167,9.809880268780757
7.008,0,4,1,23.69068940282738,8201.374583950785,0.49209888917917866,5.094973430969452,160,9,1,-4,98,-1,0.426,5.520973430969452,4.6689734309694515,-0.3120548831691717,0.6146878111902624,-7.24891326255913e-05,-0.017138714955387675,-0.0764624679078705,9.797419719089023
7.04,0,4,1,24.179107146689173,8225.553691097473,0.4884177438617918,5.07055622492168,160,9,1,-4,94,0,0.40499999999999997,5.4755562249216805,4.66555622492168,-0.30885558458997175,0.6152779577183642,-7.19480718359717e-05,-0.015538952607919423,-0.05850867443624748,9.8037709401215
7.072,0,4,1,24.44395478041653,8249.99764587789,0.2648476337273564,5.057537413345447,160,9,1,-3,91,1,0.4665,5.524037413345447,4.591037413345447,-0.30566613634711415,0.615834521801012,-7.148202325711964e-05,-0.014915534426620877,-0.050502642469323795,9.823195074673466
