Time,SetPointAngle,SensorAngleRow,SensorAngleWidth,Angle,IntegralAngle,DeltaAngle,BaseSpeed,SetPointError,SensorErrorRow,SensorErrorWidth,Error,IntegralError,DeltaError,DeltaSpeed,LeftSpeed,RightSpeed,X,Y,Z,Roll,Pitch,Yaw
0.032,0,4,1,1.7714697400340056,1.7714697400340056,1.7714697400340056,6.1896550432582655,160,9,1,-4,-4,-4,-0.36599999999999994,5.823655043258266,6.28,-0.42705200000000004,0.3999999999999992,-6.396457831309502e-05,-3.875204907844537,-0.007391625617072135,9.779366317196414
0.064,0,4,1,0.0,1.7714697400340056,-1.7714697400340056,6.281771469740034,160,9,1,-3,-7,1,-0.26849999999999996,6.013271469740035,6.28,-0.42319465804427137,0.40000325915085405,-1.840466735474229e-05,4.529320953259931,-0.016777844364339708,9.572002226545862
0.096,0,4,1,0.0,1.7714697400340056,0.0,6.28,160,9,1,-3,-10,0,-0.3,5.98,6.28,-0.4192674201718905,0.4000320782165647,-6.0728665646320526e-05,0.4477845492227802,0.01961742712208178,9.686154463267119
0.128,0,4,1,0.0,1.7714697400340056,0.0,6.28,160,9,1,-2,-12,1,-0.23099999999999998,6.049,6.28,-0.41534388377762266,0.40007215030236215,-7.777552523922059e-05,-0.02873371949557488,0.011639315913268512,9.863713258255073
0.16,0,4,1,0.5906572146464071,2.362126954680413,0.5906572146464071,6.2498764820530335,160,9,1,-1,-13,1,-0.16349999999999998,6.0863764820530335,6.28,-0.41139895786957176,0.40012532398669753,-7.058043318776235e-05,0.19636176316805085,0.014519251907840666,9.84707749700499
0.192,0,4,1,0.5906572146464071,2.95278416932682,0.0,6.25046713926768,160,9,1,0,-13,1,-0.08850000000000001,6.16196713926768,6.28,-0.40744811479213877,0.4001898938924087,-7.038021185435187e-05,0.08344015806150745,0.011763315697245947,9.795174615233478
0.224,0,4,1,1.181188913326966,4.133973082653786,0.5905316986805589,6.220350022634971,160,9,1,0,-13,0,-0.0975,6.122850022634971,6.28,-0.40346741281508974,0.40026405005280147,-6.99441543110732e-05,0.010383740591209223,0.011096287577947405,9.816734946683123
0.256,0,4,1,1.181188913326966,5.315161995980752,0.0,6.220940554333652,160,9,1,1,-12,1,-0.006,6.214940554333651,6.226940554333652,-0.39949934809545085,0.4003427712544031,-6.848615941992126e-05,-0.03014451158366925,0.007649879427118461,9.79108942317362
0.28800000000000003,0,4,1,1.181188913326966,6.496350909307718,0.0,6.220940554333652,160,9,1,1,-11,0,-0.007499999999999993,6.213440554333651,6.228440554333652,-0.3955190103789154,0.4004285971502959,-6.768939425413553e-05,-0.0011553862074242481,0.010173704145900285,9.789518967475457
0.32,0,4,1,1.181188913326966,7.677539822634683,0.0,6.220940554333652,160,9,1,2,-9,1,0.09149999999999998,6.28,6.129440554333652,-0.3915386588424236,0.40051406050577304,-6.703348491858725e-05,-0.007997001294675161,0.003614577117533936,9.77584166940723
0.352,0,4,1,1.181188913326966,8.85872873596165,0.0,6.220940554333652,160,9,1,2,-7,0,0.0975,6.28,6.123440554333651,-0.38756869308095643,0.4005991219191699,-6.644634497651736e-05,-0.014499600975088093,0.004070006015279838,9.859747724964086
0.384,0,4,1,0.5906572146464071,9.449385950608058,-0.5905316986805589,6.25105767096636,160,9,1,2,-5,0,0.11249999999999999,6.28,6.13855767096636,-0.3836004053078281,0.400675870409906,-6.596356037362298e-05,-0.0025964623079630243,-0.0037860042488583596,9.803555267805816
0.41600000000000004,0,4,1,1.181188913326966,10.630574863935024,0.5905316986805589,6.220350022634971,160,9,1,1,-4,-1,0.036,6.256350022634971,6.1843500226349715,-0.3796270763816972,0.40074426661730633,-6.55787124727164e-05,0.008503301426236237,-0.004168259128445105,9.878220251632552
0.448,0,4,1,1.181188913326966,11.81176377726199,0.0,6.220940554333652,160,9,1,1,-3,0,0.0525,6.273440554333652,6.168440554333651,-0.37564653593318675,0.4008052753517405,-6.527669616931443e-05,0.016308900730778203,-0.003741205363571149,9.752559005919442
0.48,0,4,1,0.5906572146464071,12.402420991908398,-0.5905316986805589,6.25105767096636,160,9,1,1,-2,0,0.06,6.28,6.1910576709663605,-0.37166554708351496,0.40086240849172783,-6.502904275906135e-05,0.014851486407760005,-0.0008720807923666706,9.73574285310551
0.512,0,4,1,0.5906572146464071,12.993078206554806,0.0,6.25046713926768,160,9,1,1,-1,0,0.0675,6.28,6.18296713926768,-0.36767515361317726,0.40091440567086467,-6.481884474674425e-05,0.023853524373873315,-0.0029770113660990204,9.744614726174932
0.544,0,4,1,0.5906572146464071,13.583735421201213,0.0,6.25046713926768,160,9,1,1,0,0,0.075,6.28,6.175467139267679,-0.36368729231304886,0.4009620728668421,-6.46816387233351e-05,0.010849339114830193,-0.0028437128059592607,9.85200109090464
0.5760000000000001,0,4,1,0.5906572146464071,14.17439263584762,0.0,6.25046713926768,160,9,1,1,1,0,0.08249999999999999,6.28,6.16796713926768,-0.35970177789826635,0.4010051776567465,-6.457712207319673e-05,0.008420792248852234,-0.003812043772239265,9.814003281364885
0.608,0,4,1,0.0,14.17439263584762,-0.5906572146464071,6.280590657214646,160,9,1,1,2,0,0.09,6.28,6.1905906572146465,-0.35571861292283535,0.4010434763006928,-6.449662894282733e-05,0.004698744541084263,-0.004779808456230884,9.845504710464429
0.64,0,4,1,0.0,14.17439263584762,0.0,6.28,160,9,1,1,3,0,0.0975,6.28,6.1825,-0.3517281701187351,0.401076779823925,-6.442656090622535e-05,0.011364738423548187,-0.005692628664031333,9.802256782040416
0.672,0,4,1,0.0,14.17439263584762,0.0,6.28,160,9,1,1,4,0,0.105,6.28,6.175,-0.34774028520188816,0.4011061586746459,-6.436908793501506e-05,-0.001735765088535169,-0.005066033501427901,9.789064355344964
0.704,0,4,1,0.0,14.17439263584762,0.0,6.28,160,9,1,0,4,-1,0.020999999999999998,6.28,6.259,-0.34375476944772665,0.4011312596577578,-6.431951097305051e-05,-0.005624232304518272,-0.005941757628141793,9.826780296511199
0.736,0,4,1,0.0,14.17439263584762,0.0,6.28,160,9,1,0,4,0,0.03,6.28,6.25,-0.3397423649781793,0.40115188236498583,-6.426637461662624e-05,0.02430753668263107,-0.00664927705038953,9.793403351953966
0.768,0,4,1,0.0,14.17439263584762,0.0,6.28,160,9,1,0,4,0,0.03,6.28,6.25,-0.33573283427973283,0.4011719870816263,-6.422041935439521e-05,-0.0036049545339687647,-0.0028760411041380517,9.824287329739665
0.8,0,4,1,0.0,14.17439263584762,0.0,6.28,160,9,1,0,4,0,0.03,6.28,6.25,-0.3317232969157013,0.40119112965336456,-6.417952294482214e-05,0.00023461407652483995,-0.0034393250669078426,9.871982858475773
0.8320000000000001,0,4,1,0.0,14.17439263584762,0.0,6.28,160,9,1,0,4,0,0.03,6.28,6.25,-0.32771375193192254,0.40120926460106315,-6.414307869246141e-05,0.0012598016663296072,-0.003526259499613229,9.84212575750156
0.864,0,4,1,0.0,14.17439263584762,0.0,6.28,160,9,1,0,4,0,0.03,6.28,6.25,-0.32370419896727304,0.40122633208948566,-6.411079447925586e-05,0.0022071748578689995,-0.003518708074451195,9.81811549579235
0.896,0,4,1,0.0,14.17439263584762,0.0,6.28,160,9,1,0,4,0,0.03,6.28,6.25,-0.31969463807337895,0.40124226748907765,-6.408253861999239e-05,0.003027051076819171,-0.003476467722613888,9.798244974919234
0.928,0,4,1,0.0,14.17439263584762,0.0,6.28,160,9,1,0,4,0,0.03,6.28,6.25,-0.3156850696280425,0.40125700822628574,-6.405823086695801e-05,0.0036783729546320644,-0.003355445675594743,9.803390986673207
0.96,0,4,1,0.0,14.17439263584762,0.0,6.28,160,9,1,0,4,0,0.03,6.28,6.25,-0.3116754942461116,0.40127049823234884,-6.403776734638898e-05,0.004074704555984871,-0.0032239176786499377,9.804804791531886
0.992,0,4,1,0.0,14.17439263584762,0.0,6.28,160,9,1,0,4,0,0.03,6.28,6.25,-0.30766591269616794,0.4012826904140911,-6.402097367265089e-05,0.0042283526362396845,-0.0030595243526841858,9.814867635056636
1.024,0,4,1,0.0,14.17439263584762,0.0,6.28,160,9,1,0,4,0,0.03,6.28,6.25,-0.3036563258283386,0.4012935475902147,-6.400758277302215e-05,0.004179615460003595,-0.0029079791520434423,9.866025644233465
1.056,0,4,1,0.0,14.17439263584762,0.0,6.28,160,9,1,0,4,0,0.03,6.28,6.25,-0.29964673451609136,0.4013030423153955,-6.399723463818875e-05,0.0038555062000153557,-0.0027607412044203866,9.765204281109181
1.088,0,4,1,0.5906572146464071,14.765049850494028,0.5906572146464071,6.2498764820530335,160,9,1,0,4,0,0.03,6.279876482053034,6.219876482053033,-0.29563713961293453,0.40131115596679506,-6.398949460218774e-05,0.0032881025085277665,-0.0026211702298481114,9.8562222859618
1.12,0,4,1,0.5906572146464071,15.355707065140436,0.0,6.25046713926768,160,9,1,0,4,0,0.03,6.28,6.220467139267679,-0.29163721930542197,0.4013178594846574,-6.398547129076934e-05,-0.00881465308663834,-0.0025098481722301714,9.833422117648526
1.1520000000000001,0,4,1,0.5906572146464071,15.946364279786843,0.0,6.25046713926768,160,9,1,0,4,0,0.03,6.28,6.220467139267679,-0.287637064580162,0.4013216920451613,-6.398187022509626e-05,-0.0017899199339322376,-0.0038434851514889657,9.846195335419646
1.184,0,4,1,0.5906572146464071,16.53702149443325,0.0,6.25046713926768,160,9,1,0,4,0,0.03,6.28,6.220467139267679,-0.2836369069462319,0.40132267768344654,-6.397885498059253e-05,-0.004548309228722317,-0.0037795550297950497,9.841694000469877
1.216,0,4,1,1.181188913326966,17.718210407760218,0.5905316986805589,6.220350022634971,160,9,1,0,4,0,0.03,6.250350022634971,6.190350022634971,-0.2796367494117512,0.4013208304469735,-6.397659249223267e-05,-0.006840298000095718,-0.003736219987639888,9.814316472161579
1.248,0,4,1,1.181188913326966,18.899399321087184,0.0,6.220940554333652,160,9,1,0,4,0,0.03,6.250940554333652,6.190940554333651,-0.27565571942119427,0.4013161924260627,-6.396774533716683e-05,-0.031214434549074414,-0.0037237829657524647,9.802079271049626
1.28,0,4,1,0.5906572146464071,19.49005653573359,-0.5905316986805589,6.25105767096636,160,9,1,-1,3,-1,-0.0615,6.1895576709663604,6.28,-0.2716743173099499,0.40130876305685964,-6.395583838118488e-05,-0.016962641041394708,-0.003770530712595194,9.793633357077447
1.312,0,4,1,1.181188913326966,20.671245449060557,0.5905316986805589,6.220350022634971,160,9,1,0,3,1,0.0315,6.251850022634971,6.188850022634971,-0.2676840864641945,0.4012984835265279,-6.394134717313538e-05,-0.00790243503222338,-0.0038861806439116553,9.809415350951213
1.344,0,4,1,1.181188913326966,21.852434362387523,0.0,6.220940554333652,160,9,1,0,3,0,0.0225,6.2434405543336515,6.198440554333652,-0.26370306111793096,0.4012929487932229,-6.394636290937492e-05,-0.02472816874017911,0.0034741957254349064,9.770042735687523
1.3760000000000001,0,4,1,0.5906572146464071,22.44309157703393,-0.5905316986805589,6.25105767096636,160,9,1,-1,2,-1,-0.06899999999999999,6.18205767096636,6.28,-0.25972166431296817,0.401284515977931,-6.395602859156357e-05,-0.013770193328116236,-0.003944497939590878,9.75649527061145
1.408,0,4,1,1.181188913326966,23.624280490360896,0.5905316986805589,6.220350022634971,160,9,1,0,2,1,0.024,6.244350022634971,6.196350022634971,-0.25573382581451565,0.40127398417788823,-6.396329187073266e-05,-0.004032713505846467,-0.0031575903529291387,9.811666656587947
1.44,0,4,1,0.5906572146464071,24.2149377050073,-0.5905316986805589,6.25105767096636,160,9,1,-1,1,-1,-0.0765,6.17455767096636,6.28,-0.2517528032222239,0.40126850187009283,-6.397309201207346e-05,-0.013914131459791508,0.0038638716192893894,9.842616928555428
1.472,0,4,1,1.181188913326966,25.396126618334268,0.5905316986805589,6.220350022634971,160,9,1,0,1,1,0.0165,6.236850022634971,6.203850022634971,-0.24776734958424249,0.40126076744622513,-6.39770676567706e-05,0.0014404870387896985,-0.003146130166855937,9.80856716915302
1.504,0,4,1,1.181188913326966,26.577315531661235,0.0,6.220940554333652,160,9,1,0,1,0,0.0075,6.228440554333652,6.213440554333651,-0.24378632431931452,0.40125835116005015,-6.3981527334828e-05,-0.0035426536199709064,0.004330258999906588,9.810208987011647
1.536,0,4,1,1.181188913326966,27.7585044449882,0.0,6.220940554333652,160,9,1,0,1,0,0.0075,6.228440554333652,6.213440554333651,-0.239804923688071,0.4012543657770391,-6.39820116156431e-05,0.004845193912010314,-0.002205688377539769,9.808357543464172
1.568,0,4,1,1.181188913326966,28.939693358315168,0.0,6.220940554333652,160,9,1,0,1,0,0.0075,6.228440554333652,6.213440554333651,-0.23582352630344847,0.4012496405101186,-6.39791927034717e-05,0.007888693474875476,-0.0012364110548361885,9.81666810513983
1.6,0,4,1,0.5906572146464071,29.530350572961574,-0.5905316986805589,6.25105767096636,160,9,1,-1,0,-1,-0.08399999999999999,6.1670576709663605,6.28,-0.23184213124479397,0.4012441474404748,-6.397400420815429e-05,0.010849163766115734,-0.0011142605471451694,9.79962101052193
1.6320000000000001,0,4,1,1.181188913326966,30.71153948628854,0.5905316986805589,6.220350022634971,160,9,1,0,0,1,0.009,6.229350022634971,6.211350022634971,-0.22785908187148604,0.4012379066625494,-6.396802149017701e-05,0.015057796477436889,-0.0009871290656390229,9.778551676369887
1.6640000000000001,0,4,1,1.181188913326966,31.892728399615507,0.0,6.220940554333652,160,9,1,0,0,0,0.0,6.220940554333652,6.220940554333652,-0.22387805728491036,0.40123716421346173,-6.396347494109014e-05,0.012886069796054157,0.005204716937936752,9.828365000423089
1.696,0,4,1,1.181188913326966,33.07391731294247,0.0,6.220940554333652,160,9,1,0,0,0,0.0,6.220940554333652,6.220940554333652,-0.2198966559042317,0.40123549822808163,-6.396046982328277e-05,0.015016452956658306,-0.0009468439047341345,9.807033740172098
1.728,0,4,1,1.181188913326966,34.25510622626943,0.0,6.220940554333652,160,9,1,0,0,0,0.0,6.220940554333652,6.220940554333652,-0.21591525605812203,0.4012337711702692,-6.396371369463312e-05,0.013623236608438161,-3.5902904456943444e-06,9.857412679701312
1.76,0,4,1,1.181188913326966,35.436295139596396,0.0,6.220940554333652,160,9,1,0,0,0,0.0,6.220940554333652,6.220940554333652,-0.21193385710799847,0.4012319742103129,-6.396824872334679e-05,0.011641573572093571,6.549294899001678e-05,9.834472773067983
1.792,0,4,1,1.181188913326966,36.61748405292336,0.0,6.220940554333652,160,9,1,0,0,0,0.0,6.220940554333652,6.220940554333652,-0.2079524585152707,0.40123010699883066,-6.397292326447077e-05,0.009015720631305096,0.00011968499809273335,9.791813374280427
1.824,0,4,1,1.181188913326966,37.79867296625032,0.0,6.220940554333652,160,9,1,0,0,0,0.0,6.220940554333652,6.220940554333652,-0.2039710599097428,0.4012281749969053,-6.397650431664952e-05,0.005953810594646982,0.00015665720273909625,9.81726337773784
1.856,0,4,1,1.181188913326966,38.979861879577285,0.0,6.220940554333652,160,9,1,0,0,0,0.0,6.220940554333652,6.220940554333652,-0.19998966105723126,0.40122618713601027,-6.397794135763225e-05,0.002455548327399354,0.00017775748412985127,9.803658007111288
1.8880000000000001,0,4,1,1.181188913326966,40.16105079290425,0.0,6.220940554333652,160,9,1,0,0,0,0.0,6.220940554333652,6.220940554333652,-0.1960082618285106,0.401224153964851,-6.39766167006943e-05,-0.0011867284518839354,0.00018430857588921335,9.777846454718226
1.92,0,4,1,1.181188913326966,41.34223970623121,0.0,6.220940554333652,160,9,1,0,0,0,0.0,6.220940554333652,6.220940554333652,-0.1920268621716537,0.4012220862708756,-6.397250646459837e-05,-0.004776824783090852,0.00017787717262349073,9.815113361456696
1.952,0,4,1,1.181188913326966,42.523428619558175,0.0,6.220940554333652,160,9,1,0,0,0,0.0,6.220940554333652,6.220940554333652,-0.18804546208864592,0.40121999413127085,-6.396620698805033e-05,-0.008040943396711544,0.0001652126354919527,9.80701999046241
1.984,0,4,1,1.181188913326966,43.70461753288514,0.0,6.220940554333652,160,9,1,0,0,0,0.0,6.220940554333652,6.220940554333652,-0.18406406161634753,0.4012178863293539,-6.395881572690207e-05,-0.010900160963492818,0.00014586403027887793,9.81822093032574
2.016,0,4,1,1.181188913326966,44.8858064462121,0.0,6.220940554333652,160,9,1,0,0,0,0.0,6.220940554333652,6.220940554333652,-0.18008266081145358,0.40121577006432024,-6.395169186083904e-05,-0.013078700463488151,0.0001234864003730565,9.813585329997395
2.048,0,4,1,1.181188913326966,46.066995359539064,0.0,6.220940554333652,160,9,1,0,0,0,0.0,6.220940554333652,6.220940554333652,-0.17610125973898264,0.40121365088249406,-6.394615150539032e-05,-0.01435647564505562,0.0001001152343046681,9.74370779872399
2.08,0,4,1,1.181188913326966,47.24818427286603,0.0,6.220940554333652,160,9,1,0,0,0,0.0,6.220940554333652,6.220940554333652,-0.1721198584513271,0.4012115327814585,-6.3942558366498e-05,-0.014272725537492396,7.96231015487025e-05,9.80353139947628
2.112,0,4,1,1.181188913326966,48.42937318619299,0.0,6.220940554333652,160,9,1,0,0,0,0.0,6.220940554333652,6.220940554333652,-0.16813845703741506,0.40120941832452156,-6.39445152421491e-05,-0.013518994598458978,5.929012265247084e-05,9.786300522013045
2.144,0,4,1,1.181188913326966,49.61056209951995,0.0,6.220940554333652,160,9,1,0,0,0,0.0,6.220940554333652,6.220940554333652,-0.16415705553111762,0.4012073089783742,-6.394851529764253e-05,-0.011783813700565133,4.2137528640667265e-05,9.760032230442958
2.176,0,4,1,1.181188913326966,50.791751012846916,0.0,6.220940554333652,160,9,1,0,0,0,0.0,6.220940554333652,6.220940554333652,-0.16017565397240482,0.4012052053058127,-6.395350250150075e-05,-0.00932284786235026,2.8022097861952185e-05,9.789785942580625
2.208,0,4,1,0.5906572146464071,51.38240822749332,-0.5905316986805589,6.25105767096636,160,9,1,-1,-1,-1,-0.09149999999999998,6.15955767096636,6.28,-0.15619425239196225,0.40120310721986635,-6.395821132111276e-05,-0.006345557490787239,1.6789662482281087e-05,9.81080144176508
2.24,0,4,1,0.5906572146464071,51.97306544213973,0.0,6.25046713926768,160,9,1,0,-1,1,0.0014999999999999996,6.25196713926768,6.2489671392676795,-0.15221359425730355,0.4012010003377032,-6.396119686761549e-05,-0.0038983890587287982,-3.5389085041077587e-06,9.808080896170846
2.2720000000000002,0,4,1,0.5906572146464071,52.56372265678613,0.0,6.25046713926768,160,9,1,0,-1,0,-0.0075,6.242967139267679,6.25796713926768,-0.1482132910725186,0.4012048568853171,-6.396287846456052e-05,0.023351823130959543,0.005823526840498098,9.792030361835726
2.3040000000000003,0,4,1,0.5906572146464071,53.15437987143254,0.0,6.25046713926768,160,9,1,0,-1,0,-0.0075,6.242967139267679,6.25796713926768,-0.14421298862358203,0.40120855348279155,-6.395466323142612e-05,0.01117277938542269,-7.21662407800004e-05,9.783209209384756
2.336,0,4,1,0.5906572146464071,53.745037086078945,0.0,6.25046713926768,160,9,1,0,-1,0,-0.0075,6.242967139267679,6.25796713926768,-0.14021268952470217,0.4012129600826267,-6.393846332617553e-05,0.017503098262731834,0.0008512827914293623,9.78221647417609
2.368,0,4,1,0.5906572146464071,54.33569430072535,0.0,6.25046713926768,160,9,1,0,-1,0,-0.0075,6.242967139267679,6.25796713926768,-0.13621239431908083,0.40121805270493116,-6.391765285858504e-05,0.016814357600443947,0.000894889194800195,9.781469571053146
2.4,0,4,1,0.5906572146464071,54.926351515371756,0.0,6.25046713926768,160,9,1,0,-1,0,-0.0075,6.242967139267679,6.25796713926768,-0.1322120999873554,0.4012238157541409,-6.392939123066668e-05,0.01511663961623999,0.0009490582151810211,9.818941175389943
2.432,0,4,1,0.5906572146464071,55.51700873001816,0.0,6.25046713926768,160,9,1,0,-1,0,-0.0075,6.242967139267679,6.25796713926768,-0.12821180744175584,0.4012302396235089,-6.394162967912967e-05,0.012430035025722461,0.0010060161770983423,9.78884575966093
2.464,0,4,1,0.5906572146464071,56.10766594466457,0.0,6.25046713926768,160,9,1,0,-1,0,-0.0075,6.242967139267679,6.25796713926768,-0.12421151638698603,0.40123732022392544,-6.395273302302329e-05,0.009111528894040436,0.0010570244386566142,9.856286758304813
2.496,0,4,1,0.5906572146464071,56.69832315931097,0.0,6.25046713926768,160,9,1,0,-1,0,-0.0075,6.242967139267679,6.25796713926768,-0.1202112266383913,0.4012450571927137,-6.396110394172282e-05,0.005256444754377377,0.0010923582239125173,9.827496468123178
2.528,0,4,1,0.5906572146464071,57.28898037395738,0.0,6.25046713926768,160,9,1,0,-1,0,-0.0075,6.242967139267679,6.25796713926768,-0.11621093810883279,0.40125345273920027,-6.396553793308786e-05,0.000985975179678099,0.0011257551529942002,9.802014802208737
2.56,0,4,1,0.0,57.28898037395738,-0.5906572146464071,6.280590657214646,160,9,1,0,-1,0,-0.0075,6.273090657214646,6.28,-0.11221065079252882,0.4012625106626174,-6.396554219382372e-05,-0.0033194380761317984,0.001142864394436122,9.851501980089145
2.592,0,4,1,0.0,57.28898037395738,0.0,6.28,160,9,1,0,-1,0,-0.0075,6.2725,6.28,-0.10819367553532946,0.40127227659014114,-6.396483465638536e-05,0.01225809046336417,0.001149481338540156,9.818200462303613
2.624,0,4,1,0.0,57.28898037395738,0.0,6.28,160,9,1,0,-1,0,-0.0075,6.2725,6.28,-0.10417688910091306,0.4012823171437814,-6.396396215151666e-05,-0.004836837387187954,0.0007606871196382857,9.798008171984822
2.656,0,4,1,0.0,57.28898037395738,0.0,6.28,160,9,1,0,-1,0,-0.0075,6.2725,6.28,-0.10016010321926837,0.40129266707640715,-6.396315859348925e-05,-0.00493845961084468,0.0007846118304436934,9.819619927819788
2.688,0,4,1,0.0,57.28898037395738,0.0,6.28,160,9,1,0,-1,0,-0.0075,6.2725,6.28,-0.096143317932697,0.4013033334674201,-6.396257754810557e-05,-0.004920953934790806,0.0007705741858826677,9.833376267494323
2.72,0,4,1,0.5906572146464071,57.879637588603785,0.5906572146464071,6.2498764820530335,160,9,1,1,0,1,0.08399999999999999,6.28,6.165876482053034,-0.09212653331122662,0.4013143240368797,-6.396228423289144e-05,-0.00464536373852364,0.0007504255068904314,9.794073882806883
2.7520000000000002,0,4,1,0.5906572146464071,58.47029480325019,0.0,6.25046713926768,160,9,1,0,0,-1,-0.009,6.241467139267679,6.25946713926768,-0.08814386892151595,0.40132556963272337,-6.395125191097258e-05,-0.044330258296264156,0.0007077949274440944,9.788733444069731
2.7840000000000003,0,4,1,0.0,58.47029480325019,-0.5906572146464071,6.280590657214646,160,9,1,0,0,0,0.0,6.28,6.28,-0.08414356922960603,0.4013311534313736,-6.394706157426128e-05,0.00433531015919211,-0.0052178513024835295,9.839736626257716
2.816,0,4,1,0.0,58.47029480325019,0.0,6.28,160,9,1,0,0,0,0.0,6.28,6.28,-0.0801243710768363,0.401337642318657,-6.39543796654065e-05,0.008060902222133383,0.0011163548366935649,9.76988033231381
2.848,0,4,1,0.0,58.47029480325019,0.0,6.28,160,9,1,0,0,0,0.0,6.28,6.28,-0.0761051745110448,0.40134414156112724,-6.396169417922926e-05,-0.007342568586005515,0.00017103935626611855,9.804140943713575
2.88,0,4,1,0.0,58.47029480325019,0.0,6.28,160,9,1,0,0,0,0.0,6.28,6.28,-0.07208597948718014,0.40135067414892484,-6.396726242360005e-05,-0.003812306129020839,0.00010158557562675244,9.791723724938727
2.912,0,4,1,0.0,58.47029480325019,0.0,6.28,160,9,1,0,0,0,0.0,6.28,6.28,-0.06806678550717912,0.4013572529305436,-6.396989870111405e-05,-7.037725992080078e-05,3.5916967843580744e-05,9.805666986938705
2.944,0,4,1,0.0,58.47029480325019,0.0,6.28,160,9,1,0,0,0,0.0,6.28,6.28,-0.0640475921732772,0.4013638828294542,-6.396914588288269e-05,0.003687863695023817,-2.0203957797127976e-05,9.827818247646569
2.976,0,4,1,0.5906572146464071,59.0609520178966,0.5906572146464071,6.2498764820530335,160,9,1,1,1,1,0.09149999999999998,6.28,6.158376482053034,-0.060028399182204435,0.4013705630226608,-6.396532160939106e-05,0.0072413458468870845,-6.309666665273244e-05,9.83703412718804
3.008,0,4,1,0.5906572146464071,59.651609232543,0.0,6.25046713926768,160,9,1,0,1,-1,-0.0014999999999999996,6.2489671392676795,6.25196713926768,-0.0560481245849524,0.40137720841142066,-6.397126901827414e-05,-0.03544383036133333,-0.00015735653276959376,9.813185734545792
3.04,0,4,1,0.5906572146464071,60.24226644718941,0.0,6.25046713926768,160,9,1,0,1,0,0.0075,6.25796713926768,6.242967139267679,-0.05204782139308568,0.4013779283822986,-6.397180799686854e-05,0.021313467903049513,-0.005995508641332584,9.791442794998428
3.072,0,4,1,0.5906572146464071,60.832923661835814,0.0,6.25046713926768,160,9,1,0,1,0,0.0075,6.25796713926768,6.242967139267679,-0.04804751902711332,0.4013788442569077,-6.397312006057101e-05,0.0008656754667605416,-4.817274495608371e-05,9.860134492542599
3.104,0,4,1,0.5906572146464071,61.42358087648222,0.0,6.25046713926768,160,9,1,0,1,0,0.0075,6.25796713926768,6.242967139267679,-0.04404721886953535,0.4013790790743925,-6.397437955056075e-05,-9.57803208954378e-05,-0.00097114491937241,9.744952075763798
3.136,0,4,1,0.5906572146464071,62.014238091128625,0.0,6.25046713926768,160,9,1,0,1,0,0.0075,6.25796713926768,6.242967139267679,-0.040046920299687074,0.40137864756408914,-6.397518448868732e-05,-0.001062228001643271,-0.0010186098166116262,9.7630049044314
3.168,0,4,1,0.5906572146464071,62.60489530577503,0.0,6.25046713926768,160,9,1,0,1,0,0.0075,6.25796713926768,6.242967139267679,-0.03604662282123298,0.4013775579693065,-6.397537916675265e-05,-0.001969732617640847,-0.0010588531783888295,9.789203476623166
3.2,0,4,1,0.5906572146464071,63.19555252042144,0.0,6.25046713926768,160,9,1,0,1,0,0.0075,6.25796713926768,6.242967139267679,-0.03204632606945685,0.4013758134351531,-6.39749847809127e-05,-0.00274121445952917,-0.0011072695472907378,9.804520903611726
3.232,0,4,1,0.5906572146464071,63.78620973506784,0.0,6.25046713926768,160,9,1,0,1,0,0.0075,6.25796713926768,6.242967139267679,-0.02804602980538784,0.4013734134018161,-6.397413333788723e-05,-0.0033860628676991573,-0.0011261854835291814,9.832727325487099
3.2640000000000002,0,4,1,0.5906572146464071,64.37686694971426,0.0,6.25046713926768,160,9,1,0,1,0,0.0075,6.25796713926768,6.242967139267679,-0.024045733901847288,0.4013703548423947,-6.397300758722788e-05,-0.003800478850472333,-0.001153598733434214,9.783433622077096
3.2960000000000003,0,4,1,0.5906572146464071,64.96752416436067,0.0,6.25046713926768,160,9,1,0,1,0,0.0075,6.25796713926768,6.242967139267679,-0.020045438325246766,0.40136663329812394,-6.397179065269036e-05,-0.003975412227279044,-0.0011613504322646028,9.815536167773077
3.3280000000000003,0,4,1,0.5906572146464071,65.55818137900708,0.0,6.25046713926768,160,9,1,0,1,0,0.0075,6.25796713926768,6.242967139267679,-0.016045143116012624,0.40136224369464557,-6.397062898172434e-05,-0.003984238006087678,-0.0011699546471848163,9.814686406854507
3.36,0,4,1,1.181188913326966,66.73937029233404,0.5905316986805589,6.220350022634971,160,9,1,0,1,0,0.0075,6.227850022634971,6.212850022634971,-0.012044848369659151,0.4013571809453288,-6.396961110347217e-05,-0.0036778091561701135,-0.0011696364620742176,9.787709955695592
3.392,0,4,1,1.181188913326966,67.92055920566101,0.0,6.220940554333652,160,9,1,0,1,0,0.0075,6.228440554333652,6.213440554333651,-0.00806382850376303,0.40135146780724656,-6.39649988054651e-05,-0.025720037469704395,-0.001167419947346092,9.77246417281229
3.424,0,4,1,1.181188913326966,69.10174811898797,0.0,6.220940554333652,160,9,1,0,1,0,0.0075,6.228440554333652,6.213440554333651,-0.004082432150963586,0.4013450771080874,-6.395907134473279e-05,-0.009539536704828844,-0.0011509351158723422,9.7512456504609
3.456,0,4,1,1.181188913326966,70.28293703231493,0.0,6.220940554333652,160,9,1,0,1,0,0.0075,6.228440554333652,6.213440554333651,-0.00010103667299432178,0.40133800594452124,-6.395300116367707e-05,-0.012078941134046017,-0.001133520152437003,9.827926066024588
3.488,0,4,1,1.181188913326966,71.4641259456419,0.0,6.220940554333652,160,9,1,0,1,0,0.0075,6.228440554333652,6.213440554333651,0.003880357736818054,0.4013302516102765,-6.394803855155028e-05,-0.013541440677911704,-0.0011411038625562344,9.83466376417261
3.52,0,4,1,1.181188913326966,72.64531485896886,0.0,6.220940554333652,160,9,1,0,1,0,0.0075,6.228440554333652,6.213440554333651,0.007861750901305326,0.40132181206739254,-6.39451850024033e-05,-0.014237607815880354,-0.001120292108409752,9.795228741876898
3.552,0,4,1,0.5906572146464071,73.23597207361527,-0.5905316986805589,6.25105767096636,160,9,1,-1,0,-1,-0.08399999999999999,6.1670576709663605,6.28,0.011843142649572374,0.40131268587409336,-6.394496366548055e-05,-0.014205237848722676,-0.0011199424318207953,9.800873756513393
3.584,0,4,1,1.181188913326966,74.41716098694224,0.5905316986805589,6.220350022634971,160,9,1,0,0,1,0.009,6.229350022634971,6.211350022634971,0.015826185538130803,0.4013028278208263,-6.394602407450503e-05,-0.01121607770641096,-0.0011508830781270106,9.803925439144974
3.616,0,4,1,1.181188913326966,75.5983499002692,0.0,6.220940554333652,160,9,1,0,0,0,0.0,6.220940554333652,6.220940554333652,0.019807213180376156,0.4012986370580902,-6.395113270261238e-05,-0.013187337513653518,0.005138260350894944,9.83452388492733
3.648,0,4,1,1.181188913326966,76.77953881359616,0.0,6.220940554333652,160,9,1,0,0,0,0.0,6.220940554333652,6.220940554333652,0.023788615869236182,0.4012935966912382,-6.395752166246833e-05,-0.008385431429710271,-0.0011582157704805387,9.832766598701832
3.68,0,4,1,1.181188913326966,77.96072772692312,0.0,6.220940554333652,160,9,1,0,0,0,0.0,6.220940554333652,6.220940554333652,0.02777001645673801,0.4012885683032834,-6.396360879364592e-05,-0.005808802353413702,-0.00023477879862756539,9.791756718229891
3.712,0,4,1,1.181188913326966,79.14191664025009,0.0,6.220940554333652,160,9,1,0,0,0,0.0,6.220940554333652,6.220940554333652,0.03175141553574056,0.40128352915520576,-6.39679423876903e-05,-0.0025183596393856616,-0.0001736805602080185,9.816747324895909
3.744,0,4,1,1.181188913326966,80.32310555357705,0.0,6.220940554333652,160,9,1,0,0,0,0.0,6.220940554333652,6.220940554333652,0.035732813608099226,0.4012784647513239,-6.39696283163977e-05,0.0009148746300386691,-0.00011321618358367773,9.83755354170876
3.7760000000000002,0,4,1,1.181188913326966,81.50429446690401,0.0,6.220940554333652,160,9,1,0,0,0,0.0,6.220940554333652,6.220940554333652,0.039714211071541286,0.40127336735759467,-6.396843595549671e-05,0.004315868081499135,-5.80519400708564e-05,9.823175992609684
3.8080000000000003,0,4,1,1.181188913326966,82.68548338023098,0.0,6.220940554333652,160,9,1,0,0,0,0.0,6.220940554333652,6.220940554333652,0.04369560822677528,0.40126823441906473,-6.396479033915665e-05,0.0073690380153940875,-1.2269818888540076e-05,9.793336808047183
3.84,0,4,1,1.181188913326966,83.86667229355794,0.0,6.220940554333652,160,9,1,0,0,0,0.0,6.220940554333652,6.220940554333652,0.04767700528978685,0.4012630670799563,-6.395964089540851e-05,0.01000415396022082,2.276557274676812e-05,9.808762159006509
3.872,0,4,1,1.181188913326966,85.0478612068849,0.0,6.220940554333652,160,9,1,0,0,0,0.0,6.220940554333652,6.220940554333652,0.051658402406218634,0.4012578688896613,-6.395422774158055e-05,0.012198721876108572,4.7083354878453693e-05,9.815441682642737
3.904,0,4,1,1.181188913326966,86.22905012021187,0.0,6.220940554333652,160,9,1,0,0,0,0.0,6.220940554333652,6.220940554333652,0.05563979966574904,0.40125264473676225,-6.394979273670678e-05,0.013531839801706896,6.186148286133702e-05,9.805676694346857
3.936,0,4,1,1.181188913326966,87.41023903353883,0.0,6.220940554333652,160,9,1,0,0,0,0.0,6.220940554333652,6.220940554333652,0.05962119711528457,0.40124740002177933,-6.39472974327572e-05,0.014128746446049199,6.848813452140779e-05,9.791621050371196
3.968,0,4,1,0.5906572146464071,88.00089624818524,-0.5905316986805589,6.25105767096636,160,9,1,-1,-1,-1,-0.09149999999999998,6.15955767096636,6.28,0.06360259477046246,0.40124214005708947,-6.394721013345227e-05,0.013782755054451373,6.8819839960217e-05,9.765652472800834
4.0,0,4,1,1.181188913326966,89.1820851615122,0.5905316986805589,6.220350022634971,160,9,1,0,-1,1,0.0014999999999999996,6.221850022634971,6.218850022634971,0.0675832485996334,0.40123690738019363,-6.395000303576967e-05,0.011796694380175665,0.00010090598649180132,9.778801905387791
4.032,0,4,1,1.181188913326966,90.36327407483917,0.0,6.220940554333652,160,9,1,0,-1,0,-0.0075,6.213440554333651,6.228440554333652,0.0715642785433922,0.40123755965331326,-6.395506812835981e-05,0.010900507737294193,0.0058155756479323336,9.815630735433087
4.064,0,4,1,0.5906572146464071,90.95393128948558,-0.5905316986805589,6.25105767096636,160,9,1,0,-1,0,-0.0075,6.24355767096636,6.25855767096636,0.0755456851253293,0.40123804704012905,-6.39613321601288e-05,0.008442434938480044,-1.947004538388668e-05,9.80994123340298
4.096,0,4,1,0.5906572146464071,91.544588504132,0.0,6.25046713926768,160,9,1,0,-1,0,-0.0075,6.242967139267679,6.25796713926768,0.07954636349753752,0.40123923841600495,-6.396142774777597e-05,0.027632716608734197,0.0008887903660493277,9.807808749112441
4.128,0,4,1,0.5906572146464071,92.1352457187784,0.0,6.25046713926768,160,9,1,0,-1,0,-0.0075,6.242967139267679,6.25796713926768,0.08354666264838732,0.4012411145992468,-6.396242181512003e-05,0.00874620183357995,0.0009340499899612329,9.787626220875177
4.16,0,4,1,0.5906572146464071,92.72590293342482,0.0,6.25046713926768,160,9,1,0,-1,0,-0.0075,6.242967139267679,6.25796713926768,0.08754696024055351,0.40124366225761676,-6.396407292494008e-05,0.00883868970411902,0.0009905576543356859,9.824486678918664
4.192,0,4,1,0.5906572146464071,93.31656014807123,0.0,6.25046713926768,160,9,1,0,-1,0,-0.0075,6.242967139267679,6.25796713926768,0.09154725665712624,0.40124687362612427,-6.396615934816004e-05,0.008006376829054418,0.0010367587552287346,9.813750469202224
4.224,0,4,1,0.5906572146464071,93.90721736271765,0.0,6.25046713926768,160,9,1,0,-1,0,-0.0075,6.242967139267679,6.25796713926768,0.09554755215801561,0.4012507453576836,-6.396834214203277e-05,0.006655590943590259,0.001081272009063718,9.793477995563137
4.256,0,4,1,0.5906572146464071,94.49787457736406,0.0,6.25046713926768,160,9,1,0,-1,0,-0.0075,6.242967139267679,6.25796713926768,0.09954784690086446,0.40125527736328315,-6.397020736573743e-05,0.004917010345139286,0.0011000561337530638,9.816689830133694
4.288,0,4,1,0.5906572146464071,95.08853179201047,0.0,6.25046713926768,160,9,1,0,-1,0,-0.0075,6.242967139267679,6.25796713926768,0.10354814095354513,0.401260471771183,-6.397134905361535e-05,0.0029117848898787668,0.0011297018526053367,9.83926179034976
4.32,0,4,1,0.5906572146464071,95.67918900665688,0.0,6.25046713926768,160,9,1,0,-1,0,-0.0075,6.242967139267679,6.25796713926768,0.10754843430950978,0.4012663320488494,-6.39714654396533e-05,0.0007261578195486668,0.0011408775952935796,9.856378139143693
4.352,0,4,1,0.5906572146464071,96.2698462213033,0.0,6.25046713926768,160,9,1,0,-1,0,-0.0075,6.242967139267679,6.25796713926768,0.11154872690380752,0.40127286230437254,-6.397043959463847e-05,-0.0015058326099168158,0.0011535104819849797,9.791115372082993
4.384,0,4,1,0.5906572146464071,96.86050343594971,0.0,6.25046713926768,160,9,1,0,-1,0,-0.0075,6.242967139267679,6.25796713926768,0.11554901862828561,0.40128006676441585,-6.396838091592312e-05,-0.003624711962084333,0.001152263658544077,9.809002430276312
4.416,0,4,1,0.0,96.86050343594971,-0.5906572146464071,6.280590657214646,160,9,1,0,-1,0,-0.0075,6.273090657214646,6.28,0.11954930934508158,0.4012879494125997,-6.396561449578154e-05,-0.005585930957322761,0.0011490384230743128,9.849810588715142
4.448,0,4,1,0.0,96.86050343594971,0.0,6.28,160,9,1,0,-1,0,-0.0075,6.2725,6.28,0.12356628812403571,0.40129655020963834,-6.396626424293693e-05,0.012491052501576363,0.0011385688098746113,9.836981174239273
4.48,0,4,1,0.0,96.86050343594971,0.0,6.28,160,9,1,0,-1,0,-0.0075,6.2725,6.28,0.12758307800621196,0.40130543812266434,-6.396651255679252e-05,-0.002130378435911449,0.000742771269592699,9.71255926141649
4.5120000000000005,0,4,1,0.0,96.86050343594971,0.0,6.28,160,9,1,0,-1,0,-0.0075,6.2725,6.28,0.131599867254301,0.4013146456008661,-6.396611159338074e-05,8.301044610382559e-05,0.0007648907346351179,9.882061284519635
4.5440000000000005,0,4,1,0.0,96.86050343594971,0.0,6.28,160,9,1,0,-1,0,-0.0075,6.2725,6.28,0.1356166558303352,0.40132417736691717,-6.396495677955111e-05,0.0021034067305680973,0.0007491414484159549,9.816699407678565
4.5760000000000005,0,4,1,0.5906572146464071,97.45116065059612,0.5906572146464071,6.2498764820530335,160,9,1,1,0,1,0.08399999999999999,6.28,6.165876482053034,0.13963344368216585,0.4013340389042147,-6.396314415049904e-05,0.004001033353525171,0.0007283560911882113,9.798495322529254
4.6080000000000005,0,4,1,0.5906572146464071,98.04181786524254,0.0,6.25046713926768,160,9,1,0,0,-1,-0.009,6.241467139267679,6.25946713926768,0.14361611108019426,0.401344143450338,-6.396328020566444e-05,-0.03445970334146615,0.0006625485620147425,9.84868379699124
4.64,0,4,1,0.0,98.04181786524254,-0.5906572146464071,6.280590657214646,160,9,1,0,0,0,0.0,6.28,6.28,0.14761641229247507,0.40134861015020606,-6.396351294718321e-05,0.014470157786700175,-0.0051844507008601765,9.784245421095262
4.672,0,4,1,0.0,98.04181786524254,0.0,6.28,160,9,1,0,0,0,0.0,6.28,6.28,0.1516356121439492,0.4013539733378669,-6.39656332066061e-05,0.01813488947131419,0.0010950765371831683,9.77452336459668
4.704,0,4,1,0.0,98.04181786524254,0.0,6.28,160,9,1,0,0,0,0.0,6.28,6.28,0.15565481037116055,0.4013593467131311,-6.396677784614377e-05,0.0020682932289835484,0.00015930431240197132,9.857071963699381
4.736,0,4,1,0.0,98.04181786524254,0.0,6.28,160,9,1,0,0,0,0.0,6.28,6.28,0.1596740070395461,0.401364752661709,-6.396665365265321e-05,0.004300258955087336,9.307502113294283e-05,9.835866425066536
4.768,0,4,1,0.0,98.04181786524254,0.0,6.28,160,9,1,0,0,0,0.0,6.28,6.28,0.16369320266321383,0.40137020368657356,-6.396541253317345e-05,0.006322141743825686,2.980571819371064e-05,9.846877056078773
4.8,0,4,1,0.0,98.04181786524254,0.0,6.28,160,9,1,0,0,0,0.0,6.28,6.28,0.1677123976520183,0.40137570457001126,-6.396350921849744e-05,0.00788237234708388,-2.3848521085428007e-05,9.841922996004094
4.832,0,4,1,0.0,98.04181786524254,0.0,6.28,160,9,1,0,0,0,0.0,6.28,6.28,0.17173159231742596,0.4013812544976684,-6.396153178128347e-05,0.009023915109765447,-6.584137983542033e-05,9.801711868205306
4.864,0,4,1,0.0,98.04181786524254,0.0,6.28,160,9,1,0,0,0,0.0,6.28,6.28,0.17575078688387466,0.40138684894159654,-6.396003204944302e-05,0.009638936342756472,-9.33016422318087e-05,9.79553065191357
4.896,0,4,1,0.5906572146464071,98.63247507988895,0.5906572146464071,6.2498764820530335,160,9,1,1,1,1,0.09149999999999998,6.28,6.158376482053034,0.17976998150269632,0.40139248123090043,-6.395938568867776e-05,0.009605124481100133,-0.00010902790217449463,9.807622862405275
4.928,0,4,1,0.5906572146464071,99.22313229453536,0.0,6.25046713926768,160,9,1,0,1,-1,-0.0014999999999999996,6.2489671392676795,6.25196713926768,0.18375025739295614,0.4013980708946737,-6.397058810185714e-05,-0.036695006610848,-0.00018147457224865197,9.802197564041395
4.96,0,4,1,0.5906572146464071,99.81378950918177,0.0,6.25046713926768,160,9,1,0,1,0,0.0075,6.25796713926768,6.242967139267679,0.1877505612207737,0.40139771684469744,-6.39701990340618e-05,0.016539463860261977,-0.005978072784572919,9.883697536972907
4.992,0,4,1,0.5906572146464071,100.40444672382819,0.0,6.25046713926768,160,9,1,0,1,0,0.0075,6.25796713926768,6.242967139267679,0.1917508643085007,0.4013975455850037,-6.396694149380343e-05,-0.007233589533159262,-3.505790340898858e-05,9.826453277038707
5.024,0,4,1,0.5906572146464071,100.9951039384746,0.0,6.25046713926768,160,9,1,0,1,0,0.0075,6.25796713926768,6.242967139267679,0.1957511649894797,0.4013966809011106,-6.39611167289611e-05,-0.011037457707590305,-0.0009538681150761464,9.84017750510061
5.056,0,4,1,0.5906572146464071,101.58576115312101,0.0,6.25046713926768,160,9,1,0,1,0,0.0075,6.25796713926768,6.242967139267679,0.19975146384065906,0.40139513964360163,-6.395398485936447e-05,-0.01418286752881391,-0.0009851096024574282,9.789872503075935
5.088,0,4,1,0.5906572146464071,102.17641836776743,0.0,6.25046713926768,160,9,1,0,1,0,0.0075,6.25796713926768,6.242967139267679,0.2037517612362459,0.40139293212789995,-6.394494672819044e-05,-0.0140645870511235,-0.0010297749933433544,9.78722539191445
5.12,0,4,1,0.5906572146464071,102.76707558241384,0.0,6.25046713926768,160,9,1,0,1,0,0.0075,6.25796713926768,6.242967139267679,0.20775205771125396,0.40139006275147,-6.394946058088657e-05,-0.013129739340462954,-0.0010694228216074464,9.847070010770318
5.152,0,4,1,0.5906572146464071,103.35773279706025,0.0,6.25046713926768,160,9,1,0,1,0,0.0075,6.25796713926768,6.242967139267679,0.21175235340933365,0.4013865329181085,-6.395502824212834e-05,-0.011398199571300997,-0.0011020087429203227,9.805947503023551
5.184,0,4,1,0.5906572146464071,103.94839001170666,0.0,6.25046713926768,160,9,1,0,1,0,0.0075,6.25796713926768,6.242967139267679,0.21575264846567022,0.40138234115373,-6.39607633441553e-05,-0.009062006024508167,-0.001127565516130327,9.815211943134992
5.216,0,4,1,0.5906572146464071,104.53904722635308,0.0,6.25046713926768,160,9,1,0,1,0,0.0075,6.25796713926768,6.242967139267679,0.21975294292580394,0.4013774842362882,-6.396561514292534e-05,-0.006161030342733118,-0.001150219600656928,9.841984744922042
5.248,0,4,1,1.181188913326966,105.72023613968004,0.5905316986805589,6.220350022634971,160,9,1,0,1,0,0.0075,6.227850022634971,6.212850022634971,0.2237532367626529,0.40137195802967146,-6.396861549057449e-05,-0.0028676245955293997,-0.0011510333879557215,9.861823632955423
5.28,0,4,1,1.181188913326966,106.901425053007,0.0,6.220940554333652,160,9,1,0,1,0,0.0075,6.228440554333652,6.213440554333651,0.22773425561245994,0.4013657877522747,-6.396775902391821e-05,-0.022146675462891362,-0.0011622056926894608,9.863870116562763
5.312,0,4,1,1.181188913326966,108.08261396633397,0.0,6.220940554333652,160,9,1,0,1,0,0.0075,6.228440554333652,6.213440554333651,0.23171565087566348,0.4013589438225031,-6.396697237024199e-05,-0.0029935821131932203,-0.0011415897070733304,9.76209009143681
5.344,0,4,1,1.181188913326966,109.26380287966093,0.0,6.220940554333652,160,9,1,0,1,0,0.0075,6.228440554333652,6.213440554333651,0.23569704521498666,0.40135142292958503,-6.396630639891702e-05,-0.0032646061223580987,-0.001141335227486507,9.791107239331584
5.376,0,4,1,1.181188913326966,110.44499179298789,0.0,6.220940554333652,160,9,1,0,1,0,0.0075,6.228440554333652,6.213440554333651,0.23967843845208806,0.40134322179736,-6.396580016804383e-05,-0.002938440592370579,-0.0011348946257808672,9.832539529727491
5.408,0,4,1,1.181188913326966,111.62618070631486,0.0,6.220940554333652,160,9,1,0,1,0,0.0075,6.228440554333652,6.213440554333651,0.2436598304173911,0.40133433780466293,-6.39654446261944e-05,-0.002480268133644961,-0.0011274679534239484,9.811512532909983
5.44,0,4,1,0.5906572146464071,112.21683792096127,-0.5905316986805589,6.25105767096636,160,9,1,-1,0,-1,-0.08399999999999999,6.1670576709663605,6.28,0.24764122094190263,0.40132476898408576,-6.396519609961314e-05,-0.0018589392055210006,-0.0011211335905746916,9.793929721040088
5.472,0,4,1,1.181188913326966,113.39802683428823,0.5905316986805589,6.220350022634971,160,9,1,0,0,1,0.009,6.229350022634971,6.211350022634971,0.2516242627235358,0.40131450543333785,-6.396286706562143e-05,0.0008057165683707215,-0.0011133051023905426,9.80564838758054
5.5040000000000004,0,4,1,1.181188913326966,114.5792157476152,0.0,6.220940554333652,160,9,1,0,0,0,0.0,6.220940554333652,6.220940554333652,0.25560528977689273,0.40130987440995913,-6.396383227975921e-05,-0.00207824193759766,0.005103501436371274,9.855289762418487
5.5360000000000005,0,4,1,1.181188913326966,115.76040466094216,0.0,6.220940554333652,160,9,1,0,0,0,0.0,6.220940554333652,6.220940554333652,0.2595866918477304,0.4013043987801384,-6.396506327392693e-05,0.0010529015810897633,-0.0011602040797959966,9.829474629217488
5.5680000000000005,0,4,1,1.181188913326966,116.94159357426912,0.0,6.220940554333652,160,9,1,0,0,0,0.0,6.220940554333652,6.220940554333652,0.2635680918405083,0.4012989350909599,-6.396638202219376e-05,0.0014262092302165087,-0.00023903057596685366,9.850979631462756
5.6000000000000005,0,4,1,1.181188913326966,118.12278248759608,0.0,6.220940554333652,160,9,1,0,0,0,0.0,6.220940554333652,6.220940554333652,0.26754949034023223,0.4012934603876215,-6.396745022112064e-05,0.002075271146607083,-0.00017611979796874715,9.833448829630779
5.632,0,4,1,1.181188913326966,119.30397140092305,0.0,6.220940554333652,160,9,1,0,0,0,0.0,6.220940554333652,6.220940554333652,0.2715308878436206,0.40128796004585676,-6.396813306045607e-05,0.00261127943712346,-0.00011551943840872164,9.818858927065964
5.664,0,4,1,1.181188913326966,120.48516031425001,0.0,6.220940554333652,160,9,1,0,0,0,0.0,6.220940554333652,6.220940554333652,0.27551228474530226,0.4012824262724632,-6.396842784753796e-05,0.0029876587519119106,-5.935337480235995e-05,9.849811674089445
5.696,0,4,1,1.181188913326966,121.66634922757697,0.0,6.220940554333652,160,9,1,0,0,0,0.0,6.220940554333652,6.220940554333652,0.2794936813439665,0.40127685650584294,-6.396840319630552e-05,0.0031704145097923653,-1.2849677461957479e-05,9.777906018500342
5.728,0,4,1,1.181188913326966,122.84753814090394,0.0,6.220940554333652,160,9,1,0,0,0,0.0,6.220940554333652,6.220940554333652,0.28347507785378334,0.401271251920641,-6.396815182110535e-05,0.0031728953777233368,2.2900288690372742e-05,9.800125177957911
5.76,0,4,1,1.181188913326966,124.0287270542309,0.0,6.220940554333652,160,9,1,0,0,0,0.0,6.220940554333652,6.220940554333652,0.2874564744182755,0.40126561612024386,-6.396775828559562e-05,0.0029842761940114403,4.760535453899664e-05,9.830151023820513
5.792,0,4,1,1.181188913326966,125.20991596755786,0.0,6.220940554333652,160,9,1,0,0,0,0.0,6.220940554333652,6.220940554333652,0.2914378711246627,0.40125995405952586,-6.396728163918404e-05,0.002616004594082496,6.228771278268027e-05,9.81790600332764
5.824,0,4,1,1.181188913326966,126.39110488088482,0.0,6.220940554333652,160,9,1,0,0,0,0.0,6.220940554333652,6.220940554333652,0.29541926801738855,0.4012542712086583,-6.39667513021875e-05,0.0020981632966771717,6.916553200535258e-05,9.83906770288817
5.856,0,4,1,0.5906572146464071,126.98176209553124,-0.5905316986805589,6.25105767096636,160,9,1,-1,-1,-1,-0.09149999999999998,6.15955767096636,6.28,0.2994006651100766,0.40124857294640937,-6.39661730985619e-05,0.0014570563057984675,6.957905486875382e-05,9.791616646279785
5.888,0,4,1,1.181188913326966,128.16295100885822,0.5905316986805589,6.220350022634971,160,9,1,0,-1,1,0.0014999999999999996,6.221850022634971,6.218850022634971,0.30338131835749405,0.40124286831304157,-6.396576811124217e-05,-0.00015820246555018296,6.907585183698807e-05,9.835374876610903
5.92,0,4,1,1.181188913326966,129.34413992218518,0.0,6.220940554333652,160,9,1,0,-1,0,-0.0075,6.213440554333651,6.228440554333652,0.3073623483754591,0.4012430824294119,-6.396620737724075e-05,9.165279725662194e-05,0.005877914609253069,9.76736908322064
5.952,0,4,1,0.5906572146464071,129.93479713683158,-0.5905316986805589,6.25105767096636,160,9,1,0,-1,0,-0.0075,6.24355767096636,6.25855767096636,0.31134375501961503,0.40124312747564733,-6.396746839226232e-05,-0.0006627424664691451,-2.308327934019323e-05,9.797466279986677
5.984,0,4,1,0.5906572146464071,130.52545435147798,0.0,6.25046713926768,160,9,1,0,-1,0,-0.0075,6.242967139267679,6.25796713926768,0.31534443352647407,0.40124387522286187,-6.396902114472365e-05,0.020849635241304895,0.0008924258335928286,9.748931386648643
6.016,0,4,1,0.5906572146464071,131.11611156612437,0.0,6.25046713926768,160,9,1,0,-1,0,-0.0075,6.242967139267679,6.25796713926768,0.31934473287756093,0.4012453088300018,-6.396853234106811e-05,0.004657985414881725,0.0009388877906557769,9.800156038727856
6.048,0,4,1,0.5906572146464071,131.70676878077077,0.0,6.25046713926768,160,9,1,0,-1,0,-0.0075,6.242967139267679,6.25796713926768,0.3233450307324286,0.4012474150405888,-6.39662957383335e-05,0.007656791639145345,0.0009916414275782234,9.803549497429266
6.08,0,4,1,0.5906572146464071,132.29742599541717,0.0,6.25046713926768,160,9,1,0,-1,0,-0.0075,6.242967139267679,6.25796713926768,0.32734532747237033,0.4012501861418508,-6.396303505208645e-05,0.009829438364612603,0.0010345788846667118,9.802103963110532
6.112,0,4,1,0.5906572146464071,132.88808321006357,0.0,6.25046713926768,160,9,1,0,-1,0,-0.0075,6.242967139267679,6.25796713926768,0.33134562335704987,0.40125361877069887,-6.395969390965602e-05,0.01144789117362583,0.0010722096895079752,9.796594327720133
6.144,0,4,1,0.5906572146464071,133.47874042470997,0.0,6.25046713926768,160,9,1,0,-1,0,-0.0075,6.242967139267679,6.25796713926768,0.3353459185452202,0.4012577127544906,-6.395717740826333e-05,0.012328391365228711,0.0010931712127397193,9.848810465703586
6.176,0,4,1,0.5906572146464071,134.06939763935637,0.0,6.25046713926768,160,9,1,0,-1,0,-0.0075,6.242967139267679,6.25796713926768,0.3393462131067851,0.4012624700748393,-6.395612575218514e-05,0.01247061533477159,0.001130649961543209,9.848515365011668
6.208,0,4,1,0.5906572146464071,134.66005485400277,0.0,6.25046713926768,160,9,1,0,-1,0,-0.0075,6.242967139267679,6.25796713926768,0.34334650703770225,0.4012678939980632,-6.395676524774581e-05,0.011871877842858494,0.001134049302229946,9.821478354708919
6.24,0,4,1,0.5906572146464071,135.25071206864916,0.0,6.25046713926768,160,9,1,0,-1,0,-0.0075,6.242967139267679,6.25796713926768,0.3473468002757392,0.4012739883885237,-6.395886546988437e-05,0.010531564123504299,0.001141240450790938,9.822258725742568
6.272,0,4,1,0.5906572146464071,135.84136928329556,0.0,6.25046713926768,160,9,1,0,-1,0,-0.0075,6.242967139267679,6.25796713926768,0.3513470927156591,0.40128075720113254,-6.3961808057263e-05,0.008593457170759574,0.0011467666166960408,9.786301595766146
6.304,0,4,1,0.5906572146464071,136.43202649794196,0.0,6.25046713926768,160,9,1,0,-1,0,-0.0075,6.242967139267679,6.25796713926768,0.35534738422284795,0.4012882041359745,-6.396474774025482e-05,0.006256389064449616,0.0011462151736595157,9.786785993382116
6.336,0,4,1,0.0,136.43202649794196,-0.5906572146464071,6.280590657214646,160,9,1,0,-1,0,-0.0075,6.273090657214646,6.28,0.3593476746447509,0.40129633243027146,-6.396682565664065e-05,0.0034252014049137697,0.0011396229877663846,9.798553785796624
6.368,0,4,1,0.0,136.43202649794196,0.0,6.28,160,9,1,0,-1,0,-0.0075,6.2725,6.28,0.36336465304542415,0.4013051806537744,-6.396559333962139e-05,0.01993254760568056,0.0011344140013169386,9.846280585569522
6.4,0,4,1,0.5906572146464071,137.02268371258836,0.5906572146464071,6.2498764820530335,160,9,1,0,-1,0,-0.0075,6.242376482053033,6.257376482053034,0.367381442490786,0.4013143178592561,-6.396468705428815e-05,0.003561443746439536,0.0007428162253291191,9.821168499299574
6.432,0,4,1,1.181188913326966,138.20387262591532,0.5905316986805589,6.220350022634971,160,9,1,0,-1,0,-0.0075,6.212850022634971,6.227850022634971,0.37138135293866287,0.40132373659690584,-6.396582087866975e-05,-0.016238804002418238,0.0007605302671866061,9.785878149828662
6.464,0,4,1,1.181188913326966,139.3850615392423,0.0,6.220940554333652,160,9,1,1,0,1,0.08399999999999999,6.28,6.136940554333652,0.3753623650191858,0.4013337998290024,-6.396138932098297e-05,-0.025561048854171493,0.0011052519379038516,9.834283354598297
6.496,0,4,1,1.7714697400340056,141.1565312792763,0.5902808267070396,6.190836232171593,160,9,1,0,0,-1,-0.009,6.181836232171593,6.199836232171593,0.37933576830734517,0.4013445715593815,-6.394052734355095e-05,-0.022767395433943995,0.001111783100849633,9.826533121876615
6.5280000000000005,0,4,1,2.361374658175717,143.517905937452,0.5899049181417115,6.161341362173072,160,9,1,0,0,0,0.0,6.161341362173072,6.161341362173072,0.3832979110649944,0.40134821351883676,-6.390161641748986e-05,-0.02618563696262209,-0.006587152472508257,9.805545834593334
6.5600000000000005,0,4,1,3.5395591685500816,147.0574651060021,1.1781845103743644,6.101843857062121,160,9,1,0,0,0,0.0,6.101843857062121,6.101843857062121,0.3872411735370851,0.40135269210129443,-6.390056580065674e-05,-0.03350743549242701,0.0011019512603086567,9.806258030386179
6.5920000000000005,0,4,1,5.300926516525713,152.35839162252782,1.7613673479756318,6.013192306825739,160,9,1,0,0,0,0.0,6.013192306825739,6.013192306825739,0.39114635491217953,0.40135713481141233,-6.388491513754577e-05,-0.05197644151225915,0.0001789088243419891,9.783125358448197
6.6240000000000006,0,4,1,7.0523060078411755,159.410697630369,1.7513794913154621,5.925633320116626,160,9,1,0,0,0,0.0,5.925633320116626,5.925633320116626,0.39499479751444916,0.4013615467243346,-6.385721445629003e-05,-0.070308934097898,0.00012011763365188726,9.797144309023112
6.656000000000001,0,4,1,9.36650995701213,168.77720758738113,2.314203949170955,5.8093602982002235,160,9,1,0,0,0,0.0,5.8093602982002235,5.8093602982002235,0.3987872006731659,0.40136594357689104,-6.383521404928691e-05,-0.06921358964838427,6.182992875300185e-05,9.800717167376554
6.688,0,4,1,9.940573033112985,178.71778062049412,0.5740630761008543,5.7823972852682495,160,9,1,3,3,3,0.27449999999999997,6.056897285268249,5.50789728526825,0.40250518878585656,0.40137030810725477,-6.380226949080116e-05,-0.08717486575048666,1.4314366469197233e-05,9.785158102473247
6.72,0,4,1,11.650299437537637,190.36808005803175,1.7097264044246518,5.695775301718694,160,9,1,2,5,-1,0.1785,5.8742753017186935,5.517275301718694,0.4062059222784061,0.4013748900915774,-6.382898374045556e-05,-0.031295062439243015,3.985628445912127e-05,9.843278809156958
6.752,0,4,1,13.897176315015338,204.2652563730471,2.2468768774777015,5.582894307371755,160,9,1,1,6,-1,0.111,5.693894307371755,5.471894307371755,0.4098514337743139,0.4013546486715554,-6.384688741709922e-05,-0.06805152876534908,-0.025023012429714494,9.840407447398661
6.784,0,4,1,16.645038214675964,220.91029458772306,2.7478618996606254,5.445000227366542,160,9,1,0,6,-1,0.036,5.4810002273665415,5.409000227366542,0.41342453871648144,0.40131909446381525,-6.38886588154395e-05,-0.08503826903899254,-0.016269925273450024,9.8273906229182
6.816,0,4,1,18.788621982168497,239.69891656989157,2.143583767492533,5.338425317124083,160,9,1,2,8,2,0.22799999999999998,5.566425317124083,5.110425317124084,0.4169091446338972,0.4012750713796769,-6.392261019074613e-05,-0.10015924413821348,-0.010301720819709752,9.76820274689502
6.848,0,4,1,19.84069808396836,259.5396146538599,1.0520761017998623,5.2869130196997824,160,9,1,4,12,2,0.40800000000000003,5.694913019699783,4.878913019699782,0.42032563010364793,0.4012294482768093,-6.403136976219047e-05,-0.0798239801249368,-0.004073970452860853,9.753967288348328
6.88,0,4,1,22.409837371493268,281.9494520253532,2.5691392875249086,5.156938992137812,160,9,1,1,13,-3,0.1455,5.302438992137812,5.011438992137812,0.42370916782558266,0.401165902273144,-6.424970681111544e-05,-0.04464603833405352,-0.02013651752300706,9.781456457906332
6.912,0,4,1,23.90766049417249,305.8571125195257,1.4978231226792218,5.083119152168696,160,9,1,3,16,2,0.363,5.446119152168697,4.720119152168696,0.4270086663314124,0.4010711269631369,-6.437460702773089e-05,-0.09325616355573087,-0.0353863522095654,9.845109235643536
6.944,0,4,1,25.371561753095957,331.2286742726216,1.4639012589234675,5.009958011086279,160,9,1,3,19,0,0.36749999999999994,5.377458011086278,4.642458011086279,0.43026083920908137,0.40096705967863056,-6.467118179412194e-05,-0.05729460317681362,-0.01380124144598346,9.82291327575787
6.976,0,4,1,26.800834946954605,358.0295092195762,1.4292731938586485,4.938528979458411,160,9,1,4,23,1,0.4815,5.420028979458411,4.4570289794584115,0.43346536089557247,0.4008368230291568,-6.501073395647622e-05,-0.056370741665211596,-0.03132309092065287,9.810431925996433
7.008,0,4,1,28.651828452648743,386.6813376722249,1.850993505694138,4.845557583861869,160,9,1,3,26,-1,0.411,5.256557583861869,4.43455758386187,0.43662331191776477,0.400681080480385,-6.548020446353262e-05,-0.05430170064139798,-0.03189479292468554,9.797156233175704
7.04,0,4,1,29.10473162741869,415.7860692996436,0.452903174769947,4.824310515454296,160,9,1,5,31,2,0.6255,5.4498105154542955,4.198810515454296,0.43971991018266576,0.40049282286298454,-6.594756613142669e-05,-0.06728023112023288,-0.040971816117815876,9.803777106522702
7.072,0,4,1,30.439724380643128,446.22579368028676,1.3349927532244372,4.756678788214619,160,9,1,4,35,-1,0.5535,5.3101787882146185,4.203178788214619,0.4428015984883845,0.40027598029831446,-6.671595518869568e-05,-0.02085509539984917,-0.03502908490164869,9.823021466195078
7.104,0,4,1,30.876813079060415,477.10260675934717,0.4370886984172877,4.735722257348562,160,9,1,5,40,1,0.684,5.419722257348562,4.051722257348562,0.4458367793174764,0.4000171443952861,-6.747616156803186e-05,-0.049144198431128515,-0.0519992508317137,9.815631765901
7.136,0,4,1,31.309950382534495,508.4125571418817,0.43313730347407997,4.7140693435698005,160,9,1,4,44,-1,0.6209999999999999,5.3350693435698,4.093069343569801,0.4488555086682342,0.39972050424858147,-6.851139829640654e-05,-0.018172632267096204,-0.046372728260072486,9.761371015562212
7.168,0,4,1,31.739140795815157,540.1516979376968,0.42919041328066143,4.692613769795962,160,9,1,5,49,1,0.7515,5.444113769795962,3.9411137697959617,0.4518553060838831,0.3993771046368811,-6.956320745330619e-05,-0.017896239974091527,-0.05634669397526762,9.837779318025483
7.2,0,4,1,32.16439051359856,572.3160884512954,0.42524971778340515,4.671355224602289,160,9,1,5,54,0,0.78,5.451355224602289,3.8913552246022887,0.4548369649322244,0.3989923815556472,-7.087870836124457e-05,-0.01553160061691242,-0.05218720440677412,9.780220914811
7.232,0,4,1,33.82616175818528,606.1422502094807,1.661771244586717,4.587030140846149,160,9,1,2,56,-3,0.5429999999999999,5.1300301408461495,4.044030140846149,0.4577983818781567,0.39855747099501565,-7.231498632521115e-05,-0.013842524941972616,-0.0625775684171322,9.8105529583374
7.264,0,4,1,34.633677396549515,640.7759276060302,0.8075156383642366,4.54750861453416,160,9,1,2,58,0,0.585,5.13250861453416,3.96250861453416,0.460696614557863,0.39807799208376315,-7.332539550641837e-05,-0.05428944596017056,-0.06564056820422545,9.7717749655028
7.296,0,4,1,35.03164382952617,675.8075714355564,0.39796643297665213,4.528019842090715,160,9,1,3,61,1,0.6914999999999999,5.2195198420907145,3.836519842090715,0.4635634654818177,0.3975680493442715,-7.436295760284567e-05,-0.02430196470013034,-0.0478805312591261,9.8214560025497
7.328,0,4,1,35.42577211490818,711.2333435504646,0.39412828538200984,4.508317265969209,160,9,1,5,66,2,0.888,5.396317265969209,3.6203172659692093,0.4664112132427999,0.39702303730471655,-7.456438056505608e-05,-0.011294104374063434,-0.05117636654335554,9.77583562728482
7.36,0,4,1,35.81608074915566,747.0494242996202,0.3903086342474822,4.48880565390797,160,9,1,3,69,-2,0.7244999999999999,5.21330565390797,3.76430565390797,0.46923860229005154,0.39643563701418366,-7.501543375020014e-05,-0.010215492425771872,-0.058932478831470896,9.769880707170474
7.392,0,4,1,36.964289289465206,784.0137135890855,1.1482085403095468,4.430637326986431,160,9,1,2,71,-1,0.6735,5.1041373269864305,3.757137326986431,0.4720409022723961,0.3957937404455364,-7.52370486366092e-05,-0.0112010540412824,-0.07226164172196439,9.799955451748037
7.424,0,4,1,36.58531829969341,820.5990318887789,-0.3789709897717941,4.451113056005101,160,9,1,5,76,3,0.972,5.423113056005102,3.4791130560051013,0.47479561524516195,0.3951151475996217,-7.538634222612611e-05,-0.0360847763714555,-0.0616302782329656,9.806765684103933
7.456,0,4,1,37.33952466553367,857.9385565543125,0.7542063658402611,4.412269560357476,160,9,1,2,78,-3,0.708,5.120269560357476,3.704269560357476,0.4775536537813099,0.39439113068991527,-7.595055921118948e-05,0.015250509164176458,-0.057642308909085116,9.82277546364385
7.488,0,4,1,38.078882361565,896.0174389158775,0.7393576960313268,4.375316524225719,160,9,1,2,80,0,0.75,5.125316524225719,3.6253165242257186,0.48027009879285953,0.39361308044701937,-7.612030357605389e-05,-0.023878064930048824,-0.0784619423522414,9.810617525671644
7.5200000000000005,0,4,1,38.443053501836616,934.4604924177141,0.36417114027161546,4.357483153767897,160,9,1,2,82,0,0.765,5.122483153767897,3.592483153767897,0.4829509833671722,0.3927989996424744,-7.634733337062369e-05,-0.02251060904792649,-0.0607208315305811,9.795461798636817
7.5520000000000005,0,4,1,38.443053501836616,972.9035459195508,0.0,4.357847324908169,160,9,1,3,85,1,0.8714999999999999,5.2293473249081694,3.486347324908169,0.485606745948195,0.3919435020139992,-7.65708770294627e-05,-0.010350095037017372,-0.06299921378667853,9.806901944331113
7.5840000000000005,0,4,1,39.16050768848255,1012.0640536080333,0.7174541866459307,4.3212571613892266,160,9,1,1,86,-2,0.702,5.0232571613892265,3.6192571613892266,0.48824803718754517,0.39104215994456687,-7.69273352848928e-05,0.0017938327931411942,-0.06373713440190702,9.834548430486397
7.6160000000000005,0,4,1,39.51384357499568,1051.5778971830289,0.3533358865131362,4.303954485363703,160,9,1,2,88,1,0.819,5.122954485363703,3.484954485363703,0.49084820867942974,0.39009730435580336,-7.699595939622203e-05,-0.022684674225757828,-0.07080784768864483,9.859840818230577
7.648000000000001,0,4,1,39.863621507572276,1091.4415186906012,0.3497779325765933,4.286469146688809,160,9,1,2,90,0,0.825,5.111469146688809,3.461469146688809,0.49342320130106,0.3891156509051238,-7.722399163958248e-05,-0.00957689848105793,-0.0599571977268672,9.807056396562093
