Time,SetPointAngle,SensorAngleRow,SensorAngleWidth,Angle,IntegralAngle,DeltaAngle,BaseSpeed,SetPointError,SensorErrorRow,SensorErrorWidth,Error,IntegralError,DeltaError,DeltaSpeed,LeftSpeed,RightSpeed,X,Y,Z,Roll,Pitch,Yaw
0.032,0,4,1,1.181188913326966,1.181188913326966,1.181188913326966,5.5,160,9,1,-5,-5,-5,-0.45749999999999996,5.0425,5.9575,-0.01906340000000063,0.01816209999999909,-6.396729917784554e-05,4.6299602390096686e-08,-6.323787631613885e-08,9.779363589244984
0.064,0,4,1,5.885987833028316,7.0671767463552815,4.70479891970135,5.5,160,9,1,-3,-8,2,-0.26699999999999996,5.233,5.767,-0.021535798457815464,0.0206261017032253,-2.664246479836506e-05,4.09982038995239,-0.030447406583324396,9.614384220944665
0.096,0,4,1,5.885987833028316,12.953164579383596,0.0,5.5,160,9,1,-1,-9,2,-0.12450000000000001,5.3755,5.6245,-0.024050665474707588,0.02306812485219638,-6.110424713955294e-05,0.3589120642996362,0.03557118157268651,9.711351908424197
0.128,0,4,1,5.885987833028316,18.839152412411913,0.0,5.5,160,9,1,0,-9,1,-0.0585,5.4415,5.5585,-0.02658954538482835,0.025507468476023146,-7.523176430216695e-05,-0.0036531442319119732,0.01933723005481869,9.858468754702665
0.16,0,4,1,6.469819985173149,25.308972397585062,0.5838321521448329,5.5,160,9,1,1,-8,1,0.024,5.524,5.476,-0.029134128815673985,0.027939646625986324,-6.917706994562234e-05,0.16004541218213036,0.010416886607754078,9.845631533967826
0.192,0,4,1,7.0523060078411755,32.36127840542624,0.5824860226680268,5.5,160,9,1,1,-7,0,0.0225,5.5225,5.4775,-0.03168042432423396,0.030368036796228907,-6.909867503693441e-05,0.07175265006139198,0.004879740484098327,9.796724353724523
0.224,0,4,1,5.885987833028316,38.24726623845456,-1.1663181748128597,5.5,160,9,1,4,-3,3,0.3045,5.8045,5.1955,-0.03422536151358132,0.03279952158896189,-6.891171878240648e-05,-0.017574489924853692,-0.0009816497712964855,9.81663558728895
0.256,0,4,1,5.300926516525713,43.54819275498027,-0.5850613165026024,5.5,160,9,1,4,1,0,0.3075,5.8075,5.1925,-0.03676828555914712,0.03523265487309715,-6.757150129947653e-05,-0.018126632821315426,9.920244574150205e-05,9.791305883117483
0.28800000000000003,0,4,1,5.885987833028316,49.43418058800859,0.5850613165026024,5.5,160,9,1,2,3,-2,0.1545,5.6545,5.3455,-0.0392925218358773,0.03768601670506872,-6.689388799835036e-05,-0.0148231248418895,-0.023889264311856968,9.789508461332696
0.32,0,4,1,6.469819985173149,55.90400057318173,0.5838321521448329,5.5,160,9,1,1,4,-1,0.096,5.596,5.404,-0.0417975484315062,0.040159287519799115,-6.648766771269465e-05,-0.012476602546251147,-0.024080410965664278,9.775717864758052
0.352,0,4,1,6.469819985173149,62.37382055835488,0.0,5.5,160,9,1,1,5,0,0.11249999999999999,5.6125,5.3875,-0.04429273667399273,0.042642260566538366,-6.622757706102253e-05,-0.009509135455669697,-0.011181143579736024,9.859677871632194
0.384,0,4,1,7.6333305872312645,70.00715114558615,1.1635106020581159,5.5,160,9,1,0,5,-1,0.028499999999999998,5.5285,5.4715,-0.04678200928369871,0.04513103863916278,-6.604306854158734e-05,-0.005615526116605921,-0.006511771200686723,9.80358081178187
0.41600000000000004,0,4,1,5.885987833028316,75.89313897861446,-1.7473427542029487,5.5,160,9,1,4,9,4,0.40349999999999997,5.9035,5.0965,-0.049264459376533586,0.047626304069564196,-6.587870029281517e-05,-0.0017847776871176264,-0.008516576219285771,9.87829660058462
0.448,0,4,1,5.885987833028316,81.77912681164277,0.0,5.5,160,9,1,2,11,-2,0.2145,5.7145,5.2855,-0.0517458446321242,0.05012329534449752,-6.586062644295225e-05,0.002947187459637887,-0.0022122749168943415,9.752505140445587
0.48,0,4,1,6.469819985173149,88.24894679681591,0.5838321521448329,5.5,160,9,1,1,12,-1,0.15599999999999997,5.656,5.344,-0.05420283170207037,0.05264441112625424,-6.584160205126872e-05,0.006510154819883419,-0.034752909003843535,9.73580096361416
0.512,0,4,1,7.0523060078411755,95.3012528046571,0.5824860226680268,5.5,160,9,1,0,12,-1,0.081,5.581,5.419,-0.05664698691859027,0.05517765807732517,-6.584507594474889e-05,0.009200794796005992,-0.019532623627365183,9.744646151306604
0.544,0,4,1,5.885987833028316,101.1872406376854,-1.1663181748128597,5.5,160,9,1,3,15,3,0.36449999999999994,5.8645,5.1355,-0.05908206084809947,0.057719210342326494,-6.581154204051733e-05,0.011333435965735135,-0.01531034685127868,9.852102636281437
0.5760000000000001,0,4,1,6.469819985173149,107.65706062285855,0.5838321521448329,5.5,160,9,1,0,15,-3,0.08549999999999999,5.5855,5.4145,-0.0615131157868297,0.0602652354788453,-6.596633834873335e-05,0.011161460260367993,-0.009920635963460229,9.813843913377214
0.608,0,4,1,7.6333305872312645,115.29039121008982,1.1635106020581159,5.5,160,9,1,-1,14,-1,0.020999999999999998,5.521,5.479,-0.06392211566633244,0.0628315427052238,-6.593242357636614e-05,0.008500677477924858,-0.034144318791019396,9.84569401026649
0.64,0,4,1,7.0523060078411755,122.342697217931,-0.581024579390089,5.5,160,9,1,2,16,3,0.29700000000000004,5.797,5.203,-0.06632665452819526,0.06540167365987795,-6.58347156827447e-05,0.005837030530959019,-0.01141257646531456,9.802327718664102
0.672,0,4,1,7.0523060078411755,129.39500322577217,0.0,5.5,160,9,1,1,17,-1,0.1935,5.6935,5.3065,-0.06873109547815844,0.06797251622578748,-6.593480410528249e-05,0.003473939888816334,-0.006690180237804155,9.788881175801992
0.704,0,4,1,7.6333305872312645,137.02833381300343,0.581024579390089,5.5,160,9,1,0,17,-1,0.11850000000000001,5.6185,5.3815,-0.07111777425237414,0.07055976621664302,-6.592586854922179e-05,-0.00030107345522699386,-0.030345996083858878,9.82687848197072
0.736,0,4,1,7.0523060078411755,144.0806398208446,-0.581024579390089,5.5,160,9,1,2,19,2,0.3105,5.8105,5.1895,-0.07349307352578534,0.07315722475586531,-6.585063837210269e-05,-0.004103859602294143,-0.021952540653148098,9.793448335673135
0.768,0,4,1,7.6333305872312645,151.71397040807585,0.581024579390089,5.5,160,9,1,0,19,-2,0.12449999999999999,5.6245,5.3755,-0.07586200637482156,0.07576092935456492,-6.591199923347557e-05,-0.007007286747553593,-0.01596375770065742,9.824149859347735
0.8,0,4,1,6.469819985173149,158.183790393249,-1.1635106020581159,5.5,160,9,1,3,22,3,0.4169999999999999,5.917,5.083,-0.07821189848632948,0.0783815004764013,-6.582707853042442e-05,-0.010679486433531222,-0.03213995519425871,9.872104482596702
0.8320000000000001,0,4,1,7.6333305872312645,165.81712098048027,1.1635106020581159,5.5,160,9,1,-1,21,-4,0.04650000000000001,5.5465,5.4535,-0.08055513081764697,0.08100872375525137,-6.596862452808334e-05,-0.009238128264666749,-0.01672755803839629,9.841893814924934
0.864,0,4,1,6.469819985173149,172.28694096565343,-1.1635106020581159,5.5,160,9,1,2,23,3,0.34950000000000003,5.8495,5.1505,-0.08287196451050041,0.0836584884777119,-6.586075293628021e-05,-0.00928848328196568,-0.04150366471072724,9.81832999327716
0.896,0,4,1,8.212780189285867,180.4997211549393,1.7429602041127188,5.5,160,9,1,-2,21,-4,-0.02849999999999999,5.4715,5.5285,-0.08518719990955657,0.08631041356849593,-6.601880831144484e-05,-0.0067733650797085635,-0.010530721118821737,9.797983059782236
0.928,0,4,1,7.0523060078411755,187.55202716278046,-1.160474181444692,5.5,160,9,1,2,23,4,0.3585,5.8585,5.1415,-0.08748056451748074,0.08898086224380279,-6.586796929728377e-05,-0.00604771839298263,-0.036069376897884316,9.80366909657563
0.96,0,4,1,8.212780189285867,195.76480735206633,1.160474181444692,5.5,160,9,1,-1,22,-3,0.06299999999999999,5.563,5.437,-0.08977709069193655,0.09164885498703748,-6.604499484033112e-05,-0.0036841400793044005,-0.004393857619403448,9.80448902461604
0.992,0,4,1,8.212780189285867,203.9775875413522,0.0,5.5,160,9,1,1,23,2,0.2655,5.7655,5.2345,-0.09205091807117703,0.09433553839257766,-6.596305526018927e-05,-0.0024740766382561137,-0.037003127524875966,9.815097114639023
1.024,0,4,1,8.790543182813987,212.76813072416618,0.5777629935281201,5.5,160,9,1,-1,22,-2,0.07199999999999998,5.572,5.428,-0.09432184349905012,0.09702507853490583,-6.604556480524493e-05,3.6027033049835966e-05,-0.012398920451568082,9.865861663286983
1.056,0,4,1,8.212780189285867,220.98091091345205,-0.5777629935281201,5.5,160,9,1,1,23,2,0.2655,5.7655,5.2345,-0.09657612146854502,0.0997280629747363,-6.59538420128003e-05,0.0009062084268570483,-0.029370388695078683,9.76535603655022
1.088,0,4,1,7.6333305872312645,228.6142415006833,-0.5794496020546029,5.5,160,9,1,2,25,1,0.34650000000000003,5.8465,5.1535,-0.09882681898547925,0.1024344291806751,-6.600298171365905e-05,0.002934191036900515,-0.013215153644362121,9.85607921781715
1.12,0,4,1,9.36650995701213,237.98075145769545,1.7331793697808662,5.5,160,9,1,-1,24,-3,0.078,5.578,5.422,-0.10106097984707939,0.10515480215718137,-6.609589440567318e-05,0.004242619877584767,-0.029531400600889463,9.833359486459873
1.1520000000000001,0,4,1,8.790543182813987,246.77129464050944,-0.5759667741981431,5.5,160,9,1,1,25,2,0.2805,5.7805,5.2195,-0.1032727854388493,0.1078927583695463,-6.599458320212179e-05,0.003982595049401087,-0.03605728490960122,9.846358551656815
1.184,0,4,1,8.212780189285867,254.9840748297953,-0.5777629935281201,5.5,160,9,1,2,27,1,0.3615,5.8615,5.1385,-0.10548055333027176,0.11063443936983548,-6.606129927891682e-05,0.004991381025184094,-0.013752663693869493,9.841521964517984
1.216,0,4,1,8.790543182813987,263.77461801260927,0.5777629935281201,5.5,160,9,1,-1,26,-3,0.09300000000000001,5.593,5.407,-0.10767059640241766,0.11339064167788486,-6.6195069030257e-05,0.005010478226888561,-0.030777676123237525,9.814230468040302
1.248,0,4,1,8.790543182813987,272.56516119542323,0.0,5.5,160,9,1,1,27,2,0.2955,5.7955,5.2045,-0.10983701927663762,0.11616468844169107,-6.613111007914077e-05,0.003278830215470903,-0.03724771039944774,9.80226648610591
1.28,0,4,1,8.212780189285867,280.7779413847091,-0.5777629935281201,5.5,160,9,1,1,28,0,0.285,5.785,5.215,-0.11199844570423959,0.11894312988595787,-6.624753219900553e-05,0.003085318704937864,-0.015212347141918848,9.793460128211343
1.312,0,4,1,9.36650995701213,290.1444513417212,1.1537297677262632,5.5,160,9,1,-1,27,-2,0.1095,5.6095,5.3905,-0.11414092392645642,0.12173622454035632,-6.635202193377467e-05,0.0014418815139730149,-0.03241923058762564,9.809400848754656
1.344,0,4,1,9.36650995701213,299.5109612987333,0.0,5.5,160,9,1,0,27,1,0.2115,5.7115,5.2885,-0.11626489198209718,0.12454277362060184,-6.629881049283019e-05,-0.0010682602686902772,-0.03126199041442462,9.770217248115145
1.3760000000000001,0,4,1,9.36650995701213,308.87747125574543,0.0,5.5,160,9,1,1,28,1,0.294,5.794,5.206,-0.11838270828743523,0.1273541751364582,-6.632573122615157e-05,-0.002451843894973065,-0.016790598036508488,9.756420068891488
1.408,0,4,1,9.36650995701213,318.24398121275755,0.0,5.5,160,9,1,1,29,0,0.2925,5.7925,5.2075,-0.12048732104038179,0.13017570332718498,-6.640347656567888e-05,-0.0042912540838164395,-0.025611553679860583,9.811592087874127
1.44,0,4,1,9.36650995701213,327.61049116976966,0.0,5.5,160,9,1,1,30,0,0.3,5.8,5.2,-0.12257288513266118,0.13301144314101598,-6.646608921576265e-05,-0.006167081177655392,-0.03269539593998807,9.842612966361587
1.472,0,4,1,10.512627169921368,338.123118339691,1.1461172129092372,5.5,160,9,1,-1,29,-2,0.12450000000000001,5.6245,5.3755,-0.12463939563158555,0.13586119423430604,-6.653559127384537e-05,-0.005918923931774817,-0.03246325073846286,9.808524379015617
1.504,0,4,1,10.512627169921368,348.6357455096124,0.0,5.5,160,9,1,0,29,1,0.2265,5.7265,5.2735,-0.12668597987738306,0.13872464661006115,-6.645786941310815e-05,-0.006336341055349733,-0.03312955816559274,9.810322923006826
1.536,0,4,1,11.08256946302967,359.718314972642,0.5699422931083014,5.5,160,9,1,-1,28,-1,0.126,5.626,5.374,-0.1287253023093475,0.1415935127839009,-6.647405918002412e-05,-0.005261699442932746,-0.01864246725380164,9.808248170891183
1.568,0,4,1,11.650299437537637,371.36861441017965,0.5677299745079676,5.5,160,9,1,0,28,1,0.219,5.719,5.281,-0.13074993647235633,0.14447238908444404,-6.637397618552282e-05,-0.005211189736398283,-0.027270855234222603,9.8167580400226
1.6,0,4,1,11.08256946302967,382.4511838732093,-0.5677299745079676,5.5,160,9,1,1,29,1,0.3015,5.8015,5.1985,-0.13276714295045552,0.1473567159429037,-6.634457243560876e-05,-0.004042661724102173,-0.01876317726167002,9.799541145770736
1.6320000000000001,0,4,1,11.650299437537637,394.1014833107469,0.5677299745079676,5.5,160,9,1,1,30,0,0.3,5.8,5.2,-0.134770264790972,0.15025113364926884,-6.636888386176397e-05,-0.0030203874546037594,-0.026682936041560218,9.778487947471186
1.6640000000000001,0,4,1,11.08256946302967,405.18405277377656,-0.5677299745079676,5.5,160,9,1,1,31,0,0.3075,5.8075,5.1925,-0.13675327190644065,0.15315953649110972,-6.638825081560322e-05,-0.00209295771606954,-0.033632708003429386,9.828350923443304
1.696,0,4,1,11.650299437537637,416.8343522113142,0.5677299745079676,5.5,160,9,1,1,32,0,0.315,5.815,5.185,-0.13871614737703253,0.15608170596064652,-6.643534207084051e-05,-0.0011603510894313723,-0.03362447382664017,9.806991360548997
1.728,0,4,1,11.650299437537637,428.4846516488518,0.0,5.5,160,9,1,1,33,0,0.3225,5.8225,5.1775,-0.14065827037003736,0.15901781088171082,-6.652146699147495e-05,-0.0003182932724587734,-0.03420349755781943,9.857360545402631
1.76,0,4,1,11.08256946302967,439.56722111188145,-0.5677299745079676,5.5,160,9,1,1,34,0,0.33,5.83,5.17,-0.1425790429657275,0.16196799146520263,-6.664998175578453e-05,0.0003593559296591537,-0.0347117683977527,9.834409045203234
1.792,0,4,1,11.650299437537637,451.2175205494191,0.5677299745079676,5.5,160,9,1,1,35,0,0.3375,5.8375,5.1625,-0.1444778816121717,0.16493236783850113,-6.681879219147188e-05,0.0007928753677727086,-0.03553241447500863,9.791746705388004
1.824,0,4,1,11.650299437537637,462.8678199869567,0.0,5.5,160,9,1,0,35,-1,0.2535,5.7535,5.2465,-0.1463542098247898,0.16791104667557194,-6.702243934617914e-05,0.0009408065131832132,-0.03632040220197555,9.817196647795804
1.856,0,4,1,12.215719134130879,475.0835391210876,0.5654196965932421,5.5,160,9,1,0,35,0,0.2625,5.7625,5.2375,-0.14820733530724856,0.1709037621284516,-6.714812435734858e-05,0.00021077667802455496,-0.037205441904002684,9.803697286699364
1.8880000000000001,0,4,1,11.650299437537637,486.7338385586252,-0.5654196965932421,5.5,160,9,1,1,36,1,0.35400000000000004,5.854,5.146,-0.1500435130948596,0.17390675819367293,-6.727505503189776e-05,-0.00026107834675395024,-0.030501354402230497,9.77781448207717
1.92,0,4,1,12.215719134130879,498.9495576927561,0.5654196965932421,5.5,160,9,1,0,36,-1,0.261,5.761,5.239,-0.15186219123558634,0.17692065957931463,-6.748435425066833e-05,-0.0007170459564040041,-0.03142223306037014,9.81500124026699
1.952,0,4,1,13.339248903363371,512.2888065961195,1.1235297692324924,5.5,160,9,1,-1,35,-1,0.1785,5.6785,5.3215,-0.15365636719084214,0.1799488028408833,-6.75568123297398e-05,-0.0024584299531201685,-0.03950128513435094,9.807114585934855
1.984,0,4,1,11.650299437537637,523.9391060336571,-1.6889494658257345,5.5,160,9,1,3,38,4,0.546,6.046,4.954,-0.1554328479749184,0.18298686351217122,-6.75028329089021e-05,-0.0041775235461620945,-0.03187335758819403,9.818317344108545
2.016,0,4,1,12.215719134130879,536.154825167788,0.5654196965932421,5.5,160,9,1,1,39,-2,0.3495,5.8495,5.1505,-0.1571982557835124,0.18603276422515158,-6.785559298490285e-05,-0.0021131653501780256,-0.025367390994014038,9.813172974866601
2.048,0,4,1,12.215719134130879,548.3705443019188,0.0,5.5,160,9,1,1,40,0,0.375,5.875,5.125,-0.1589245193534181,0.18910076986368485,-6.797709672772337e-05,-0.0028320999545060808,-0.055992381113681315,9.743881625317204
2.08,0,4,1,12.215719134130879,560.5862634360496,0.0,5.5,160,9,1,1,41,0,0.3825,5.8825,5.1175,-0.16062627284729858,0.19218246859359506,-6.817234158701391e-05,-0.002501282211006975,-0.040095607884178534,9.803428715312469
2.112,0,4,1,12.778733188406045,573.3649966244557,0.5630140542751665,5.5,160,9,1,0,41,-1,0.2985,5.7985,5.2015,-0.16230153971244524,0.19527859834842665,-6.840269138231464e-05,-0.0021830900947219056,-0.04221139213145375,9.786234000937418
2.144,0,4,1,13.339248903363371,586.704245527819,0.5605157149573259,5.5,160,9,1,-1,40,-1,0.21599999999999997,5.716,5.284,-0.1639495701302652,0.1983887462899363,-6.853179539006993e-05,-0.0023223007617811605,-0.04300770225731916,9.760090691750891
2.176,0,4,1,15.004920382860202,601.7091659106792,1.6656714794968313,5.5,160,9,1,-2,38,-1,0.12599999999999997,5.626,5.374,-0.16557672418820257,0.2015091878371177,-6.852976731247865e-05,-0.0022465345422369902,-0.03623551992582542,9.789878494958383
2.208,0,4,1,15.004920382860202,616.7140862935394,0.0,5.5,160,9,1,0,38,2,0.303,5.803,5.197,-0.1671893308901652,0.2046365077295449,-6.835549610776682e-05,-0.0021612839443220302,-0.02942674572727439,9.810939638263912
2.24,0,4,1,14.452428251092973,631.1665145446324,-0.5524921317672291,5.5,160,9,1,2,40,2,0.46799999999999997,5.968,5.032,-0.16879454715269193,0.2077683342039033,-6.836317384472691e-05,-0.0008450396022260917,-0.02223900020736184,9.807880768665806
2.2720000000000002,0,4,1,14.452428251092973,645.6189427957254,0.0,5.5,160,9,1,2,42,0,0.46499999999999997,5.965,5.035,-0.1703786556271119,0.2109116683882932,-6.851123089830768e-05,-0.00040230472280030813,-0.03709293311057182,9.791855830387178
2.3040000000000003,0,4,1,15.554571270074414,661.1735140657998,1.1021430189814403,5.5,160,9,1,-1,41,-3,0.2055,5.7055,5.2945,-0.17192865839651753,0.21407239117645974,-6.863531651200329e-05,-0.0004800905964218577,-0.05082512226516341,9.783168593928147
2.336,0,4,1,15.004920382860202,676.17843444866,-0.5496508872142112,5.5,160,9,1,2,43,3,0.49950000000000006,5.9995,5.0005,-0.1734442027200611,0.21724865861053658,-6.848130930609334e-05,-0.00270167929606885,-0.05057200496391652,9.782435286928273
2.368,0,4,1,14.452428251092973,690.630862699753,-0.5524921317672291,5.5,160,9,1,2,45,0,0.48749999999999993,5.9875,5.0125,-0.1749459614858658,0.22043277058409083,-6.873373154945954e-05,-0.0004566804429439984,-0.029009564275668028,9.781056089347713
2.4,0,4,1,15.554571270074414,706.1854339698275,1.1021430189814403,5.5,160,9,1,-1,44,-3,0.22799999999999995,5.728,5.272,-0.1764107201997077,0.22363431541384385,-6.900790297939031e-05,-0.0007327806272908305,-0.05331823800949001,9.81889789628517
2.432,0,4,1,16.10130239915845,722.286736368986,0.5467311290840353,5.5,160,9,1,1,45,2,0.4305,5.9305,5.0695,-0.1778388849437936,0.22685086010851147,-6.899309779091756e-05,-0.0023110981685995455,-0.05237778107787974,9.789070929334502
2.464,0,4,1,16.10130239915845,738.3880387681445,0.0,5.5,160,9,1,1,46,0,0.42,5.92,5.08,-0.17925138505989321,0.23007516424975244,-6.928020321752756e-05,-7.0512686966014845e-06,-0.03125846794416846,9.855958459417435
2.496,0,4,1,15.554571270074414,753.942610038219,-0.5467311290840353,5.5,160,9,1,2,48,1,0.519,6.019,4.981,-0.18063204302533928,0.23331310922347104,-6.954086474143459e-05,-0.0002844849495803631,-0.04825552449633808,9.827460361102231
2.528,0,4,1,17.185706144224778,771.1283161824438,1.631134874150364,5.5,160,9,1,-1,47,-3,0.25049999999999994,5.7505,5.2495,-0.18198169998899202,0.23656465079560035,-6.994743471813898e-05,0.0008095004696410953,-0.048021543407549924,9.801807966753252
2.56,0,4,1,17.185706144224778,788.3140223266686,0.0,5.5,160,9,1,0,47,1,0.3615,5.8615,5.1385,-0.18329198967039423,0.23983050262003358,-6.995699405405037e-05,-0.0010855425895474338,-0.056185774017040654,9.851812994585648
2.592,0,4,1,17.72323661688633,806.0372589435549,0.5375304726615511,5.5,160,9,1,0,47,0,0.3525,5.8525,5.1475,-0.1845846825186599,0.24310372152404275,-6.984373131210982e-05,0.0006048402017515794,-0.03396866024794655,9.818274231233344
2.624,0,4,1,18.25756307538975,824.2948220189446,0.534326458503422,5.5,160,9,1,2,49,2,0.5355,6.0355,4.9645,-0.1858508027357911,0.24638705127944796,-6.972657530017988e-05,0.00012752998928563234,-0.04319046358413778,9.797956906459296
2.656,0,4,1,18.788621982168497,843.0834440011131,0.5310589067787461,5.5,160,9,1,0,49,-2,0.3495,5.8495,5.1505,-0.1870911531088059,0.2496812633274711,-6.982202301060968e-05,0.0014218828966947967,-0.042959022880141855,9.819357354746586
2.688,0,4,1,17.185706144224778,860.2691501453379,-1.6029158379437192,5.5,160,9,1,3,52,3,0.642,6.142,4.858,-0.18829056545125647,0.25298956791250726,-6.971094693301004e-05,-0.0003970388155049707,-0.05796165839685629,9.83349892295294
2.72,0,4,1,17.72323661688633,877.9923867622242,0.5375304726615511,5.5,160,9,1,-1,51,-4,0.2715,5.7715,5.2285,-0.18946431464593386,0.25630893914201996,-6.993003744600913e-05,0.0022136290849971026,-0.042858617845998356,9.79369638840822
2.7520000000000002,0,4,1,17.72323661688633,895.7156233791105,0.0,5.5,160,9,1,1,52,2,0.48300000000000004,5.983,5.017,-0.19058802159334526,0.25964317966204226,-6.972375975727342e-05,-0.0016413582901430046,-0.0667031345420595,9.789080512655472
2.7840000000000003,0,4,1,16.645038214675964,912.3606615937865,-1.078198402210365,5.5,160,9,1,3,55,2,0.6555,6.1555,4.8445,-0.1916922242513908,0.2629851660110305,-6.976137691566166e-05,0.0014151202268582665,-0.03679142341262708,9.839444879135193
2.816,0,4,1,18.25756307538975,930.6182246691762,1.612524860713787,5.5,160,9,1,-1,54,-4,0.294,5.794,5.206,-0.1927596496167375,0.26634032803927205,-7.000480949458619e-05,0.0018690572110158228,-0.05481955510631243,9.769599497845396
2.848,0,4,1,19.316352819504157,949.9345774886804,1.0587897441144065,5.5,160,9,1,0,54,1,0.414,5.914,5.086,-0.1937755451037527,0.2697086217163528,-6.980552631800571e-05,-0.0020357232159909475,-0.06853441911737834,9.804472450115297
2.88,0,4,1,19.316352819504157,969.2509303081845,0.0,5.5,160,9,1,2,56,2,0.588,6.088,4.912,-0.19476993515169702,0.27308388515860815,-6.97438768879708e-05,0.0007653946265074226,-0.03909040537068617,9.791535281896937
2.912,0,4,1,19.316352819504157,988.5672831276886,0.0,5.5,160,9,1,2,58,0,0.585,6.085,4.915,-0.19573300340840208,0.2764693618264999,-6.98992448859119e-05,0.0015892699595140784,-0.04958016758348456,9.805380366952487
2.944,0,4,1,18.788621982168497,1007.3559051098571,-0.5277308373356604,5.5,160,9,1,3,61,1,0.6914999999999999,6.1915,4.8085,-0.1966501493688352,0.27986761505447966,-7.004369971740608e-05,0.0008643577552825888,-0.06410582586158398,9.827727546675343
2.976,0,4,1,19.84069808396836,1027.1966031938255,1.0520761017998623,5.5,160,9,1,0,61,-3,0.4305,5.9305,5.0695,-0.19752151756065486,0.28327893974381907,-7.032144134646624e-05,0.0019132843870913372,-0.06399072468966997,9.836803108858016
3.008,0,4,1,20.879016880557412,1048.0756200743829,1.0383187965890528,5.5,160,9,1,-2,59,-2,0.27449999999999997,5.7745,5.2255,-0.19833783900970803,0.28670108016730833,-7.024200624458632e-05,-0.0018284437381259951,-0.07262377002778403,9.813416182599422
3.04,0,4,1,21.90317808183915,1069.978798156222,1.0241612012817392,5.5,160,9,1,-1,58,1,0.369,5.869,5.131,-0.1991208903677999,0.2901285321790783,-6.991293808408967e-05,-0.0020474437129733326,-0.05150979545755883,9.791607000870146
3.072,0,4,1,22.409837371493268,1092.3886355277152,0.5066592896541167,5.5,160,9,1,0,58,1,0.444,5.944,5.056,-0.19988398368125007,0.2935609530613165,-6.970597671458398e-05,0.0006423704320887549,-0.03908498939616999,9.85995843499203
3.104,0,4,1,22.409837371493268,1114.7984728992085,0.0,5.5,160,9,1,1,59,1,0.5265,6.0265,4.9735,-0.20061915730096702,0.2969998149417905,-6.961275977993703e-05,0.0006908259847304721,-0.047055098235355544,9.744769363836928
3.136,0,4,1,23.41211416930267,1138.2105870685111,1.002276797809401,5.5,160,9,1,0,59,-1,0.4335,5.9335,5.0665,-0.20131995947083606,0.3004465318860946,-6.963953270610473e-05,0.001182986038029408,-0.05354767232652317,9.76280269455653
3.168,0,4,1,22.409837371493268,1160.6204244400044,-1.002276797809401,5.5,160,9,1,3,62,3,0.717,6.217,4.783,-0.2019791731237556,0.30390037458778285,-6.954101478428426e-05,-0.0004587052791868056,-0.06008168514420835,9.78922655127962
3.2,0,4,1,22.91282839677165,1183.533252836776,0.5029910252783836,5.5,160,9,1,2,64,-1,0.621,6.121,4.879,-0.2026045875887457,0.30736376920525654,-6.982711417421843e-05,0.003788554012160015,-0.05343199197925641,9.804060744323412
3.232,0,4,1,22.91282839677165,1206.4460812335476,0.0,5.5,160,9,1,2,66,0,0.645,6.145,4.855,-0.20317205572428199,0.3108363203517955,-6.998783507746083e-05,0.0003457042459005326,-0.07602233062065665,9.832720313531459
3.2640000000000002,0,4,1,22.91282839677165,1229.3589096303192,0.0,5.5,160,9,1,2,68,0,0.66,6.16,4.84,-0.20368950350331813,0.3143170035828419,-7.019283890732919e-05,0.0012498855456383915,-0.06874597566653039,9.783276189737588
3.2960000000000003,0,4,1,23.41211416930267,1252.7710237996218,0.49928577253101736,5.5,160,9,1,0,68,-2,0.492,5.992,5.008,-0.2041548905258549,0.31780489830635383,-7.042328165690788e-05,0.0008582639478275828,-0.07054458302989569,9.8153917130307
3.3280000000000003,0,4,1,22.91282839677165,1275.6838521963934,-0.49928577253101736,5.5,160,9,1,2,70,2,0.6930000000000001,6.193,4.807,-0.20456687960299152,0.3212955797685408,-7.039789198281556e-05,-0.0030126290589992453,-0.07193291491726383,9.8148127263158
3.36,0,4,1,22.91282839677165,1298.596680593165,0.0,5.5,160,9,1,1,71,-1,0.5984999999999999,6.0985,4.9015,-0.2049397591791052,0.32479356778580637,-7.065806326623375e-05,0.0035468514588047513,-0.058889228009947635,9.787332965327892
3.392,0,4,1,23.90766049417249,1322.5043410873375,0.9948320974008382,5.5,160,9,1,0,71,-1,0.5235,6.0235,4.9765,-0.205256542444644,0.3282938731551644,-7.074999631721118e-05,-0.002096696153448499,-0.07546839905373347,9.77250386766391
3.424,0,4,1,23.90766049417249,1346.41200158151,0.0,5.5,160,9,1,1,72,1,0.624,6.124,4.876,-0.20552436429354004,0.33180448773359045,-7.06959014125947e-05,0.006872387695435418,-0.06940757447494707,9.751265735038023
3.456,0,4,1,23.41211416930267,1369.8241157508126,-0.49554632486982086,5.5,160,9,1,2,74,1,0.714,6.214,4.786,-0.20575156711843015,0.3353180685235852,-7.07774105447867e-05,0.0007920998340652487,-0.060732647121228944,9.827690731629394
3.488,0,4,1,23.90766049417249,1393.731776244985,0.49554632486982086,5.5,160,9,1,1,75,-1,0.6285,6.1285,4.8715,-0.20592944241666153,0.3388349234245711,-7.098315163508485e-05,0.0014054993761961085,-0.07056832529501704,9.834421511272465
3.52,0,4,1,24.399435924175126,1418.13121216916,0.4917754300026367,5.5,160,9,1,1,76,0,0.6449999999999999,6.145,4.855,-0.20604985239808055,0.342354077479382,-7.102559961074707e-05,0.0009510010110075184,-0.07807001086291566,9.795249569228398
3.552,0,4,1,24.887411710924507,1443.0186238800845,0.4879757867493808,5.5,160,9,1,1,77,0,0.6525,6.1525,4.8475,-0.20612045647537158,0.3458745532310917,-7.108068640396259e-05,0.0008986632694696677,-0.0714181878446151,9.800737666897374
3.584,0,4,1,24.887411710924507,1467.906035591009,0.0,5.5,160,9,1,0,77,-1,0.5685,6.0685,4.9315,-0.20613986234265363,0.34939568004766797,-7.1132133046891e-05,0.0009656069633601691,-0.07290233852345514,9.803794425068311
3.616,0,4,1,25.371561753095957,1493.2775973441048,0.48415004217144997,5.5,160,9,1,1,78,1,0.6689999999999999,6.169,4.831,-0.20610742816854513,0.35291628397258096,-7.10203246373723e-05,0.000477145520005762,-0.07375410468376413,9.834549844586185
3.648,0,4,1,25.851862542060406,1519.1294598861653,0.48030078896444905,5.5,160,9,1,0,78,-1,0.576,6.076,4.924,-0.2060315523238665,0.3564364403506917,-7.106755871912236e-05,0.0010460702949867573,-0.06568704231113473,9.832487060088054
3.68,0,4,1,25.851862542060406,1544.9813224282257,0.0,5.5,160,9,1,1,79,1,0.6765,6.1765,4.8235,-0.20590219025066786,0.3599547341804947,-7.093120221992981e-05,0.0006624676712806632,-0.07584776442002936,9.791783903217972
3.712,0,4,1,25.851862542060406,1570.833184970286,0.0,5.5,160,9,1,1,80,0,0.6749999999999999,6.175,4.825,-0.2057271329283489,0.36347138980095317,-7.09689238057188e-05,0.001213996473930484,-0.06826293379011313,9.81643942615696
3.744,0,4,1,26.800834946954605,1597.6340199172407,0.9489724048941994,5.5,160,9,1,0,80,-1,0.591,6.091,4.909,-0.20549834620811755,0.36698516194649117,-7.100025398961048e-05,0.0012686240695541037,-0.07649570550754432,9.83740062179238
3.7760000000000002,0,4,1,26.800834946954605,1624.4348548641954,0.0,5.5,160,9,1,1,81,1,0.6914999999999999,6.1915,4.8085,-0.20521589807357798,0.37049476730970604,-7.088480182431203e-05,0.0007204075556833171,-0.07652984890077634,9.823160381049306
3.8080000000000003,0,4,1,27.26947198845808,1651.7043268526534,0.46863704150347374,5.5,160,9,1,2,83,1,0.7815,6.28,4.7185,-0.20488742559323314,0.3740006724633428,-7.095134393121129e-05,0.0011998899509105875,-0.06880889913052433,9.793020647705934
3.84,0,4,1,26.800834946954605,1678.505161799608,-0.46863704150347374,5.5,160,9,1,2,85,0,0.7875,6.28,4.7125,-0.2045042700423191,0.37750116572564557,-7.117882376490164e-05,0.0013599441447967717,-0.07791020508916886,9.808447952392477
3.872,0,4,1,27.734190504985406,1706.2393523045935,0.9333555580308008,5.5,160,9,1,0,85,-2,0.6194999999999999,6.1195,4.8805,-0.20406070679960167,0.38099281421464903,-7.142011482594475e-05,-0.00022714790039721818,-0.08374804893367833,9.815259057098265
3.904,0,4,1,27.734190504985406,1733.973542809579,0.0,5.5,160,9,1,1,86,1,0.729,6.229,4.771,-0.20355565649783,0.38447181458395074,-7.137773229473621e-05,-0.0028952467240624977,-0.08558966831440755,9.805781900726531
3.936,0,4,1,27.734190504985406,1761.7077333145644,0.0,5.5,160,9,1,1,87,0,0.7274999999999999,6.2275,4.7725,-0.2030006594975144,0.38794935044009166,-7.15377006444886e-05,0.006993355153312793,-0.07287119596652694,9.791284179854882
3.968,0,4,1,27.734190504985406,1789.4419238195499,0.0,5.5,160,9,1,1,88,0,0.7349999999999999,6.234999999999999,4.765000000000001,-0.20239209926929097,0.39139546420751764,-7.168567325431703e-05,-0.02031944872930502,-0.08195232640966146,9.765501028582682
4.0,0,4,1,28.194979062462156,1817.636902882012,0.46078855747675007,5.5,160,9,1,0,88,-1,0.6509999999999999,6.151,4.849,-0.2017269180231617,0.39481532829808863,-7.183678267040465e-05,-0.013753881266304448,-0.08442047604646344,9.778625217432685
4.032,0,4,1,28.194979062462156,1845.8318819444742,0.0,5.5,160,9,1,0,88,0,0.6599999999999999,6.16,4.84,-0.20099927934336145,0.3982280679460631,-7.18121546781636e-05,0.006677679098043704,-0.08607503134063037,9.815619464103397
4.064,0,4,1,28.194979062462156,1874.0268610069363,0.0,5.5,160,9,1,1,89,1,0.7515,6.2515,4.7485,-0.20021837687669236,0.4016278707765415,-7.178580943368804e-05,4.5526603969974826e-05,-0.07944707104009513,9.809773367142844
4.096,0,4,1,28.651828452648743,1902.678689459585,0.4568493901865871,5.5,160,9,1,-1,88,-2,0.567,6.067,4.933,-0.1993846793546649,0.4050084049133587,-7.192056428052644e-05,-0.005056745366797603,-0.08092742024370929,9.807487606748413
4.128,0,4,1,27.734190504985406,1930.4128799645705,-0.9176379476633372,5.5,160,9,1,3,91,4,0.9435,6.28,4.5565,-0.19848620937139586,0.4083848315514965,-7.166510651037891e-05,0.013059605711581379,-0.08778990918517514,9.787809780420673
4.16,0,4,1,27.734190504985406,1958.147070469556,0.0,5.5,160,9,1,1,92,-2,0.7469999999999999,6.247,4.753,-0.19755882184487483,0.4116873932147894,-7.202237285810521e-05,-0.06118134226882495,-0.07431002687829487,9.823727801205612
4.192,0,4,1,28.194979062462156,1986.342049532018,0.46078855747675007,5.5,160,9,1,-1,91,-2,0.5895,6.0895,4.9105,-0.19654745022470196,0.4150190836599911,-7.211335062518032e-05,0.05237381161041828,-0.09649064757553875,9.813787982770176
4.224,0,4,1,28.194979062462156,2014.5370285944803,0.0,5.5,160,9,1,0,91,1,0.6915,6.1915,4.8085,-0.19547263145041258,0.41834130548087767,-7.188425212373284e-05,0.011014059101663264,-0.08938543251501843,9.793585836547338
4.256,0,4,1,28.651828452648743,2043.188857047129,0.4568493901865871,5.5,160,9,1,0,91,0,0.6825,6.1825,4.8175,-0.1943534528986777,0.42164118349950686,-7.185876515349542e-05,-0.006019344062898821,-0.07511245155753736,9.816320441993327
4.288,0,4,1,28.194979062462156,2071.3838361095914,-0.4568493901865871,5.5,160,9,1,1,92,1,0.7739999999999999,6.274,4.726,-0.19317895614401845,0.42492214566926834,-7.179945466435564e-05,0.0016349558621518556,-0.08480961873883568,9.839096193437918
4.32,0,4,1,28.651828452648743,2100.03566456224,0.4568493901865871,5.5,160,9,1,0,92,-1,0.6809999999999999,6.181,4.819,-0.19195216830753176,0.428177499347394,-7.192064520527251e-05,-0.0044433054882064725,-0.08431427242677723,9.856001277886964
4.352,0,4,1,28.651828452648743,2128.687493014889,0.0,5.5,160,9,1,1,93,1,0.7815,6.28,4.7185,-0.1906616154963535,0.43141454323023004,-7.184274563559745e-05,0.007369157370982492,-0.09257673760380415,9.791087987360507
4.384,0,4,1,28.194979062462156,2156.882472077351,-0.4568493901865871,5.5,160,9,1,1,94,0,0.7799999999999999,6.28,4.72,-0.18932016594630185,0.43462320596446075,-7.197592712850087e-05,-0.005422720459101849,-0.08465784935866605,9.808596212660612
4.416,0,4,1,29.10473162741869,2185.98720370477,0.9097525649565341,5.5,160,9,1,-1,93,-2,0.6045,6.1045,4.8955,-0.18791695518055895,0.4378060417366811,-7.210954700621365e-05,0.0023265929901371742,-0.09341485743915136,9.849584393389373
4.448,0,4,1,29.55368363230744,2215.5408873370775,0.4489520048887492,5.5,160,9,1,-1,92,0,0.615,6.115,4.885,-0.1864488203069157,0.4409713547539351,-7.18763985403971e-05,0.01198322501780409,-0.09237219389386031,9.837111899483933
4.48,0,4,1,29.998681539528512,2245.539568876606,0.44499790722107235,5.5,160,9,1,-1,91,0,0.6075,6.1075,4.8925,-0.1849357489442394,0.44411396832755107,-7.166223595555556e-05,-0.0002808705992820822,-0.07706468792161841,9.712359990076196
4.5120000000000005,0,4,1,29.998681539528512,2275.538250416135,0.0,5.5,160,9,1,0,91,1,0.6915,6.1915,4.8085,-0.18337664461814138,0.44723400990585355,-7.142203966526046e-05,0.0010425824886570753,-0.07870155642503844,9.88189887912809
4.5440000000000005,0,4,1,29.998681539528512,2305.5369319556635,0.0,5.5,160,9,1,0,91,0,0.6825,6.1825,4.8175,-0.18177467951803322,0.4503260537270623,-7.135343207586957e-05,-0.004254401657815866,-0.0783364584154867,9.816345907653483
4.5760000000000005,0,4,1,29.998681539528512,2335.535613495192,0.0,5.5,160,9,1,1,92,1,0.7739999999999999,6.274,4.726,-0.180120577855598,0.45339120117885223,-7.126122209820396e-05,0.0019132266651592108,-0.08530602214143877,9.798312555349478
4.6080000000000005,0,4,1,29.10473162741869,2364.640345122611,-0.8939499121098216,5.5,160,9,1,2,94,1,0.864,6.28,4.636,-0.1784181968834929,0.4564233573057862,-7.136494700127165e-05,-0.004054052214024069,-0.08493986281383761,9.848290718519502
4.64,0,4,1,29.55368363230744,2394.1940287549187,0.4489520048887492,5.5,160,9,1,0,94,-2,0.6869999999999999,6.187,4.813,-0.1766727273805401,0.4593967868864728,-7.159633389504025e-05,-0.02687382176187129,-0.09339768119115652,9.783891236723578
4.672,0,4,1,29.10473162741869,2423.2987603823376,-0.4489520048887492,5.5,160,9,1,2,96,2,0.888,6.28,4.612,-0.17484877143508532,0.4623642498757841,-7.156439761006259e-05,0.0360916924312247,-0.09615387223402534,9.77454691965842
4.704,0,4,1,29.55368363230744,2452.8524440146452,0.4489520048887492,5.5,160,9,1,0,96,-2,0.702,6.202,4.798,-0.1729982807199836,0.46526346243365646,-7.188035749527283e-05,-0.04125252809802876,-0.08634968724862979,9.856522704474486
4.736,0,4,1,29.55368363230744,2482.406127646953,0.0,5.5,160,9,1,0,96,0,0.72,6.22,4.78,-0.17106486129305157,0.4681595013892547,-7.191627778677274e-05,0.04323549736286885,-0.09691628145852624,9.835902255126918
4.768,0,4,1,29.55368363230744,2511.9598112792605,0.0,5.5,160,9,1,0,96,0,0.72,6.22,4.78,-0.16908288770950494,0.47102073323838844,-7.199445217802823e-05,-5.206387250846226e-05,-0.08663740067601162,9.846626723623586
4.8,0,4,1,29.55368363230744,2541.513494911568,0.0,5.5,160,9,1,0,96,0,0.72,6.22,4.78,-0.16705101601834993,0.4738464381609444,-7.206038494067708e-05,0.001191007630871177,-0.0884322918940051,9.841721779962455
4.832,0,4,1,29.55368363230744,2571.067178543876,0.0,5.5,160,9,1,0,96,0,0.72,6.22,4.78,-0.16496989732850015,0.47663582794882253,-7.210701060441325e-05,0.001251648590976044,-0.0894856988420692,9.801518389996723
4.864,0,4,1,29.55368363230744,2600.6208621761834,0.0,5.5,160,9,1,0,96,0,0.72,6.22,4.78,-0.1628401779468601,0.47938809650093256,-7.213172436627835e-05,0.001300227401717229,-0.08861351513410703,9.795339474430552
4.896,0,4,1,28.651828452648743,2629.272690628832,-0.9018551796586962,5.5,160,9,1,1,97,1,0.8114999999999999,6.28,4.6885,-0.1606625047781883,0.48210242608944187,-7.213528953918351e-05,0.0013279141975780606,-0.08854677087349803,9.807429787755732
4.928,0,4,1,28.651828452648743,2657.924519081481,0.0,5.5,160,9,1,1,98,0,0.8099999999999999,6.28,4.69,-0.1584466082884551,0.4847666020199363,-7.229341859274485e-05,-0.012776731423123276,-0.08927125202651119,9.801826490632065
4.96,0,4,1,29.10473162741869,2687.0292507089,0.452903174769947,5.5,160,9,1,-1,97,-2,0.6345,6.1345,4.8655,-0.15617836084944442,0.4873873232042981,-7.243900012822782e-05,0.0024917419194423495,-0.09552014185405082,9.883454148333271
4.992,0,4,1,29.10473162741869,2716.1339823363187,0.0,5.5,160,9,1,0,97,1,0.7364999999999999,6.2364999999999995,4.7635000000000005,-0.1538468206909598,0.4899776606130225,-7.222235770706388e-05,0.020237078141445215,-0.09445740956380896,9.826567213367213
5.024,0,4,1,29.10473162741869,2745.2387139637376,0.0,5.5,160,9,1,-1,96,-1,0.636,6.136,4.864,-0.15148023992801776,0.49252712067384846,-7.222665727946338e-05,-0.005134375535619356,-0.08210455489390533,9.839763626934777
5.056,0,4,1,29.10473162741869,2774.3434455911565,0.0,5.5,160,9,1,0,96,1,0.729,6.229,4.771,-0.14906427646381362,0.49503801131492686,-7.199395410863e-05,0.00716163274756451,-0.08971041848471727,9.789886031477746
5.088,0,4,1,28.194979062462156,2802.5384246536187,-0.9097525649565341,5.5,160,9,1,1,97,1,0.8114999999999999,6.28,4.6885,-0.14661405149207982,0.49750728043834697,-7.196080544291314e-05,-0.004426221336655928,-0.08181941787100382,9.786838403727453
5.12,0,4,1,27.26947198845808,2829.8078966420767,-0.9255070740040772,5.5,160,9,1,2,99,1,0.9015,6.28,4.5985,-0.14412993758399392,0.4999225413916873,-7.207158285960948e-05,-0.011962745031426225,-0.09041486841403992,9.846722892090142
5.152,0,4,1,27.734190504985406,2857.542087147062,0.4647185165273271,5.5,160,9,1,0,99,-2,0.7244999999999999,6.2245,4.7755,-0.1416213216691423,0.5022670087650458,-7.230074996974686e-05,-0.028392137607806393,-0.09660265002680304,9.805594967287448
5.184,0,4,1,27.734190504985406,2885.276277652047,0.0,5.5,160,9,1,-1,98,-1,0.651,6.151,4.849,-0.13903043787252148,0.504589677385628,-7.22752073769612e-05,0.04657290386740487,-0.09831875874658204,9.81521433166297
5.216,0,4,1,28.651828452648743,2913.928106104696,0.9176379476633372,5.5,160,9,1,-2,96,-1,0.5609999999999999,6.061,4.939,-0.13639590321025927,0.506868801599433,-7.210247653910255e-05,0.005250060128109108,-0.08999430167122945,9.84190525174215
5.248,0,4,1,28.194979062462156,2942.123085167158,-0.4568493901865871,5.5,160,9,1,1,97,3,0.8294999999999999,6.28,4.6705000000000005,-0.13372236745004576,0.5091095074564809,-7.172885879803623e-05,0.005717496332617958,-0.08260732472080846,9.861814170132634
5.28,0,4,1,28.194979062462156,2970.31806422962,0.0,5.5,160,9,1,-1,96,-2,0.627,6.127,4.873,-0.13104245445018226,0.5112944278327602,-7.189751874854544e-05,-0.02883718434051215,-0.07637799322689552,9.863157029239332
5.312,0,4,1,28.194979062462156,2998.5130432920823,0.0,5.5,160,9,1,0,96,1,0.729,6.229,4.771,-0.12829895486444853,0.5134424985047771,-7.165782539910598e-05,0.027722223548996647,-0.09513152731362828,9.762245730517867
5.344,0,4,1,29.10473162741869,3027.6177749195012,0.9097525649565341,5.5,160,9,1,-2,94,-2,0.5369999999999999,6.037,4.963,-0.12552802761127654,0.5155447436333054,-7.164749439200757e-05,-0.004882297059490781,-0.08100836348519014,9.790686292611193
5.376,0,4,1,28.651828452648743,3056.26960337215,-0.452903174769947,5.5,160,9,1,1,95,3,0.8145,6.28,4.6855,-0.12271112324072384,0.5176041635247328,-7.122868516789074e-05,0.012198300207846777,-0.08915869691848838,9.83271705320049
5.408,0,4,1,28.194979062462156,3084.464582434612,-0.4568493901865871,5.5,160,9,1,0,95,-1,0.7035,6.2035,4.7965,-0.11988945542040513,0.5196113270524628,-7.138447991503205e-05,-0.024976618890006255,-0.07352091837683765,9.810777387576284
5.44,0,4,1,28.651828452648743,3113.116410887261,0.4568493901865871,5.5,160,9,1,-1,94,-1,0.621,6.121,4.879,-0.1170146755092967,0.521572079831345,-7.134147452298248e-05,0.018299535534794794,-0.09520589697710949,9.793886792611424
5.472,0,4,1,27.734190504985406,3140.850601392246,-0.9176379476633372,5.5,160,9,1,2,96,3,0.897,6.28,4.603,-0.11410255822974778,0.5234856264521373,-7.114929560133286e-05,0.005898129563224505,-0.08662339585009549,9.805579338946714
5.5040000000000004,0,4,1,27.734190504985406,3168.5847918972313,0.0,5.5,160,9,1,0,96,-2,0.702,6.202,4.798,-0.11120394990063664,0.5253273522785924,-7.144745326374304e-05,-0.047874671394748936,-0.08153871120163893,9.854616972851172
5.5360000000000005,0,4,1,28.651828452648743,3197.23662034988,0.9176379476633372,5.5,160,9,1,-2,94,-2,0.5369999999999999,6.037,4.963,-0.1082284639503549,0.5271322483737816,-7.145746740790972e-05,0.04662121513374081,-0.09751595519575339,9.829515448849307
5.5680000000000005,0,4,1,28.651828452648743,3225.8884488025287,0.0,5.5,160,9,1,0,94,2,0.723,6.223,4.777,-0.1052144968895516,0.5288906226942083,-7.114228055012453e-05,0.010235901605252616,-0.08644846035922782,9.85108928955348
5.6000000000000005,0,4,1,28.651828452648743,3254.5402772551774,0.0,5.5,160,9,1,0,94,0,0.705,6.205,4.795,-0.10218786938398389,0.5306042134393137,-7.12224047603096e-05,-0.010051917730535685,-0.0721908341037706,9.832893224402952
5.632,0,4,1,28.194979062462156,3282.7352563176396,-0.4568493901865871,5.5,160,9,1,0,94,0,0.705,6.205,4.795,-0.09913015506332722,0.5322642097985769,-7.125849109525934e-05,0.0026273794423457685,-0.08897350524174721,9.8186872605595
5.664,0,4,1,26.800834946954605,3309.5360912645942,-1.394144115507551,5.5,160,9,1,1,95,1,0.7965,6.28,4.7035,-0.09604407360509534,0.5338709194956933,-7.129511798566017e-05,0.0014351511711922138,-0.08724561041044057,9.849600699470257
5.696,0,4,1,26.328293105170882,3335.864384369765,-0.47254184178372327,5.5,160,9,1,-1,94,-2,0.612,6.112,4.888,-0.09293944389797335,0.5354190845486667,-7.150865053468305e-05,-0.008296622307782064,-0.08757115643877782,9.777524359223209
5.728,0,4,1,26.800834946954605,3362.6652193167197,0.47254184178372327,5.5,160,9,1,0,94,1,0.714,6.214,4.786,-0.08979119896574074,0.5369133282923794,-7.135496738618248e-05,0.016710269278854026,-0.09452459133158056,9.800255051387342
5.76,0,4,1,26.800834946954605,3389.4660542636743,0.0,5.5,160,9,1,0,94,0,0.705,6.205,4.795,-0.08662672015043392,0.5383578374311255,-7.14165130719941e-05,-0.004948306332619267,-0.07919937683040032,9.829754015347131
5.792,0,4,1,27.734190504985406,3417.2002447686596,0.9333555580308008,5.5,160,9,1,-2,92,-2,0.5219999999999999,6.022,4.978,-0.08343686558916293,0.5397467526602652,-7.14510905073934e-05,0.0019376109539863094,-0.08761237159814535,9.817720448188691
5.824,0,4,1,27.734190504985406,3444.934435273645,0.0,5.5,160,9,1,0,92,2,0.708,6.208,4.792,-0.08021402572453143,0.5410847246575587,-7.109319059474435e-05,0.011298112351749691,-0.08642386658608547,9.839243195475417
5.856,0,4,1,27.040523909525856,3471.9749591831705,-0.6936665954595505,5.5,160,9,1,1,93,1,0.7815,6.28,4.7185,-0.07698503605388096,0.5423779773260866,-7.112477288736402e-05,-0.010012830463063963,-0.07123050346547333,9.791073331341517
5.888,0,4,1,25.851862542060406,3497.8268217252307,-1.1886613674654498,5.5,160,9,1,2,95,1,0.8715,6.28,4.6285,-0.07373805989411783,0.5436129643337609,-7.12970529654685e-05,-0.002805117795325673,-0.08791028590946992,9.835025584526964
5.92,0,4,1,26.328293105170882,3524.1551148304015,0.47643056311047616,5.5,160,9,1,0,95,-2,0.6945,6.1945,4.8055,-0.07049674344819046,0.5447739604937978,-7.158186348437887e-05,-0.02832478956849133,-0.09472444383507886,9.767031357538455
5.952,0,4,1,27.26947198845808,3551.4245868188596,0.941178883287197,5.5,160,9,1,-3,92,-3,0.43799999999999994,5.938,5.062,-0.06719714192890412,0.545880165054807,-7.159844148987675e-05,0.03801668439111398,-0.09589041415299483,9.797493014883678
5.984,0,4,1,27.734190504985406,3579.158777323845,0.4647185165273271,5.5,160,9,1,-2,90,1,0.5339999999999999,6.034,4.966,-0.06386581073397152,0.5469349771712884,-7.10839495054582e-05,0.01483521163469778,-0.08584430986831969,9.749247439029272
6.016,0,4,1,28.194979062462156,3607.353756386307,0.46078855747675007,5.5,160,9,1,-2,88,0,0.5099999999999999,6.01,4.99,-0.06052983426668473,0.547953938998871,-7.077280598417196e-05,-0.005449989951404351,-0.06296127145872527,9.799816323525139
6.048,0,4,1,28.651828452648743,3636.0055848389557,0.4568493901865871,5.5,160,9,1,0,88,2,0.6779999999999999,6.178,4.822,-0.05718010956054457,0.5489307709999488,-7.041236856402885e-05,0.0018776954709744454,-0.07160897489482546,9.803434719231133
6.08,0,4,1,27.734190504985406,3663.739775343941,-0.9176379476633372,5.5,160,9,1,2,90,2,0.843,6.28,4.657,-0.05379474305997199,0.5498733517304129,-7.040230700646431e-05,0.02522839591872475,-0.06924353683633888,9.801608888796613
6.112,0,4,1,27.734190504985406,3691.473965848926,0.0,5.5,160,9,1,1,91,-1,0.7484999999999999,6.2485,4.7515,-0.05041284004789681,0.550758703684788,-7.066284416164421e-05,-0.016612179541865665,-0.08101090005925078,9.796148935797321
6.144,0,4,1,27.734190504985406,3719.2081563539114,0.0,5.5,160,9,1,1,92,0,0.7649999999999999,6.265,4.735,-0.04701836556316174,0.5515799297534173,-7.079900414737154e-05,-0.0018149913349649281,-0.09021743096913853,9.848725853714598
6.176,0,4,1,26.328293105170882,3745.536449459082,-1.405897399814524,5.5,160,9,1,2,94,1,0.864,6.28,4.636,-0.043615551155123285,0.5523381742589727,-7.099495298294733e-05,-0.004463372311998171,-0.08928371136911728,9.84825880496109
6.208,0,4,1,27.26947198845808,3772.80592144754,0.941178883287197,5.5,160,9,1,-1,93,-3,0.5955,6.0955,4.9045,-0.04023877211362846,0.5530240502989562,-7.134377319816844e-05,-0.03790585408490851,-0.09114719438890334,9.821124952740744
6.24,0,4,1,26.800834946954605,3799.606756394495,-0.46863704150347374,5.5,160,9,1,0,93,1,0.7065,6.2065,4.7935,-0.03680937802997176,0.5536479897208487,-7.126497191239749e-05,0.04030504852821836,-0.09463275070554376,9.822460792319198
6.272,0,4,1,26.800834946954605,3826.4075913414495,0.0,5.5,160,9,1,0,93,0,0.6975,6.1975,4.8025,-0.03337799948268253,0.5542206835730435,-7.140901533411216e-05,-0.005551662834094137,-0.07648861473300746,9.785916756984443
6.304,0,4,1,26.328293105170882,3852.7358844466203,-0.47254184178372327,5.5,160,9,1,0,93,0,0.6975,6.1975,4.8025,-0.029936763062022583,0.5547334871962937,-7.152029737392956e-05,0.0017541900692278263,-0.08622880369868065,9.786620144429712
6.336,0,4,1,26.800834946954605,3879.536719393575,0.47254184178372327,5.5,160,9,1,-1,92,-1,0.606,6.106,4.894,-0.026487364145676227,0.5551870541210231,-7.161180988398547e-05,0.0012021694355921302,-0.08539720437953792,9.798373668909823
6.368,0,4,1,26.800834946954605,3906.3375543405296,0.0,5.5,160,9,1,-1,91,0,0.6075,6.1075,4.8925,-0.02302573521938271,0.5555822094740079,-7.148798679108663e-05,0.006086031549453031,-0.08535029008232126,9.846295235435797
6.4,0,4,1,26.328293105170882,3932.6658474457004,-0.47254184178372327,5.5,160,9,1,0,91,1,0.6915,6.1915,4.8085,-0.01955911014918607,0.5559264603321982,-7.13404668963441e-05,0.0005828345604661744,-0.07787453272174709,9.821013558253002
6.432,0,4,1,26.800834946954605,3959.466682392655,0.47254184178372327,5.5,160,9,1,0,91,0,0.6825,6.1825,4.8175,-0.016092977252956376,0.5562157704111246,-7.134941325816907e-05,-0.004337491395876313,-0.0813809879164098,9.785537436493001
6.464,0,4,1,27.734190504985406,3987.2008728976402,0.9333555580308008,5.5,160,9,1,-1,90,-1,0.591,6.091,4.909,-0.012581087728048262,0.5564607050461836,-7.132233510653146e-05,0.042236577697422,-0.07358824224364369,9.834156787894052
6.496,0,4,1,28.194979062462156,4015.3958519601024,0.46078855747675007,5.5,160,9,1,0,90,1,0.6839999999999999,6.184,4.816,-0.00906623347961509,0.5566520740568944,-7.109421398749163e-05,0.0006371607092731107,-0.07975597285906127,9.826550275663402
6.5280000000000005,0,4,1,27.26947198845808,4042.6653239485604,-0.9255070740040772,5.5,160,9,1,2,92,2,0.858,6.28,4.642,-0.005548858830454095,0.5567980908058712,-7.105140189219913e-05,0.0012468262231337024,-0.07144136314108421,9.805219528544269
6.5600000000000005,0,4,1,27.734190504985406,4070.3995144535456,0.4647185165273271,5.5,160,9,1,1,93,-1,0.7635,6.2635,4.7365,-0.002053700707748209,0.5568898212907885,-7.128295579401402e-05,-0.022242062874102995,-0.07983962131398034,9.805884372169377
6.5920000000000005,0,4,1,27.26947198845808,4097.668986442004,-0.4647185165273271,5.5,160,9,1,1,94,0,0.7799999999999999,6.28,4.72,0.0014679435791300956,0.5569165549750594,-7.1403831263743e-05,0.026267460183797553,-0.09022878650230001,9.78307665461455
6.6240000000000006,0,4,1,27.734190504985406,4125.403176946989,0.4647185165273271,5.5,160,9,1,0,94,-1,0.696,6.196,4.804,0.004989851109690613,0.5568825185123697,-7.158322200712976e-05,0.0017279488709420875,-0.0859709500446564,9.796972793624072
6.656000000000001,0,4,1,28.194979062462156,4153.5981560094515,0.46078855747675007,5.5,160,9,1,0,94,0,0.705,6.205,4.795,0.008510314247773865,0.556787262909562,-7.162074732392117e-05,0.0010012679769878232,-0.08639622609547867,9.80075620856554
6.688,0,4,1,27.26947198845808,4180.86762799791,-0.9255070740040772,5.5,160,9,1,1,95,1,0.7965,6.28,4.7035,0.012028674179341827,0.5566360285023522,-7.167766907093323e-05,0.001034680114978215,-0.08125625021645973,9.785063999454161
6.72,0,4,1,27.734190504985406,4208.601818502895,0.4647185165273271,5.5,160,9,1,0,95,-1,0.7035,6.2035,4.7965,0.015513833693727377,0.5564304480716784,-7.189913763594284e-05,-0.028399937358350474,-0.08172584180553803,9.84302591746369
6.752,0,4,1,26.800834946954605,4235.40265344985,-0.9333555580308008,5.5,160,9,1,2,97,2,0.8955,6.28,4.6045,0.019025249714712738,0.5561638954251766,-7.194758049565604e-05,0.030821230673976432,-0.08401509470101763,9.840466211010199
6.784,0,4,1,27.26947198845808,4262.672125438308,0.46863704150347374,5.5,160,9,1,0,97,-2,0.7094999999999999,6.2095,4.7905,0.022480142971312518,0.5558465516471668,-7.226228205989109e-05,-0.04978731403849275,-0.08172188671589099,9.827080968780601
6.816,0,4,1,26.800834946954605,4289.472960385263,-0.46863704150347374,5.5,160,9,1,1,98,1,0.819,6.28,4.681,0.025958704217228838,0.5554652463768851,-7.229820789496355e-05,0.030650379633824967,-0.08632884607802663,9.768400837145732
6.848,0,4,1,27.26947198845808,4316.742432373721,0.46863704150347374,5.5,160,9,1,-1,97,-2,0.6345,6.1345,4.8655,0.02940429447350279,0.5550286391234094,-7.250977931468582e-05,-0.024149836536675146,-0.08458791675270767,9.75377578046086
6.88,0,4,1,27.734190504985406,4344.476622878707,0.4647185165273271,5.5,160,9,1,-1,96,0,0.645,6.145,4.855,0.032863935123310525,0.5545221478107624,-7.237030836406214e-05,0.024291192222640284,-0.09209333529592285,9.78174219295388
6.912,0,4,1,27.734190504985406,4372.210813383692,0.0,5.5,160,9,1,0,96,1,0.729,6.229,4.771,0.036313548001400076,0.5539643380749436,-7.223325609780583e-05,-0.0009741260028924,-0.07836231293130429,9.844955297957883
6.944,0,4,1,27.26947198845808,4399.48028537215,-0.4647185165273271,5.5,160,9,1,1,97,1,0.8114999999999999,6.28,4.6885,0.039747082840360944,0.5533549471634512,-7.224685523775538e-05,-0.005803316160425432,-0.07961467549646586,9.822815814929411
6.976,0,4,1,27.26947198845808,4426.749757360609,0.0,5.5,160,9,1,0,97,-1,0.7184999999999999,6.2185,4.7815,0.04315418824928593,0.5526878451086411,-7.238510640009826e-05,-0.013475550847966549,-0.0878490666254795,9.81021365287379
7.008,0,4,1,27.734190504985406,4454.483947865594,0.4647185165273271,5.5,160,9,1,-2,95,-2,0.5445,6.0445,4.9555,0.046562378084408294,0.5519515676526003,-7.235448585725564e-05,0.016245667499258126,-0.0933326527122761,9.797289818638179
7.04,0,4,1,28.651828452648743,4483.135776318243,0.9176379476633372,5.5,160,9,1,-2,93,0,0.5475,6.0475,4.9525,0.04996813634528094,0.5511541860372369,-7.195925411662002e-05,0.011927651570804871,-0.08663215741236413,9.804007178598116
7.072,0,4,1,27.26947198845808,4510.405248306702,-1.3823564641906643,5.5,160,9,1,2,95,4,0.8985000000000001,6.28,4.6015,0.053362262177265946,0.5503142275262305,-7.156529149670611e-05,-0.0005250548825287133,-0.07114552756300478,9.823186209721593
7.104,0,4,1,27.734190504985406,4538.139438811687,0.4647185165273271,5.5,160,9,1,0,95,-2,0.6945,6.1945,4.8055,0.05669325839501646,0.5494436914005952,-7.17971539178578e-05,-0.05149999070288269,-0.07324675630528996,9.814913370165533
7.136,0,4,1,27.734190504985406,4565.873629316672,0.0,5.5,160,9,1,-1,94,-1,0.621,6.121,4.879,0.06004723940274493,0.5484935033225892,-7.17080252207996e-05,0.04353520548299643,-0.09621919867713509,9.761761803820168
7.168,0,4,1,28.651828452648743,4594.525457769321,0.9176379476633372,5.5,160,9,1,-2,92,-1,0.5309999999999999,6.031,4.969,0.0633889665199157,0.5474858434019503,-7.14896191084842e-05,0.005518359875299409,-0.084767235790775,9.837775645096931
7.2,0,4,1,27.734190504985406,4622.2596482743065,-0.9176379476633372,5.5,160,9,1,1,93,3,0.7995,6.28,4.7005,0.06672028928985155,0.5464273070504865,-7.110276185374326e-05,0.005926355843239979,-0.0778339016354925,9.780513582811471
7.232,0,4,1,28.194979062462156,4650.454627336769,0.46078855747675007,5.5,160,9,1,0,93,-1,0.6885,6.1885,4.8115,0.07003291090836415,0.5453284615801633,-7.125779324124691e-05,-0.00416753022218114,-0.07077598626414182,9.810048572584076
7.264,0,4,1,28.651828452648743,4679.106455789418,0.4568493901865871,5.5,160,9,1,0,93,0,0.6975,6.1975,4.8025,0.07331911404641088,0.544169381565735,-7.121328150664144e-05,-0.003846919554475988,-0.09177287877828845,9.771416170237536
7.296,0,4,1,28.651828452648743,4707.758284242067,0.0,5.5,160,9,1,0,93,0,0.6975,6.1975,4.8025,0.07658460121230577,0.5429554564307142,-7.120769835934453e-05,0.0005343113162384618,-0.08438322198013597,9.821301377362408
7.328,0,4,1,28.651828452648743,4736.410112694716,0.0,5.5,160,9,1,1,94,1,0.7889999999999999,6.28,4.711,0.07982868492108836,0.5416860315061052,-7.121899531329495e-05,0.0011334233723438167,-0.08551326533807413,9.774868748850215
7.36,0,4,1,28.194979062462156,4764.605091757178,-0.4568493901865871,5.5,160,9,1,1,95,0,0.7875,6.28,4.7125,0.08304263663975055,0.5403643744778913,-7.142000638541736e-05,-0.006876289963749061,-0.08540564635274575,9.769815498251312
7.392,0,4,1,28.194979062462156,4792.8000708196405,0.0,5.5,160,9,1,0,95,-1,0.7035,6.2035,4.7965,0.08623089753781667,0.5389802031720304,-7.16350659469428e-05,0.0023594337139187416,-0.09302384495197123,9.799595578474515
7.424,0,4,1,29.10473162741869,4821.904802447059,0.9097525649565341,5.5,160,9,1,-1,94,-1,0.621,6.121,4.879,0.0893984784127035,0.5375316103924919,-7.170151765628456e-05,0.008751337918946372,-0.09282920212175665,9.806703349550622
7.456,0,4,1,29.10473162741869,4851.009534074478,0.0,5.5,160,9,1,-1,93,0,0.6225,6.1225000000000005,4.8774999999999995,0.09254502609356233,0.5360270251131228,-7.15961503330205e-05,0.005807015667404671,-0.08568457874808516,9.823227188875068
7.488,0,4,1,29.10473162741869,4880.114265701897,0.0,5.5,160,9,1,0,93,1,0.7065,6.2065,4.7935,0.0956681999124112,0.5344759893172462,-7.147733748137652e-05,0.00040426620900756936,-0.07865452593717868,9.810178158951086
7.5200000000000005,0,4,1,29.55368363230744,4909.667949334204,0.4489520048887492,5.5,160,9,1,0,93,0,0.6975,6.1975,4.8025,0.09876278694409536,0.5328807588610979,-7.151460007906972e-05,-0.004263659426320027,-0.07933812974953817,9.79526820265353
7.5520000000000005,0,4,1,29.55368363230744,4939.221632966512,0.0,5.5,160,9,1,0,93,0,0.6975,6.1975,4.8025,0.10182991636687787,0.5312321586490522,-7.151164223216655e-05,0.0019254347403581977,-0.08660776867371753,9.806824160854342
7.5840000000000005,0,4,1,29.55368363230744,4968.775316598819,0.0,5.5,160,9,1,0,93,0,0.6975,6.1975,4.8025,0.10486850226766727,0.5295316307010337,-7.149672442875905e-05,0.0013033213009311937,-0.08555121045851263,9.834580972891002
7.6160000000000005,0,4,1,29.55368363230744,4998.329000231126,0.0,5.5,160,9,1,1,94,1,0.7889999999999999,6.28,4.711,0.10787762476767604,0.5277796378009857,-7.147532824174768e-05,0.0012871383573353744,-0.08554062894978565,9.859468286977993
7.648000000000001,0,4,1,28.651828452648743,5026.980828683775,-0.9018551796586962,5.5,160,9,1,2,96,1,0.879,6.28,4.621,0.11084926875275325,0.525980632871565,-7.163560094616828e-05,-0.006534524789126963,-0.08649018721506112,9.80691849029919
7.68,0,4,1,29.10473162741869,5056.085560311194,0.452903174769947,5.5,160,9,1,0,96,-2,0.702,6.202,4.798,0.11375887345476983,0.5241407381719092,-7.191047012907771e-05,-0.028849173293828467,-0.09400611438626683,9.837058773124184
7.712,0,4,1,28.651828452648743,5084.737388763843,-0.452903174769947,5.5,160,9,1,1,97,1,0.8114999999999999,6.28,4.6885,0.1166632433945844,0.5222198902850199,-7.191724323578168e-05,0.040361295736131814,-0.09655823498338308,9.848090219954447
7.744,0,4,1,28.651828452648743,5113.389217216492,0.0,5.5,160,9,1,0,97,-1,0.7184999999999999,6.2185,4.7815,0.11952082946760108,0.5202583207619789,-7.213856370836581e-05,-0.014158598144504332,-0.08666776522869522,9.809797884583345
7.776,0,4,1,28.194979062462156,5141.584196278955,-0.4568493901865871,5.5,160,9,1,1,98,1,0.819,6.28,4.681,0.12235145181300616,0.5182326355235517,-7.218686387927033e-05,0.015997211485692286,-0.09526533814572785,9.831453863377634
7.808,0,4,1,28.651828452648743,5170.236024731604,0.4568493901865871,5.5,160,9,1,-1,97,-2,0.6345,6.1345,4.8655,0.1251260415215108,0.5161678307719867,-7.241080083929957e-05,-0.020048511416805494,-0.09184655819318335,9.834377430537181
7.84,0,4,1,29.10473162741869,5199.340756359023,0.452903174769947,5.5,160,9,1,-1,96,0,0.645,6.145,4.855,0.1278831539671503,0.5140354741561235,-7.22498446276594e-05,0.027754630045204818,-0.09106806098588954,9.812644058646116
7.872,0,4,1,28.651828452648743,5227.992584811672,-0.452903174769947,5.5,160,9,1,1,97,2,0.8204999999999999,6.28,4.6795,0.1306065503587106,0.511862106487106,-7.20901872851426e-05,-1.2732711746568132e-05,-0.08080683172343403,9.874403037016402
7.904,0,4,1,29.998681539528512,5257.9912663512005,1.3468530868797686,5.5,160,9,1,-2,95,-3,0.5355,6.0355,4.9645,0.13327257243498075,0.5096606424872657,-7.225651882016709e-05,-0.025034764081537583,-0.08648449264808164,9.816261782872312
7.936,0,4,1,29.55368363230744,5287.544949983508,-0.44499790722107235,5.5,160,9,1,1,96,3,0.822,6.28,4.678,0.13592282803535705,0.5073887632832668,-7.1808496118533e-05,0.03387899625202736,-0.09081462544137613,9.818822015911357
7.968,0,4,1,29.998681539528512,5317.543631523036,0.44499790722107235,5.5,160,9,1,-1,95,-2,0.6195,6.1195,4.8805,0.1385212789118422,0.505102732398462,-7.194945467184008e-05,-0.02794331726645837,-0.07342901512588759,9.829338413440347
8.0,0,4,1,29.998681539528512,5347.542313062565,0.0,5.5,160,9,1,1,96,2,0.813,6.28,4.687,0.14109257738652858,0.5027495330828636,-7.167738941836303e-05,0.02552163247966845,-0.09568003865624257,9.818465634405484
8.032,0,4,1,29.55368363230744,5377.095996694872,-0.44499790722107235,5.5,160,9,1,1,97,0,0.8024999999999999,6.28,4.6975,0.1436125219816213,0.5003724508284857,-7.180296720015432e-05,-0.019392469397318497,-0.08063770115312821,9.819590375117961
8.064,0,4,1,30.439724380643128,5407.5357210755155,0.886040748335688,5.5,160,9,1,-1,96,-2,0.627,6.127,4.873,0.14608799849765924,0.497943262915265,-7.192139111669021e-05,0.005750989316199053,-0.09547811748287827,9.86469083858659
8.096,0,4,1,30.876813079060415,5438.412534154576,0.4370886984172877,5.5,160,9,1,-1,95,0,0.6375000000000001,6.1375,4.8625,0.14852767183850418,0.4954542614761173,-7.170744130412417e-05,0.018074297961422788,-0.09405542657498563,9.837035861825697
8.128,0,4,1,31.309950382534495,5469.72248453711,0.43313730347407997,5.5,160,9,1,-1,94,0,0.63,6.13,4.87,0.15092858280187144,0.49292935706035623,-7.15306577766927e-05,4.983901484606812e-05,-0.08064314462652694,9.799144816746907
8.16,0,4,1,30.439724380643128,5500.162208917754,-0.8702260018913677,5.5,160,9,1,2,96,3,0.897,6.28,4.603,0.15329036219181794,0.49036761503370013,-7.13414300062571e-05,0.001280963609815118,-0.08137740551290348,9.773332483952622
8.192,0,4,1,30.439724380643128,5530.601933298397,0.0,5.5,160,9,1,1,97,-1,0.7934999999999999,6.28,4.7065,0.1555789543609312,0.4878068215945235,-7.161694977181506e-05,-0.047655888087028614,-0.08183655069738205,9.817797161920087
8.224,0,4,1,30.439724380643128,5561.04165767904,0.0,5.5,160,9,1,1,98,0,0.8099999999999999,6.28,4.69,0.1578376972302194,0.48517102403344764,-7.17693236935834e-05,0.03781319570547853,-0.09760227845738982,9.768420213498878
