Time,SetPointAngle,SensorAngleRow,SensorAngleWidth,Angle,IntegralAngle,DeltaAngle,BaseSpeed,SetPointError,SensorErrorRow,SensorErrorWidth,Error,IntegralError,DeltaError,DeltaSpeed,LeftSpeed,RightSpeed,X,Y,Z,Roll,Pitch,Yaw
0.032,0,4,1,21.305783617828766,21.305783617828766,21.305783617828766,5.193405035490732,160,9,1,-132,-132,-132,-1.32,3.873405035490732,6.28,-0.41499300000000033,0.3799999999999952,-6.395993683771736e-05,-3.90630374455461,-0.009670035540892475,9.779349755802938
0.064,0,4,1,29.24882633654698,50.55460995437575,7.943042718718214,4.8096156404539325,160,9,1,-119,-251,13,-1.19,3.6196156404539326,5.999615640453932,-0.4118191370997538,0.3800142305409617,-3.306480295424928e-05,3.728325202590041,-0.07281656936724086,9.64754496521431
0.096,0,4,1,29.24882633654698,79.80343629092273,0.0,4.817558683172651,160,9,1,-115,-366,4,-1.1500000000000001,3.6675586831726505,5.967558683172651,-0.4088098933990744,0.38014920051594875,-6.126214545272395e-05,0.15752617993506543,0.10504319564659881,9.735040564329047
0.128,0,4,1,28.810793742973065,108.6142300338958,-0.4380325935739151,4.839898345444921,160,9,1,-112,-478,3,-1.12,3.7198983454449213,5.9598983454449215,-0.4057232380097239,0.38036021832138395,-7.488426620099776e-05,0.07622424532209351,0.07300782563192172,9.852050626525749
0.16,0,4,1,30.11373315098243,138.72796318487823,1.3029394080093653,4.7730104030428695,160,9,1,-99,-577,13,-0.99,3.7830104030428693,5.76301040304287,-0.4026299138476,0.3806497857740134,-7.256444597522095e-05,0.17185323647271505,0.08856885625943732,9.843136143382342
0.192,0,4,1,29.24882633654698,167.97678952142522,-0.8649068144354501,4.818423589987086,160,9,1,-88,-665,11,-0.88,3.938423589987086,5.698423589987086,-0.39959223685607326,0.3810205911711045,-7.673581442930316e-05,0.03135867154118606,0.08844940959121941,9.796844185900614
0.224,0,4,1,28.369046293278583,196.3458358147038,-0.8797800432683971,4.86242746537934,160,9,1,-78,-743,10,-0.78,4.0824274653793395,5.64242746537934,-0.3965337385130571,0.38146145938196196,-8.116518544869916e-05,0.022111633620739864,0.07543792492516006,9.816201670492253
0.256,0,4,1,27.02158159117705,223.36741740588084,-1.347464702101533,4.93026838514325,160,9,1,-66,-809,12,-0.66,4.2702683851432495,5.59026838514325,-0.39345900096500364,0.38196526672558195,-8.41003963678727e-05,0.022646815688782053,0.07268489655588217,9.791686107059014
0.28800000000000003,0,4,1,26.565051177077994,249.93246858295885,-0.45653041409905626,4.952203971560199,160,9,1,-55,-864,11,-0.55,4.4022039715601995,5.502203971560199,-0.39038610030639453,0.38252344097602003,-8.375930710733878e-05,0.0053247242976815125,0.06800703847675584,9.793255107957163
0.32,0,4,1,25.173524524530173,275.10599310748904,-1.391526652547821,5.022715300426039,160,9,1,-44,-908,11,-0.44,4.582715300426039,5.46271530042604,-0.387300078035892,0.3831332442389072,-8.306789801140226e-05,0.02043906902813843,0.0640537953675471,9.776229803056422
0.352,0,4,1,24.22774531795417,299.3337384254432,-0.9457792065760025,5.069558513308868,160,9,1,-35,-943,9,-0.35000000000000003,4.719558513308868,5.419558513308868,-0.3841699220723787,0.383791642393753,-8.199082350656556e-05,0.05044967493196576,0.05648917386313327,9.860119130880962
0.384,0,4,1,22.782405730481685,322.11614415592487,-1.4453395874724855,5.142325053063388,160,9,1,-26,-969,9,-0.26,4.882325053063388,5.402325053063388,-0.3810107618605943,0.38448686295791146,-8.058914473703382e-05,0.03421610445948385,0.04905805216339883,9.80389542041082
0.41600000000000004,0,4,1,21.80140948635181,343.9175536422767,-0.980996244129873,5.19091052192654,160,9,1,-18,-987,8,-0.18,5.01091052192654,5.37091052192654,-0.3778063022040901,0.3852155674279199,-7.894102707854678e-05,0.049390620160247714,0.04310307896679489,9.878492278378227
0.448,0,4,1,20.304473709960448,364.22202735223715,-1.4969357763913642,5.266273250278369,160,9,1,-10,-997,8,-0.1,5.166273250278369,5.366273250278368,-0.37457515973280514,0.38596845157613874,-7.716915426286657e-05,0.029902880683301433,0.03886215384336964,9.752708297175662
0.48,0,4,1,19.290046219188728,383.5120735714259,-1.0144274907717197,5.316512116531335,160,9,1,-4,-1001,6,-0.04,5.276512116531335,5.356512116531335,-0.37129906076449587,0.3867427917497674,-7.539625681793512e-05,0.046527415244223214,0.032290618234739256,9.735763194203415
0.512,0,4,1,17.22343619113144,400.73550976255734,-2.066610028057287,5.420894800471485,160,9,1,3,-998,7,0.03,5.4508948004714854,5.390894800471485,-0.3679920549221454,0.3875271183732831,-7.376788858045637e-05,0.03122004122689309,0.024268863759245266,9.744508661072782
0.544,0,4,1,16.17215901578257,416.90766877833994,-1.051277175348872,5.47244332638622,160,9,1,8,-990,5,0.08,5.5524433263862205,5.39244332638622,-0.3646188646245686,0.3883266018082331,-7.235225556260702e-05,0.06597348570161829,0.02066049249253113,9.85184970502162
0.5760000000000001,0,4,1,15.109575122340447,432.0172439006804,-1.0625838934421221,5.52558382777642,160,9,1,13,-977,5,0.13,5.65558382777642,5.39558382777642,-0.3612119001013532,0.3891291670307672,-7.113064638439304e-05,0.032718172939372396,0.015244570400908443,9.813837677446463
0.608,0,4,1,14.036243467926484,446.0534873686069,-1.0733316544139626,5.57926115825809,160,9,1,17,-960,4,0.17,5.74926115825809,5.40926115825809,-0.3577754953438729,0.38992901256214996,-6.983479582396007e-05,0.028292041566702886,0.009266191849533851,9.845598854322743
0.64,0,4,1,12.95276451337554,459.00625188198245,-1.0834789545509445,5.633445253285775,160,9,1,21,-939,4,0.21,5.843445253285775,5.423445253285775,-0.3543018573966661,0.39072255486546753,-6.861036276845783e-05,0.036351651132580265,0.0023431998104148284,9.8022040442102
0.672,0,4,1,11.309932474020227,470.3161843560027,-1.6428320393553122,5.716146208338344,160,9,1,25,-914,4,0.25,5.966146208338344,5.466146208338344,-0.3507886307499594,0.3915069181315413,-6.756126783527723e-05,0.03973217530009175,-0.002973350668645474,9.788905123536567
0.704,0,4,1,10.203973721731703,480.5201580777344,-1.1059587522885241,5.770907272665704,160,9,1,28,-886,3,0.28,6.050907272665704,5.490907272665703,-0.34721765115179887,0.3922829236798556,-6.673638556181465e-05,0.05963870787653688,-0.008238434649938576,9.826553280192748
0.736,0,4,1,8.530765609948096,489.0509236876825,-1.673208111783607,5.855134927614379,160,9,1,31,-855,3,0.31,6.165134927614378,5.545134927614379,-0.3436060201223456,0.39304338600268707,-6.619868306902317e-05,0.04348488708461755,-0.014080254469299669,9.793102265603036
0.768,0,4,1,7.406912128495223,496.4578358161777,-1.1238534814528736,5.910778247056692,160,9,1,33,-822,2,0.33,6.240778247056692,5.580778247056692,-0.33993522511069035,0.3937895918978449,-6.591614487423333e-05,0.06379182644366488,-0.01890698877736012,9.823999126556911
0.8,0,4,1,6.277298489597548,502.73513430577526,-1.1296136388976743,5.967264689159021,160,9,1,35,-787,2,0.35000000000000003,6.28,5.617264689159021,-0.3362230812330032,0.3945150527797641,-6.589909407020596e-05,0.04770920700829262,-0.02411070840462851,9.871684558189056
0.8320000000000001,0,4,1,5.710593137499568,508.44572744327485,-0.5667053520979799,5.995037048477119,160,9,1,36,-751,1,0.36,6.28,5.635037048477119,-0.332481043322029,0.3952157655727983,-6.608617446434567e-05,0.038375066742174085,-0.028513226426618275,9.841887451503544
0.864,0,4,1,4.573921259900898,513.0196487031758,-1.1366718775986708,6.052440608882554,160,9,1,38,-713,2,0.38,6.28,5.672440608882554,-0.3287279374122514,0.3958883574762682,-6.640776527894535e-05,0.017612694667775493,-0.03099389348599871,9.81796825092478
0.896,0,4,1,4.004172940709389,517.0238216438852,-0.5697483191915085,6.080361101283722,160,9,1,39,-674,1,0.39,6.28,5.690361101283722,-0.3249583652394816,0.3965350344116385,-6.678906014928598e-05,0.021210981048409006,-0.03240581486823469,9.798161350276287
0.928,0,4,1,2.862405226111651,519.8862268699968,-1.141767714597738,6.138021506409016,160,9,1,41,-633,2,0.41000000000000003,6.28,5.728021506409016,-0.3211790460255719,0.3971565864099417,-6.717183272595718e-05,0.013064501192306382,-0.03269146258567852,9.803366555368969
0.96,0,4,1,2.2906100426385936,522.1768369126354,-0.5717951834730575,6.166041293051543,160,9,1,42,-591,1,0.42,6.28,5.746041293051543,-0.31738428286381287,0.3977549481384524,-6.748747908703022e-05,0.017184253568503637,-0.03371126165556901,9.80484007908744
0.992,0,4,1,1.1457628381751443,523.3225997508106,-1.1448472044634492,6.223856705295706,160,9,1,44,-547,2,0.44,6.28,5.7838567052957055,-0.3135805857577659,0.39833084808904007,-6.773075391052277e-05,0.009628055987621677,-0.03359513443819999,9.814908936564825
1.024,0,4,1,0.5729386976839008,523.8955384484944,-0.5728241404912435,6.251925889256296,160,9,1,45,-502,1,0.45,6.28,5.801925889256296,-0.3097620505410298,0.39888600686533293,-6.786218233706919e-05,0.014607435011831395,-0.03413794587946498,9.866101048988448
1.056,0,4,1,0.5729386976839008,524.4684771461783,0.0,6.251353065115805,160,9,1,47,-455,2,0.47000000000000003,6.28,5.781353065115805,-0.3059350615903228,0.39942112308463706,-6.79046044435895e-05,0.00777706390416975,-0.033639237377231505,9.765257270164442
1.088,0,4,1,1.1457628381751443,525.6142399843535,0.5728241404912435,6.222139033950752,160,9,1,48,-407,1,0.48,6.28,5.742139033950751,-0.3021117731128376,0.3999352546899627,-6.78880989755555e-05,-0.006496842360663796,-0.03367344030695476,9.856245850593805
1.12,0,4,1,1.7183580016555007,527.332597986009,0.5725951634803563,6.193509504753745,160,9,1,49,-358,1,0.49,6.28,5.703509504753745,-0.29829460317220075,0.40042668330074443,-6.783301216412366e-05,-0.013518361757397339,-0.03554487614973058,9.833416902331333
1.1520000000000001,0,4,1,2.862405226111651,530.1950032121206,1.1440472244561504,6.135735691469962,160,9,1,50,-308,1,0.5,6.28,5.635735691469962,-0.2944869030126665,0.40089364185820514,-6.772935405967816e-05,-0.016014602664404513,-0.03706464370772084,9.846192340156406
1.184,0,4,1,2.862405226111651,533.0574084382322,0.0,6.136879738694418,160,9,1,49,-259,-1,0.49,6.28,5.646879738694418,-0.29069798028315885,0.4013332589644616,-6.766818213433876e-05,-0.02461742998625661,-0.03911836602779589,9.841599209255342
1.216,0,4,1,3.4336303624506144,536.4910388006828,0.5712251363389633,6.10774725674113,160,9,1,49,-210,0,0.49,6.28,5.61774725674113,-0.28690444842134794,0.40174537625758877,-6.762300897644909e-05,-0.0008876202958664252,-0.04161043503802437,9.814253943730266
1.248,0,4,1,4.573921259900898,541.0649600605836,1.1402908974502832,6.050163646107505,160,9,1,49,-161,0,0.49,6.28,5.560163646107505,-0.28311548222890054,0.40212908380632784,-6.761431937995707e-05,-0.009459136353476064,-0.041374881024985904,9.802014813682394
1.28,0,4,1,4.573921259900898,545.6388813204845,0.0,6.051303937004955,160,9,1,48,-113,-1,0.48,6.28,5.571303937004956,-0.279342420179214,0.4024823350904378,-6.766253063409527e-05,-0.02024051795064716,-0.042788036194762465,9.79353451460981
1.312,0,4,1,4.573921259900898,550.2128025803854,0.0,6.051303937004955,160,9,1,46,-67,-2,0.46,6.28,5.591303937004955,-0.27556313215588785,0.4028047196420137,-6.776430397162879e-05,0.002296928440945908,-0.04518224530384914,9.809307129107513
1.344,0,4,1,5.142764557884225,555.3555671382696,0.5688432979833271,6.022292928807806,160,9,1,45,-22,-1,0.45,6.28,5.572292928807806,-0.27177498472064765,0.4030969821524196,-6.78958174649396e-05,0.0069491174081714735,-0.044303498354968815,9.770004617748965
1.3760000000000001,0,4,1,5.142764557884225,560.4983316961539,0.0,6.022861772105789,160,9,1,43,21,-2,0.43,6.28,5.592861772105789,-0.26799073806840723,0.4033591036699428,-6.807115967930912e-05,-0.004924661293802605,-0.04367435390156706,9.7564128599205
1.408,0,4,1,5.710593137499568,566.2089248336534,0.5678285796153437,5.993902514545407,160,9,1,41,62,-2,0.41000000000000003,6.28,5.583902514545406,-0.26419799355317863,0.4035911999491423,-6.82514952428017e-05,0.008604571099205665,-0.04476832477846981,9.811599555133443
1.44,0,4,1,5.710593137499568,571.919517971153,0.0,5.9944703431250215,160,9,1,39,101,-2,0.39,6.28,5.604470343125022,-0.26040646822633734,0.4037936541582772,-6.844080801134134e-05,-0.0011998465327132317,-0.04418085755219634,9.842561587692295
1.472,0,4,1,5.710593137499568,577.6301111086526,0.0,5.9944703431250215,160,9,1,37,138,-2,0.37,6.28,5.624470343125021,-0.25660697086747186,0.4039666437708181,-6.860918468971737e-05,0.007459314052393802,-0.04439046814968493,9.808521683865349
1.504,0,4,1,6.277298489597548,583.9074095982502,0.5667053520979799,5.965568370168025,160,9,1,35,173,-2,0.35000000000000003,6.28,5.615568370168026,-0.25279996228085594,0.40411106712820205,-6.874611016288029e-05,0.006754416185640409,-0.04378326463771981,9.810181456965742
1.536,0,4,1,5.710593137499568,589.6180027357498,-0.5667053520979799,5.995037048477119,160,9,1,32,205,-3,0.32,6.28,5.675037048477119,-0.24899490359015278,0.40422713370970736,-6.861752915217172e-05,-0.002323064426576949,-0.043705080942115726,9.808555959343396
1.568,0,4,1,6.277298489597548,595.8953012253473,0.5667053520979799,5.965568370168025,160,9,1,30,235,-2,0.3,6.265568370168025,5.6655683701680255,-0.24517017086132892,0.40431532000726433,-6.846357687347211e-05,0.018956713180589006,-0.043863762700141085,9.81663352769928
1.6,0,4,1,5.710593137499568,601.6058943628469,-0.5667053520979799,5.995037048477119,160,9,1,27,262,-3,0.27,6.265037048477119,5.72503704847712,-0.24135263853978225,0.40437770301123044,-6.832860420565717e-05,-0.0071484695167930426,-0.041211666666160086,9.79955110476324
1.6320000000000001,0,4,1,5.710593137499568,607.3164875003465,0.0,5.9944703431250215,160,9,1,25,287,-2,0.25,6.2444703431250215,5.7444703431250215,-0.23751601552638418,0.40441489836546274,-6.817803737876708e-05,0.018649264986336945,-0.041055582935116894,9.778522311906926
1.6640000000000001,0,4,1,5.710593137499568,613.0270806378461,0.0,5.9944703431250215,160,9,1,22,309,-3,0.22,6.214470343125021,5.774470343125022,-0.23367967897162623,0.4044293747153304,-6.803798825698489e-05,-0.00015025013547648327,-0.03861090234455144,9.82831350608995
1.696,0,4,1,5.142764557884225,618.1698451957303,-0.5678285796153437,6.023429600685404,160,9,1,20,329,-2,0.2,6.223429600685404,5.823429600685404,-0.2298433991711278,0.40442360311161385,-6.790806015834205e-05,0.00014379272206056735,-0.03628387614930574,9.806990208201453
1.728,0,4,1,5.142764557884225,623.3126097536145,0.0,6.022861772105789,160,9,1,18,347,-2,0.18,6.202861772105789,5.842861772105789,-0.22598870724116665,0.4043995811924528,-6.773486888980718e-05,0.01838626486409646,-0.033942926815276754,9.857427324870727
1.76,0,4,1,5.142764557884225,628.4553743114988,0.0,6.022861772105789,160,9,1,16,363,-2,0.16,6.182861772105789,5.862861772105789,-0.2221345418393045,0.4043590677973304,-6.750809101466193e-05,-0.0003206072807358703,-0.03194329690201209,9.8344939494899
1.792,0,4,1,5.142764557884225,633.598138869383,0.0,6.022861772105789,160,9,1,14,377,-2,0.14,6.162861772105789,5.882861772105789,-0.21828056393632445,0.4043038521295134,-6.722728645834966e-05,-0.0003344440671230484,-0.029844200765381607,9.791835094828523
1.824,0,4,1,4.573921259900898,638.1720601292839,-0.5688432979833271,6.051872780302938,160,9,1,12,389,-2,0.12,6.171872780302938,5.931872780302938,-0.2144267820938058,0.40423569991190317,-6.690941185390556e-05,-0.0008141299153385888,-0.027563983120545046,9.817269225815455
1.856,0,4,1,4.573921259900898,642.7459813891847,0.0,6.051303937004955,160,9,1,10,399,-2,0.1,6.151303937004955,5.951303937004956,-0.2105546303692914,0.4041559856940144,-6.657100590047073e-05,0.020476229926854744,-0.025249496434586415,9.80364585842151
1.8880000000000001,0,4,1,4.004172940709389,646.7501543298941,-0.5697483191915085,6.080361101283722,160,9,1,8,407,-2,0.08,6.160361101283722,6.000361101283722,-0.20668302157813714,0.40406678455965933,-6.62167748971855e-05,0.002599277842681115,-0.02292328776539814,9.777835860998527
1.92,0,4,1,4.004172940709389,650.7543272706035,0.0,6.079791352964531,160,9,1,7,414,-1,0.07,6.149791352964531,6.00979135296453,-0.20279297785203543,0.4039693677477964,-6.586599555843432e-05,0.02188832245575499,-0.020260952548788996,9.8150829037105
1.952,0,4,1,3.4336303624506144,654.1879576330541,-0.5705425782587747,6.108889024455728,160,9,1,5,419,-2,0.05,6.1588890244557275,6.058889024455728,-0.1989034161175285,0.4038658891463231,-6.555487856424631e-05,0.0037025463858770024,-0.017893302088215168,9.806967435527184
1.984,0,4,1,3.4336303624506144,657.6215879955047,0.0,6.108318481877469,160,9,1,4,423,-1,0.04,6.148318481877469,6.068318481877469,-0.19499535214024555,0.40375659851349394,-6.525230302978358e-05,0.023200055885818388,-0.016187916461127452,9.818195563027095
2.016,0,4,1,3.4336303624506144,661.0552183579553,0.0,6.108318481877469,160,9,1,3,426,-1,0.03,6.138318481877469,6.078318481877469,-0.19108772180280995,0.40364373419486427,-6.499728749058929e-05,0.005111587246231916,-0.013548891476901713,9.813537961654092
2.048,0,4,1,2.862405226111651,663.9176235840669,-0.5712251363389633,6.137450963830757,160,9,1,2,428,-1,0.02,6.157450963830756,6.117450963830757,-0.18718014561651636,0.4035280735101324,-6.477609773720104e-05,0.005633840383719974,-0.011742268834620493,9.743678947634809
2.08,0,4,1,2.862405226111651,666.7800288101785,0.0,6.136879738694418,160,9,1,1,429,-1,0.01,6.146879738694418,6.126879738694418,-0.18325397142033095,0.4034098498375901,-6.458331817529514e-05,0.02729358036562219,-0.010075728684268242,9.803490813234697
2.112,0,4,1,2.862405226111651,669.6424340362901,0.0,6.136879738694418,160,9,1,0,429,-1,0.0,6.136879738694418,6.136879738694418,-0.17932818199382017,0.40329043444080265,-6.441654916016816e-05,0.009412859240189805,-0.008298721659726503,9.786280868154186
2.144,0,4,1,2.2906100426385936,671.9330440789287,-0.5717951834730575,6.166041293051543,160,9,1,-1,428,-1,-0.01,6.156041293051543,6.176041293051543,-0.17540239251619402,0.40317064157443605,-6.429311680656441e-05,0.009677972258823107,-0.006579842871790228,9.759992013031692
2.176,0,4,1,2.2906100426385936,674.2236541215673,0.0,6.16546949786807,160,9,1,-2,426,-1,-0.02,6.145469497868071,6.18546949786807,-0.17145792530992152,0.40305075599416035,-6.418484791564233e-05,0.028497501965551206,-0.004885325863459479,9.789750738641368
2.208,0,4,1,2.2906100426385936,676.5142641642059,0.0,6.16546949786807,160,9,1,-2,424,0,-0.02,6.145469497868071,6.18546949786807,-0.1675137767957735,0.40293222347831986,-6.411349939194032e-05,0.009875053258285124,-0.0031957288849996358,9.810761491812418
2.24,0,4,1,1.7183580016555007,678.2326221658614,-0.5722520409830929,6.194654351958208,160,9,1,-3,421,-1,-0.03,6.164654351958208,6.2246543519582085,-0.16356956102999046,0.40281589361543657,-6.406408663708375e-05,0.009655108866208056,-0.0015658734936835083,9.808053847686978
2.2720000000000002,0,4,1,1.7183580016555007,679.9509801675168,0.0,6.1940820999172255,160,9,1,-3,418,0,-0.03,6.164082099917225,6.224082099917226,-0.15960661301663848,0.4027011283675586,-6.402406517565587e-05,0.030421606074304636,-0.000926025768193109,9.791996234379189
2.3040000000000003,0,4,1,1.7183580016555007,681.6693381691723,0.0,6.1940820999172255,160,9,1,-4,414,-1,-0.04,6.154082099917225,6.2340820999172255,-0.15564394672069676,0.4025893784859075,-6.399651819222717e-05,0.012279810548648677,0.0006450897470487712,9.783186331568572
2.336,0,4,1,1.7183580016555007,683.3876961708278,0.0,6.1940820999172255,160,9,1,-4,410,0,-0.04,6.154082099917225,6.2340820999172255,-0.151681199614006,0.4024805566717456,-6.39874971936176e-05,0.012347388096810704,0.0012074723145234399,9.78219951126761
2.368,0,4,1,1.1457628381751443,684.533459009003,-0.5725951634803563,6.223284453254723,160,9,1,-5,405,-1,-0.05,6.173284453254723,6.273284453254723,-0.14771835208932213,0.4023755627545934,-6.398771751983147e-05,0.011362537777548322,0.0026630463095943307,9.781467357985282
2.4,0,4,1,1.1457628381751443,685.6792218471782,0.0,6.222711858091243,160,9,1,-5,400,0,-0.05,6.172711858091243,6.272711858091243,-0.14373672420227204,0.40227385929949583,-6.398672220796209e-05,0.03167608539453511,0.003104008719200822,9.818952000151961
2.432,0,4,1,1.1457628381751443,686.8249846853533,0.0,6.222711858091243,160,9,1,-5,395,0,-0.05,6.172711858091243,6.272711858091243,-0.13975534623276753,0.4021768826965984,-6.39912596199256e-05,0.01412453203490529,0.004535420377147809,9.78883810238362
2.464,0,4,1,1.1457628381751443,687.9707475235285,0.0,6.222711858091243,160,9,1,-5,390,0,-0.05,6.172711858091243,6.272711858091243,-0.135773860648122,0.40208457148627064,-6.399978399316587e-05,0.014108067301707567,0.004943794888900596,9.856275205309812
2.496,0,4,1,0.5729386976839008,688.5436862212124,-0.5728241404912435,6.251925889256296,160,9,1,-5,385,0,-0.05,6.201925889256296,6.28,-0.13179227426677037,0.401996876091406,-6.401505548679978e-05,0.012965315235585872,0.005288002030216128,9.827479612179042
2.528,0,4,1,0.5729386976839008,689.1166249188963,0.0,6.251353065115805,160,9,1,-5,380,0,-0.05,6.201353065115805,6.28,-0.12779892049436847,0.4019135019757979,-6.40234180385394e-05,0.024528179977879053,0.005622507440698367,9.80199292965701
2.56,0,4,1,0.0,689.1166249188963,-0.5729386976839008,6.280572938697684,160,9,1,-6,374,-1,-0.06,6.220572938697685,6.28,-0.12380568356631544,0.40183360914730026,-6.403254976804565e-05,0.012452186484642235,0.004867483295670248,9.851489026643316
2.592,0,4,1,0.0,689.1166249188963,0.0,6.28,160,9,1,-6,368,0,-0.06,6.220000000000001,6.28,-0.11980623654360557,0.4017570712955509,-6.403606258269419e-05,0.018491984246829386,0.0051031186638444085,9.818184448901146
2.624,0,4,1,0.5729386976839008,689.6895636165801,0.5729386976839008,6.250780126418121,160,9,1,-6,362,0,-0.06,6.1907801264181215,6.28,-0.11580692785968164,0.4016830634128505,-6.403915757205968e-05,0.011396748873656423,0.004365124676771342,9.798002459954914
2.656,0,4,1,0.0,689.6895636165801,-0.5729386976839008,6.280572938697684,160,9,1,-6,356,0,-0.06,6.220572938697685,6.28,-0.11181691839677653,0.40161178411789883,-6.404814221423229e-05,-0.0010098494650467743,0.004555627298840854,9.819619823953927
2.688,0,4,1,0.0,689.6895636165801,0.0,6.28,160,9,1,-6,350,0,-0.06,6.220000000000001,6.28,-0.1078173094027365,0.4015443317815035,-6.404769079418164e-05,0.015344870919867566,0.006015143586025787,9.833377660829226
2.72,0,4,1,0.5729386976839008,690.262502314264,0.5729386976839008,6.250780126418121,160,9,1,-7,343,-1,-0.07,6.180780126418121,6.28,-0.10381784105470329,0.4014794388339281,-6.40456577523929e-05,0.0034637401409780577,0.004651766850981682,9.794075550048973
2.7520000000000002,0,4,1,0.5729386976839008,690.8354410119479,0.0,6.251353065115805,160,9,1,-7,336,0,-0.07,6.181353065115805,6.28,-0.09983087466723686,0.40141734212874375,-6.40456778627941e-05,-0.013815169849381541,0.004719904638573671,9.788759518463904
2.7840000000000003,0,4,1,0.0,690.8354410119479,-0.5729386976839008,6.280572938697684,160,9,1,-6,330,1,-0.06,6.220572938697685,6.28,-0.09584365194674863,0.4013597723108975,-6.40397467419531e-05,-0.006354964063171671,0.006617377081938584,9.839733992365977
2.816,0,4,1,0.5729386976839008,691.4083797096317,0.5729386976839008,6.250780126418121,160,9,1,-7,323,-1,-0.07,6.180780126418121,6.28,-0.09184381980527324,0.40130656086481375,-6.403117513552672e-05,0.003581705487272375,0.006621913924851501,9.769884162306449
2.848,0,4,1,0.0,691.4083797096317,-0.5729386976839008,6.280572938697684,160,9,1,-6,317,1,-0.06,6.220572938697685,6.28,-0.08785668173206951,0.40125611391496074,-6.402140630478934e-05,-0.02528799622462252,0.0047132296869676,9.804120081890781
2.88,0,4,1,0.0,691.4083797096317,0.0,6.28,160,9,1,-6,311,0,-0.06,6.220000000000001,6.28,-0.08385675995295651,0.4012100832474138,-6.401394587789329e-05,-0.0003331248096974024,0.006610025313429625,9.791725626230818
2.912,0,4,1,0.0,691.4083797096317,0.0,6.28,160,9,1,-6,305,0,-0.06,6.220000000000001,6.28,-0.07985699348128018,0.4011666678897119,-6.401372353821884e-05,-0.012152338331708196,0.004723931480255867,9.805648667558087
2.944,0,4,1,0.0,691.4083797096317,0.0,6.28,160,9,1,-6,299,0,-0.06,6.220000000000001,6.28,-0.07585720054835063,0.4011258909698175,-6.40150621263099e-05,-0.01048363699913636,0.004725987712092418,9.827807833403758
2.976,0,4,1,0.5729386976839008,691.9813184073156,0.5729386976839008,6.250780126418121,160,9,1,-6,293,0,-0.06,6.1907801264181215,6.28,-0.07185738220656497,0.40108775664017254,-6.401694070533835e-05,-0.008366929404546425,0.0046891978671332775,9.837029205894963
3.008,0,4,1,0.5729386976839008,692.5542571049995,0.0,6.251353065115805,160,9,1,-6,287,0,-0.06,6.1913530651158055,6.28,-0.06786688597591847,0.4010523516488638,-6.401805545318967e-05,-0.016697259405028142,0.004669058884062954,9.813174628460718
3.04,0,4,1,0.5729386976839008,693.1271958026833,0.0,6.251353065115805,160,9,1,-6,281,0,-0.06,6.1913530651158055,6.28,-0.06387616942640899,0.4010210372178463,-6.401971660466126e-05,-0.006104753124918171,0.0060750019934280655,9.791439509275891
3.072,0,4,1,0.5729386976839008,693.7001345003672,0.0,6.251353065115805,160,9,1,-6,275,0,-0.06,6.1913530651158055,6.28,-0.05988542100424319,0.400993796481327,-6.402206032710481e-05,-0.004621571764166582,0.006038693671893843,9.860132530969441
3.104,0,4,1,0.5729386976839008,694.2730731980511,0.0,6.251353065115805,160,9,1,-5,270,1,-0.05,6.201353065115805,6.28,-0.0558946458415504,0.4009706291996901,-6.402486235154194e-05,-0.002761504635321802,0.006009081150104915,9.744950262415106
3.136,0,4,1,0.5729386976839008,694.8460118957349,0.0,6.251353065115805,160,9,1,-5,265,0,-0.05,6.201353065115805,6.28,-0.051900650707463775,0.40095151342403124,-6.402700589651193e-05,0.003074580880828326,0.006006107751590145,9.763004459432269
3.168,0,4,1,0.5729386976839008,695.4189505934188,0.0,6.251353065115805,160,9,1,-5,260,0,-0.05,6.201353065115805,6.28,-0.04790664134161271,0.4009359651129117,-6.402807352032074e-05,0.0026508970078476138,0.00551437635638998,9.78920287528373
3.2,0,4,1,1.1457628381751443,696.564713431594,0.5728241404912435,6.222139033950752,160,9,1,-5,255,0,-0.05,6.172139033950752,6.272139033950752,-0.04391262089686695,0.40092397238528,-6.40278622551678e-05,0.005163706801439971,0.005579834299091669,9.80451963337528
3.232,0,4,1,0.5729386976839008,697.1376521292779,-0.5728241404912435,6.251925889256296,160,9,1,-4,251,1,-0.04,6.211925889256296,6.28,-0.03993045245618304,0.40091555505355986,-6.403150279502869e-05,-0.006557620030454754,0.005557032810102774,9.832726957913003
3.2640000000000002,0,4,1,0.5729386976839008,697.7105908269617,0.0,6.251353065115805,160,9,1,-4,247,0,-0.04,6.211353065115805,6.28,-0.03593303432040446,0.4009116905362612,-6.402879346350046e-05,0.022549921001838915,0.006601743856508876,9.783425123490806
3.2960000000000003,0,4,1,0.5729386976839008,698.2835295246456,0.0,6.251353065115805,160,9,1,-3,244,1,-0.03,6.221353065115805,6.28,-0.03193579939606981,0.40091084303728425,-6.402550313749922e-05,0.009501395641057342,0.005101797958823756,9.815531806114022
3.3280000000000003,0,4,1,0.5729386976839008,698.8564682223295,0.0,6.251353065115805,160,9,1,-3,241,0,-0.03,6.221353065115805,6.28,-0.027935368022086328,0.4009130308327238,-6.401966963509413e-05,0.015100883162690079,0.0051563361436902135,9.814677949654948
3.36,0,4,1,0.5729386976839008,699.4294069200133,0.0,6.251353065115805,160,9,1,-3,238,0,-0.03,6.221353065115805,6.28,-0.023934940028103115,0.4009177634936047,-6.401411612299603e-05,0.01328662480508303,0.004691339882356416,9.787700580289968
3.392,0,4,1,0.0,699.4294069200133,-0.5729386976839008,6.280572938697684,160,9,1,-2,236,1,-0.02,6.260572938697685,6.28,-0.01993451641126358,0.40092504529808204,-6.400867445580972e-05,0.013062825415540071,0.004688692996635561,9.772465974762271
3.424,0,4,1,0.5729386976839008,700.0023456176972,0.5729386976839008,6.250780126418121,160,9,1,-2,234,0,-0.02,6.2307801264181215,6.270780126418121,-0.015921552525292756,0.4009349036521751,-6.39962557654819e-05,0.025445525730998828,0.004652963819605846,9.751230465042848
3.456,0,4,1,0.5729386976839008,700.575284315381,0.0,6.251353065115805,160,9,1,-2,232,0,-0.02,6.231353065115806,6.271353065115805,-0.011921071651983183,0.40094537730801955,-6.400118363024225e-05,-0.0025519595361916257,0.002734059346565117,9.827924429947037
3.488,0,4,1,0.5729386976839008,701.1482230130649,0.0,6.251353065115805,160,9,1,-2,230,0,-0.02,6.231353065115806,6.271353065115805,-0.007920228507840086,0.40095752204784757,-6.400371240663887e-05,0.006096315691666259,0.003703628463646391,9.834674720389115
3.52,0,4,1,0.0,701.1482230130649,-0.5729386976839008,6.280572938697684,160,9,1,-1,229,1,-0.01,6.2705729386976845,6.28,-0.003919389773136006,0.40097136615659346,-6.400287771924848e-05,0.0015437091638458578,0.003600733026843127,9.795244256129445
3.552,0,4,1,0.0,701.1482230130649,0.0,6.28,160,9,1,-1,228,0,-0.01,6.2700000000000005,6.28,9.675880438433846e-05,0.4009869964685767,-6.399672670287689e-05,0.015268854309111072,0.003547643634669983,9.800889674795613
3.584,0,4,1,0.5729386976839008,701.7211617107488,0.5729386976839008,6.250780126418121,160,9,1,-1,227,0,-0.01,6.240780126418121,6.260780126418121,0.00411272443519936,0.4010028750630548,-6.399081095566882e-05,-0.0012243253243859821,0.001972585093003684,9.803932419963473
3.616,0,4,1,0.5729386976839008,702.2941004084327,0.0,6.251353065115805,160,9,1,-1,226,0,-0.01,6.241353065115805,6.261353065115805,0.008113189753116078,0.4010189916975001,-6.398356709362389e-05,-0.02058008856837948,0.0018903753252327593,9.834528793219832
3.648,0,4,1,0.5729386976839008,702.8670391061165,0.0,6.251353065115805,160,9,1,-1,225,0,-0.01,6.241353065115805,6.261353065115805,0.012114018601374977,0.40103593050442304,-6.397348503089755e-05,-0.008971027346044153,0.00225190078834185,9.832769436656573
3.68,0,4,1,0.0,702.8670391061165,-0.5729386976839008,6.280572938697684,160,9,1,0,225,1,0.0,6.28,6.28,0.01611484451326408,0.4010537198117649,-6.396205440905439e-05,-0.012710649828294826,0.002140875260644352,9.791750516983578
3.712,0,4,1,0.0,702.8670391061165,0.0,6.28,160,9,1,0,225,0,0.0,6.28,6.28,0.020134000019915253,0.40107247592949047,-6.39606938132118e-05,0.0061967358593306154,0.002031424704362644,9.81674935308017
3.744,0,4,1,0.0,702.8670391061165,0.0,6.28,160,9,1,0,225,0,0.0,6.28,6.28,0.024153156829178596,0.40109112782516354,-6.396143912673971e-05,-0.009948999097453429,0.0009399845348583725,9.83754384790197
3.7760000000000002,0,4,1,0.0,702.8670391061165,0.0,6.28,160,9,1,0,225,0,0.0,6.28,6.28,0.028172314233226466,0.4011096902798138,-6.396327955551957e-05,-0.007716207893512049,0.0008256434473136856,9.823170210497063
3.8080000000000003,0,4,1,0.0,702.8670391061165,0.0,6.28,160,9,1,0,225,0,0.0,6.28,6.28,0.03219147206789353,0.40112818039139286,-6.396510256016438e-05,-0.004888074443555369,0.0007153274152317469,9.793336283226184
3.84,0,4,1,0.0,702.8670391061165,0.0,6.28,160,9,1,0,225,0,0.0,6.28,6.28,0.036210630189740335,0.4011466153531154,-6.396593409173368e-05,-0.0018478653257114003,0.0006180340188321223,9.808766993808247
3.872,0,4,1,0.0,702.8670391061165,0.0,6.28,160,9,1,0,225,0,0.0,6.28,6.28,0.04022978848062002,0.4011650110169205,-6.396514818585164e-05,0.0013058685309068239,0.0005205222286814254,9.815450745440593
3.904,0,4,1,0.0,702.8670391061165,0.0,6.28,160,9,1,1,226,1,0.01,6.28,6.2700000000000005,0.0442489468487836,0.4011833810431292,-6.396259559608534e-05,0.004397619859111794,0.00043212776820944547,9.805687859430828
3.936,0,4,1,0.0,702.8670391061165,0.0,6.28,160,9,1,1,227,0,0.01,6.28,6.2700000000000005,0.04826490547525801,0.4012017206325239,-6.395944982518116e-05,0.0034832057603621583,0.00034996778008785577,9.79163322635395
3.968,0,4,1,0.0,702.8670391061165,0.0,6.28,160,9,1,1,228,0,0.01,6.28,6.2700000000000005,0.05228086633465659,0.40121954585137803,-6.395618641116298e-05,0.008403753022572283,-0.00021815769013403403,9.76566087986846
4.0,0,4,1,0.0,702.8670391061165,0.0,6.28,160,9,1,1,229,0,0.01,6.28,6.2700000000000005,0.05629682940322713,0.4012368628135749,-6.395342976002472e-05,0.009716269770055035,-0.00028754196832478796,9.778806229840173
4.032,0,4,1,0.0,702.8670391061165,0.0,6.28,160,9,1,1,230,0,0.01,6.28,6.2700000000000005,0.06031279455245396,0.40125367906540693,-6.395172743958906e-05,0.010397443921834426,-0.00034912887805708774,9.815632273624692
4.064,0,4,1,0.0,702.8670391061165,0.0,6.28,160,9,1,1,231,0,0.01,6.28,6.2700000000000005,0.06432876167149972,0.4012700024746334,-6.395141434241934e-05,0.010542806381175185,-0.0004092390429315072,9.809938791025305
4.096,0,4,1,0.0,702.8670391061165,0.0,6.28,160,9,1,1,232,0,0.01,6.28,6.2700000000000005,0.06834473066647546,0.4012858404902885,-6.395252633054939e-05,0.009963570778115721,-0.00046256235946146826,9.807817799932339
4.128,0,4,1,0.0,702.8670391061165,0.0,6.28,160,9,1,1,233,0,0.01,6.28,6.2700000000000005,0.07236070145826616,0.4013011996806918,-6.395478450437614e-05,0.008859146505970649,-0.0005056548859726202,9.787626015471762
4.16,0,4,1,0.0,702.8670391061165,0.0,6.28,160,9,1,1,234,0,0.01,6.28,6.2700000000000005,0.07637667397970803,0.4013160854937706,-6.395765429536258e-05,0.0072392154965893775,-0.0005530361766803822,9.824488158923895
4.192,0,4,1,0.0,702.8670391061165,0.0,6.28,160,9,1,1,235,0,0.01,6.28,6.2700000000000005,0.0803926481726383,0.40133050218504857,-6.396046576386503e-05,0.005155582723875661,-0.0005914468973763437,9.813752947238806
4.224,0,4,1,0.0,702.8670391061165,0.0,6.28,160,9,1,1,236,0,0.01,6.28,6.2700000000000005,0.08440862398510768,0.401344452863651,-6.396256691790225e-05,0.002741669364090421,-0.0006275657200926658,9.793480701792486
4.256,0,4,1,0.0,702.8670391061165,0.0,6.28,160,9,1,1,237,0,0.01,6.28,6.2700000000000005,0.08842460136889575,0.4013579396138582,-6.396347395847858e-05,0.00018176331945718237,-0.0006483901123134147,9.816691922869452
4.288,0,4,1,0.0,702.8670391061165,0.0,6.28,160,9,1,1,238,0,0.01,6.28,6.2700000000000005,0.09244058027740638,0.40137096365785546,-6.396298300190284e-05,-0.002381570299323544,-0.0006757795831719533,9.839262545733177
4.32,0,4,1,0.0,702.8670391061165,0.0,6.28,160,9,1,1,239,0,0.01,6.28,6.2700000000000005,0.09645656066400213,0.40138352553346496,-6.39612168231822e-05,-0.004797928966586606,-0.0006924790465021231,9.856377148054637
4.352,0,4,1,0.0,702.8670391061165,0.0,6.28,160,9,1,1,240,0,0.01,6.28,6.2700000000000005,0.10047254248083544,0.40139562526815475,-6.395859544003693e-05,-0.006957045631542298,-0.0007102786474935595,9.791112669467463
4.384,0,4,1,0.0,702.8670391061165,0.0,6.28,160,9,1,1,241,0,0.01,6.28,6.2700000000000005,0.1044885256782049,0.40140726253711256,-6.395573727006366e-05,-0.008620138897577663,-0.0007194985957956507,9.808998438435225
4.416,0,4,1,0.0,702.8670391061165,0.0,6.28,160,9,1,1,242,0,0.01,6.28,6.2700000000000005,0.10850451020440655,0.4014184367984842,-6.395331394468996e-05,-0.009903340936721416,-0.0007271062434793884,9.849806047318223
4.448,0,4,1,0.0,702.8670391061165,0.0,6.28,160,9,1,1,243,0,0.01,6.28,6.2700000000000005,0.11252049600597105,0.40142914740295454,-6.395189279311507e-05,-0.010526300244072818,-0.000729252848550878,9.836972259269611
4.48,0,4,1,0.0,702.8670391061165,0.0,6.28,160,9,1,1,244,0,0.01,6.28,6.2700000000000005,0.11653648302811924,0.40143939367778564,-6.395180394238448e-05,-0.010497389294185876,-0.0007324661091741618,9.712552197456715
4.5120000000000005,0,4,1,0.0,702.8670391061165,0.0,6.28,160,9,1,1,245,0,0.01,6.28,6.2700000000000005,0.12055247121525843,0.4014491749873577,-6.395306321125595e-05,-0.009840315754903088,-0.0007411419068455328,9.882054350265358
4.5440000000000005,0,4,1,0.0,702.8670391061165,0.0,6.28,160,9,1,1,246,0,0.01,6.28,6.2700000000000005,0.12456846051138352,0.4014584907733721,-6.395536889285645e-05,-0.008617399480801105,-0.0007417397808937508,9.816694176807102
4.5760000000000005,0,4,1,0.5729386976839008,703.4399778038004,0.5729386976839008,6.250780126418121,160,9,1,2,248,1,0.02,6.270780126418121,6.2307801264181215,0.12858445086033146,0.40146734057833056,-6.395817314436975e-05,-0.006884061555160953,-0.0007388399431026491,9.798492756710555
4.6080000000000005,0,4,1,0.0,703.4399778038004,-0.5729386976839008,6.280572938697684,160,9,1,1,249,-1,0.01,6.28,6.2705729386976845,0.13258494261277873,0.40147569650120624,-6.39570748180128e-05,-0.02295873055380181,-0.0007412156275804273,9.848676294894815
4.64,0,4,1,0.0,703.4399778038004,0.0,6.28,160,9,1,1,250,0,0.01,6.28,6.2700000000000005,0.13660112112719597,0.4014821285753386,-6.396087281227043e-05,0.010106111089507023,-0.0021867037825081055,9.784245152212684
4.672,0,4,1,0.0,703.4399778038004,0.0,6.28,160,9,1,1,251,0,0.01,6.28,6.2700000000000005,0.14061711719284709,0.40148812408447043,-6.39634600999011e-05,-0.0024055959538576872,-0.0007362564874091831,9.774525403206244
4.704,0,4,1,0.0,703.4399778038004,0.0,6.28,160,9,1,1,252,0,0.01,6.28,6.2700000000000005,0.14463311360294126,0.40149366466858893,-6.396425327372113e-05,0.0008265103989028026,-0.0007705877850533368,9.857072986358322
4.736,0,4,1,0.0,703.4399778038004,0.0,6.28,160,9,1,1,253,0,0.01,6.28,6.2700000000000005,0.14864911039272644,0.40149875577310923,-6.396307071172315e-05,0.003819739872725331,-0.0007836366149570622,9.835867318191907
4.768,0,4,1,0.0,703.4399778038004,0.0,6.28,160,9,1,1,254,0,0.01,6.28,6.2700000000000005,0.15266510758480864,0.40150339974187516,-6.396021106652196e-05,0.00662968930038859,-0.000791943676526106,9.846877363090169
4.8,0,4,1,0.5729386976839008,704.0129165014843,0.5729386976839008,6.250780126418121,160,9,1,1,255,0,0.01,6.260780126418121,6.240780126418121,0.1566811051915087,0.40150759665947783,-6.395636977293145e-05,0.008956397389392756,-0.0008008985706869254,9.841922302266987
4.832,0,4,1,0.5729386976839008,704.5858551991681,0.0,6.251353065115805,160,9,1,1,256,0,0.01,6.261353065115805,6.241353065115805,0.16068160322860786,0.4015113284778584,-6.39585150300926e-05,-0.007350492559700694,-0.0008186599055891091,9.801718784915877
4.864,0,4,1,0.5729386976839008,705.158793896852,0.0,6.251353065115805,160,9,1,1,257,0,0.01,6.261353065115805,6.241353065115805,0.16468246837733727,0.40151411909194945,-6.396087628569164e-05,0.006498983583724791,-0.001287577216783807,9.79553361153947
4.896,0,4,1,0.5729386976839008,705.7317325945359,0.0,6.251353065115805,160,9,1,1,258,0,0.01,6.261353065115805,6.241353065115805,0.16868333426567103,0.4015159662018742,-6.396308323297455e-05,0.004135069429394584,-0.0012898760447980476,9.807627811061256
4.928,0,4,1,0.5729386976839008,706.3046712922197,0.0,6.251353065115805,160,9,1,1,259,0,0.01,6.261353065115805,6.241353065115805,0.1726842005853594,0.4015168710546945,-6.396464363692816e-05,0.0019315864370056,-0.001297333692785548,9.802199110106722
4.96,0,4,1,0.5729386976839008,706.8776099899036,0.0,6.251353065115805,160,9,1,1,260,0,0.01,6.261353065115805,6.241353065115805,0.17668506705635234,0.40151683688377665,-6.396521038811408e-05,-0.00042114805112488193,-0.001304938340534295,9.883685411759245
4.992,0,4,1,0.5729386976839008,707.4505486875875,0.0,6.251353065115805,160,9,1,1,261,0,0.01,6.261353065115805,6.241353065115805,0.1806859334161608,0.4015158679817821,-6.396467078593517e-05,-0.0027551438836117283,-0.0013101447357078673,9.826453881498992
5.024,0,4,1,0.5729386976839008,708.0234873852713,0.0,6.251353065115805,160,9,1,1,262,0,0.01,6.261353065115805,6.241353065115805,0.1846867994198081,0.4015139689891794,-6.39631766033745e-05,-0.0049257176427372675,-0.0013351101356993684,9.840181053321789
5.056,0,4,1,0.0,708.0234873852713,-0.5729386976839008,6.280572938697684,160,9,1,0,262,-1,0.0,6.28,6.28,0.1886876648377514,0.4015111443853146,-6.396110912909245e-05,-0.006803094776575138,-0.0013347386793162548,9.789879828713367
5.088,0,4,1,0.0,708.0234873852713,0.0,6.28,160,9,1,0,262,0,0.0,6.28,6.28,0.192706862207991,0.4015073787060812,-6.39634546352151e-05,0.013312393329900927,-0.00136011013180442,9.787237394546837
5.12,0,4,1,0.0,708.0234873852713,0.0,6.28,160,9,1,0,262,0,0.0,6.28,6.28,0.19672606012348384,0.40150369357612953,-6.396493626542252e-05,-0.002154642433556743,-0.00039348892870927045,9.847092807101136
5.152,0,4,1,0.0,708.0234873852713,0.0,6.28,160,9,1,0,262,0,0.0,6.28,6.28,0.20074525810991162,0.40150009138121334,-6.396513532488761e-05,0.0004147200040104773,-0.00039354132869301266,9.805956385905471
