Time,SetPointAngle,SensorAngleRow,SensorAngleWidth,Angle,IntegralAngle,DeltaAngle,BaseSpeed,SetPointError,SensorErrorRow,SensorErrorWidth,Error,IntegralError,DeltaError,DeltaSpeed,LeftSpeed,RightSpeed,X,Y,Z,Roll,Pitch,Yaw
0.032,0,4,1,2.2906100426385936,2.2906100426385936,2.2906100426385936,6.065199984865566,160,9,1,-11,-11,-11,-0.6545000000000001,5.410699984865566,6.28,-0.021500000000000408,0.17999999999999444,-6.396425821141548e-05,-3.877133818084198,-0.027600213140184415,9.779242627374378
0.064,0,4,1,2.2906100426385936,4.581220085277187,0.0,6.065199984865566,160,9,1,-5,-16,6,-0.30300000000000005,5.762199984865566,6.28,-0.025212664339490695,0.17999399479108533,-2.1744632810957037e-05,4.359948407351177,-0.030766404981139774,9.589212732853662
0.096,0,4,1,1.7183580016555007,6.299578086932688,-0.5722520409830929,6.116357855429741,160,9,1,-2,-18,3,-0.1765,5.939857855429741,6.28,-0.029051944904793636,0.1799402188976193,-6.081848343011953e-05,0.4901199796762132,0.03578162562319959,9.693567782848852
0.128,0,4,1,1.7183580016555007,8.017936088588188,0.0,6.116357855429741,160,9,1,0,-18,2,-0.081,6.035357855429741,6.1973578554297415,-0.03296252835253596,0.1798649701304166,-7.659234803334379e-05,0.06101333235372013,0.020842416492538887,9.860911532902835
0.16,0,4,1,1.1457628381751443,9.163698926763333,-0.5725951634803563,6.169143233402604,160,9,1,2,-16,2,0.029000000000000005,6.198143233402604,6.140143233402604,-0.03687603596032954,0.17977538279003227,-6.975149771124879e-05,0.1791186854636187,0.016119932445815114,9.847139993054684
0.192,0,4,1,1.1457628381751443,10.309461764938478,0.0,6.169143233402604,160,9,1,2,-14,0,0.03,6.199143233402604,6.139143233402604,-0.04082128358923449,0.17967849996810994,-6.976621039054935e-05,0.11670236864293335,0.007904477835074407,9.795364938440667
0.224,0,4,1,0.5729386976839008,10.882400462622378,-0.5728241404912435,6.223655143819362,160,9,1,3,-11,1,0.09950000000000003,6.28,6.124155143819362,-0.04476822609208454,0.17958565351964773,-6.968473962537698e-05,-0.00794156517946344,-0.001050505691695314,9.816647836273427
0.256,0,4,1,1.1457628381751443,12.028163300797523,0.5728241404912435,6.169143233402604,160,9,1,2,-9,-1,0.05050000000000001,6.219643233402604,6.1186432334026035,-0.04873628740054243,0.17949628984809723,-6.78988356216468e-05,-0.07976274036987868,4.527371172388085e-05,9.792136504546345
0.28800000000000003,0,4,1,1.1457628381751443,13.173926138972668,0.0,6.169143233402604,160,9,1,2,-7,0,0.065,6.234143233402604,6.104143233402604,-0.05268351250582698,0.17941614303427192,-6.694988546910273e-05,-0.1028583022863579,-0.004597786530150324,9.788223318479677
0.32,0,4,1,0.5729386976839008,13.746864836656568,-0.5728241404912435,6.223655143819362,160,9,1,2,-5,0,0.07500000000000001,6.28,6.1486551438193615,-0.05663089179253296,0.17934197936866494,-6.66697008662974e-05,-0.06050803763719491,-0.0015652328709593259,9.775161591366372
0.352,0,4,1,0.5729386976839008,14.319803534340469,0.0,6.223655143819362,160,9,1,2,-3,0,0.085,6.28,6.138655143819362,-0.06060735470905882,0.17927456143983223,-6.646990689981001e-05,-0.0007518638295245905,-0.0029734227073126857,9.859824998999787
0.384,0,4,1,0.5729386976839008,14.89274223202437,0.0,6.223655143819362,160,9,1,2,-1,0,0.095,6.28,6.128655143819362,-0.06458077193131762,0.17921432007062008,-6.615040709630725e-05,0.0004358651062566825,-0.003360792477965547,9.803779101689862
0.41600000000000004,0,4,1,0.5729386976839008,15.46568092970827,0.0,6.223655143819362,160,9,1,1,0,-1,0.045500000000000006,6.269155143819361,6.178155143819362,-0.0685511270910661,0.17916148366199527,-6.568966748495171e-05,0.032080990045962245,-0.004269426476362342,9.878399772030537
0.448,0,4,1,0.5729386976839008,16.038619627392173,0.0,6.223655143819362,160,9,1,1,1,0,0.055,6.278655143819361,6.168655143819362,-0.07253393049886772,0.17911600038491873,-6.527209440305645e-05,0.0430397510137668,-0.005156181299106477,9.752445559765974
0.48,0,4,1,0.0,16.038619627392173,-0.5729386976839008,6.279999999999999,160,9,1,1,2,0,0.060000000000000005,6.28,6.22,-0.07651680453257086,0.1790748360723843,-6.50916498361135e-05,0.02484804352275757,-0.0030194787566766037,9.735546874915443
0.512,0,4,1,0.0,16.038619627392173,0.0,6.279999999999999,160,9,1,1,3,0,0.065,6.28,6.214999999999999,-0.08051657629434683,0.1790385373591094,-6.492506774270074e-05,0.0373861122258965,-0.004601953491186522,9.744605205580333
0.544,0,4,1,0.0,16.038619627392173,0.0,6.279999999999999,160,9,1,1,4,0,0.07,6.28,6.209999999999999,-0.08451477962095266,0.17900474309617442,-6.4787607848232e-05,0.01353619795363541,-0.0029318913570976447,9.852040989927813
0.5760000000000001,0,4,1,0.5729386976839008,16.611558325076075,0.5729386976839008,6.223655143819362,160,9,1,0,4,-1,0.0155,6.239155143819362,6.208155143819361,-0.08851141434752918,0.17897360870605303,-6.466877353275904e-05,0.006535400418839814,-0.003726404819300928,9.814018477186798
0.608,0,4,1,0.5729386976839008,17.184497022759977,0.0,6.223655143819362,160,9,1,0,4,0,0.02,6.243655143819361,6.203655143819362,-0.09249441178264943,0.1789454249413209,-6.455345116816551e-05,-0.015444147846971509,-0.004470115156687081,9.845525645494074
0.64,0,4,1,0.5729386976839008,17.75743572044388,0.0,6.223655143819362,160,9,1,0,4,0,0.02,6.243655143819361,6.203655143819362,-0.09647742631763785,0.17891817454440553,-6.443488413264593e-05,-0.012158726355333804,-0.0029798049664918605,9.802266923378802
0.672,0,4,1,0.5729386976839008,18.330374418127782,0.0,6.223655143819362,160,9,1,0,4,0,0.02,6.243655143819361,6.203655143819362,-0.1004604591362683,0.17889232835662428,-6.431304852499986e-05,-0.021476213611654433,-0.0036304969649673833,9.789054679612807
0.704,0,4,1,0.5729386976839008,18.903313115811684,0.0,6.223655143819362,160,9,1,0,4,0,0.02,6.243655143819361,6.203655143819362,-0.10444350863648873,0.17886794510306245,-6.420258681224915e-05,-0.0197706077236999,-0.0038294319676757263,9.826752016426076
0.736,0,4,1,0.5729386976839008,19.476251813495587,0.0,6.223655143819362,160,9,1,0,4,0,0.02,6.243655143819361,6.203655143819362,-0.10842657433413673,0.17884509424957099,-6.415702447276454e-05,-0.016572437054017734,-0.0038904996003848815,9.793319920895076
0.768,0,4,1,0.5729386976839008,20.04919051117949,0.0,6.223655143819362,160,9,1,0,4,0,0.02,6.243655143819361,6.203655143819362,-0.11240965414372883,0.17882384322140904,-6.412219573000318e-05,-0.012620049762420569,-0.0038837092698731355,9.824276347792585
0.8,0,4,1,0.0,20.04919051117949,-0.5729386976839008,6.279999999999999,160,9,1,0,4,0,0.02,6.28,6.26,-0.11639274644766055,0.1788042538684628,-6.409409710148896e-05,-0.007849141735484117,-0.0037861814860235816,9.871978505487185
0.8320000000000001,0,4,1,0.0,20.04919051117949,0.0,6.279999999999999,160,9,1,0,4,0,0.02,6.28,6.26,-0.12040550843183495,0.17878624925141368,-6.407014113613864e-05,0.03224976129957964,-0.0036911870829833826,9.842123740551084
0.864,0,4,1,0.0,20.04919051117949,0.0,6.279999999999999,160,9,1,0,4,0,0.02,6.28,6.26,-0.1244182760191615,0.1787690272595785,-6.402726530719931e-05,0.014196883243127562,-0.0026056050771087595,9.818127991148817
0.896,0,4,1,0.0,20.04919051117949,0.0,6.279999999999999,160,9,1,0,4,0,0.02,6.28,6.26,-0.1284310453914832,0.17875262196376362,-6.396478555541728e-05,0.014138665459820171,-0.0024639992624363115,9.79824955485154
0.928,0,4,1,0.0,20.04919051117949,0.0,6.279999999999999,160,9,1,0,4,0,0.02,6.28,6.26,-0.1324438204070112,0.1787370598162298,-6.395966389315805e-05,0.013278572768471128,-0.0023106770842624665,9.803331015054928
0.96,0,4,1,0.5729386976839008,20.62212920886339,0.5729386976839008,6.223655143819362,160,9,1,1,5,1,0.07950000000000002,6.28,6.144155143819361,-0.13645659839182395,0.17872236899592026,-6.39587215958224e-05,0.011496079666482565,-0.0021791283444406815,9.804798991682683
0.992,0,4,1,0.5729386976839008,21.195067906547294,0.0,6.223655143819362,160,9,1,0,5,-1,0.0205,6.244155143819362,6.2031551438193615,-0.1404323125445668,0.17870871903651392,-6.397376479530537e-05,-0.03420931527975525,-0.002112311328868212,9.814870123575844
1.024,0,4,1,1.7183580016555007,22.913425908202793,1.1454193039715999,6.116357855429741,160,9,1,0,5,0,0.025,6.141357855429741,6.091357855429741,-0.1444154610829704,0.1787016122114511,-6.397035292864291e-05,0.0006553776503412866,-0.007481985277678284,9.86604837529326
1.056,0,4,1,3.4336303624506144,26.347056270653407,1.7152723607951137,5.967401045967872,160,9,1,0,5,0,0.025,5.992401045967872,5.9424010459678716,-0.1483299415123734,0.17869652662822946,-6.390592963162467e-05,-0.0951951677998143,-0.002938396956662333,9.765065256869967
1.088,0,4,1,4.573921259900898,30.920977530554303,1.1402908974502832,5.875075771441796,160,9,1,-1,4,-1,-0.0345,5.840575771441795,5.909575771441796,-0.1521490891391983,0.1786938106992819,-6.375122794318247e-05,-0.11805056192942713,-0.003260699192671606,9.856001523279435
1.12,0,4,1,6.277298489597548,37.19827602015185,1.7033772296966507,5.745604202229705,160,9,1,0,4,1,0.0245,5.770104202229705,5.721104202229705,-0.15590913203522924,0.17869339997545397,-6.375219216648263e-05,-0.0809604483839989,-0.003153701446306223,9.83310770962208
1.1520000000000001,0,4,1,7.406912128495223,44.60518814864707,1.1296136388976743,5.664570104644827,160,9,1,-1,3,-1,-0.0395,5.625070104644827,5.704070104644828,-0.15958632348890034,0.17868962650838277,-6.373809442817256e-05,-0.10208741163415819,0.0023749432010561284,9.846010897715821
1.184,0,4,1,9.090276920822312,53.695465069469385,1.6833647923270894,5.54987562742334,160,9,1,0,3,1,0.0195,5.56937562742334,5.53037562742334,-0.16321164594550097,0.17868800907499247,-6.37451916900341e-05,-0.07040182472117737,-0.002962429708216565,9.841551858394716
1.216,0,4,1,10.757967088390043,64.45343215785942,1.6676901675677307,5.442316345653184,160,9,1,0,3,0,0.015,5.457316345653184,5.4273163456531845,-0.1667635658668895,0.17868274551621216,-6.37369472785785e-05,-0.09061428630756278,0.0027750943845514364,9.814180452652769
1.248,0,4,1,12.407418527400745,76.86085068526017,1.6494514390107025,5.3408386412503175,160,9,1,0,3,0,0.015,5.355838641250317,5.325838641250318,-0.17024664859830504,0.1786791624584174,-6.373229091303015e-05,-0.0852247253650564,-0.002354298797076586,9.801960774976697
1.28,0,4,1,12.95276451337554,89.81361519863572,0.5453459859747944,5.3082052579305765,160,9,1,-1,2,-1,-0.0445,5.263705257930576,5.352705257930577,-0.173664785412663,0.17867684202258188,-6.373065512447346e-05,-0.08064387004159446,-0.0018967104921048172,9.79351732182127
1.312,0,4,1,11.859779120947966,101.67339431958368,-1.0929853924275736,5.374047857621811,160,9,1,-5,-3,-4,-0.28300000000000003,5.091047857621811,5.657047857621811,-0.1770620324528974,0.17867578542124457,-6.37623197687967e-05,-0.037080897771057435,-0.0018219072831351837,9.80933342210187
1.344,0,4,1,11.309932474020227,112.98332679360391,-0.5498466469277385,5.40786162681162,160,9,1,-6,-9,-1,-0.34950000000000003,5.05836162681162,5.75736162681162,-0.18050144442875482,0.17867100049735274,-6.381994367902523e-05,0.03452524601654295,0.002798450168240422,9.77009607173594
1.3760000000000001,0,4,1,10.203973721731703,123.18730051533561,-1.1059587522885241,5.477446571130509,160,9,1,-7,-16,-1,-0.43450000000000005,5.042946571130509,5.911946571130509,-0.1839627702626608,0.17864182380468857,-6.388807333926501e-05,0.029953761445129103,0.023008443160866667,9.75648788345274
1.408,0,4,1,9.648045316098152,132.83534583143376,-0.5559284056335514,5.513285433885829,160,9,1,-6,-22,1,-0.4055,5.107785433885829,5.918785433885829,-0.18746874105977193,0.17858183005726078,-6.39858293787713e-05,0.07556540581935586,0.02896639830442399,9.811466821986723
1.44,0,4,1,9.648045316098152,142.4833911475319,0.0,5.513285433885829,160,9,1,-5,-27,1,-0.3805,5.13278543388583,5.893785433885829,-0.19099717599525237,0.17848377813996572,-6.42372718529672e-05,0.050565994250486045,0.036851674199357906,9.84233111604058
1.472,0,4,1,8.530765609948096,151.01415675748,-1.1172797061500557,5.587258244324584,160,9,1,-5,-32,0,-0.41000000000000003,5.177258244324584,5.997258244324584,-0.19452453543056314,0.1783512798448068,-6.481025624754423e-05,0.02206045180110632,0.035165746748117586,9.808216919485846
1.504,0,4,1,8.530765609948096,159.54492236742811,0.0,5.587258244324584,160,9,1,-3,-35,2,-0.31600000000000006,5.271258244324584,5.903258244324584,-0.19809786098393362,0.17818482355834922,-6.549958080874149e-05,0.06488802011934484,0.033654670788824705,9.809978561607634
1.536,0,4,1,7.969610394321354,167.51453276174948,-0.5611552156267425,5.6254744406460215,160,9,1,-2,-37,1,-0.2805,5.344974440646022,5.9059744406460215,-0.20166901107138263,0.17798396797041474,-6.621442960940901e-05,0.013622636406494951,0.038290002403050846,9.808304774827876
1.568,0,4,1,7.406912128495223,174.92144489024471,-0.562698265826131,5.664570104644827,160,9,1,-2,-39,0,-0.29500000000000004,5.369570104644827,5.959570104644827,-0.2052626103012823,0.17775587507966376,-6.686371337396788e-05,0.03499113653979316,0.031369811295312175,9.816679199341968
1.6,0,4,1,6.842773412630916,181.76421830287563,-0.5641387158643063,5.704596124854936,160,9,1,-2,-41,0,-0.30500000000000005,5.399596124854936,6.009596124854935,-0.2088794331262241,0.17750356146192656,-6.744322771475887e-05,0.033604779715953964,0.02955871106901708,9.799645221489826
1.6320000000000001,0,4,1,6.277298489597548,188.04151679247317,-0.565474923033368,5.745604202229705,160,9,1,-1,-42,1,-0.2555,5.4901042022297055,6.001104202229705,-0.2125199053024502,0.17722559676707125,-6.79294064379176e-05,0.032333138590054926,0.03232649676273489,9.778605644908136
1.6640000000000001,0,4,1,6.277298489597548,194.31881528207072,0.0,5.745604202229705,160,9,1,0,-42,1,-0.2055,5.540104202229705,5.951104202229705,-0.21618431924507073,0.17692093941616313,-6.822786064649561e-05,0.03130243481745889,0.03449502967304237,9.828510151400135
1.696,0,4,1,6.277298489597548,200.59611377166826,0.0,5.745604202229705,160,9,1,0,-42,0,-0.21,5.535604202229705,5.955604202229705,-0.219846751376627,0.17659604964341605,-6.83451465125929e-05,0.0032348511886663776,0.03159034761793988,9.80719294871883
1.728,0,4,1,5.710593137499568,206.30670690916781,-0.5667053520979799,5.787647729296528,160,9,1,0,-42,0,-0.21,5.577647729296528,5.997647729296528,-0.2235076809889686,0.1762553615627294,-6.834457388074124e-05,0.00039350471521562114,0.027981418914213234,9.857516281858377
1.76,0,4,1,5.142764557884225,211.44947146705204,-0.5678285796153437,5.830783204987616,160,9,1,0,-42,0,-0.21,5.620783204987616,6.040783204987616,-0.22719383593540007,0.17589581726591685,-6.823629824619787e-05,0.02862761860100998,0.02872659388669949,9.834549456216013
1.792,0,4,1,5.142764557884225,216.59223602493626,0.0,5.830783204987616,160,9,1,1,-41,1,-0.15050000000000002,5.6802832049876155,5.981283204987616,-0.23090584397792027,0.1755169407514069,-6.801770305421562e-05,0.02907113772061924,0.029315150462329263,9.791887585113733
1.824,0,4,1,5.710593137499568,222.3028291624358,0.5678285796153437,5.787647729296528,160,9,1,1,-40,0,-0.15000000000000002,5.6376477292965275,5.937647729296528,-0.2346160780127517,0.1751213066062458,-6.770328526031766e-05,0.0017512281787987309,0.029694586418050756,9.81732592601549
1.856,0,4,1,7.406912128495223,229.70974129093105,1.6963189909956542,5.664570104644827,160,9,1,1,-39,0,-0.14500000000000002,5.519570104644828,5.809570104644827,-0.2382976747703404,0.1747171365697166,-6.735790196511077e-05,-0.031407982377476745,0.024573529919723173,9.803651557844962
1.8880000000000001,0,4,1,9.648045316098152,239.3577866070292,2.2411331876029292,5.513285433885829,160,9,1,1,-38,0,-0.14,5.37328543388583,5.653285433885829,-0.2418997822386097,0.1743102186339958,-6.690449037748299e-05,-0.08144016104437442,0.024398087100774055,9.777884556964878
1.92,0,4,1,12.407418527400745,251.76520513442995,2.7593732113025933,5.3408386412503175,160,9,1,1,-37,0,-0.135,5.205838641250318,5.475838641250317,-0.245404520884821,0.17390338152619006,-6.647946575012373e-05,-0.09985265178133662,0.023201180444418757,9.815012350691504
1.952,0,4,1,15.109575122340447,266.8747802567704,2.7021565949397015,5.182847707968271,160,9,1,2,-35,1,-0.07050000000000001,5.112347707968271,5.253347707968271,-0.24879850531811373,0.173499094806979,-6.60715324817384e-05,-0.11316895929299364,0.022089897231051276,9.806922189430296
1.984,0,4,1,17.22343619113144,284.09821644790185,2.1138610687909942,5.0645461479686436,160,9,1,1,-34,-1,-0.12450000000000001,4.940046147968643,5.189046147968644,-0.2520909388016966,0.17309720674137696,-6.566433279024848e-05,-0.10537705250693602,0.020498964091214083,9.818143912495236
2.016,0,4,1,19.79887635452493,303.89709280242676,2.5754401633934876,4.924476355226671,160,9,1,1,-33,0,-0.115,4.80947635522667,5.039476355226671,-0.2553077598921674,0.17269992690874372,-6.536842224456538e-05,-0.08107252866029901,0.014591608132348976,9.813421907743868
2.048,0,4,1,22.293629159694085,326.19072196212085,2.4947528051691563,4.791006603323376,160,9,1,2,-31,1,-0.050499999999999996,4.740506603323375,4.841506603323376,-0.25843459335505903,0.17230515680206204,-6.509350721179731e-05,-0.09473308543269013,0.0176508657238882,9.743617903892453
2.08,0,4,1,24.22774531795417,350.418467280075,1.9341161582600854,4.687745016755513,160,9,1,2,-29,0,-0.044999999999999984,4.642745016755513,4.732745016755513,-0.2614756909969034,0.17191341344713784,-6.482903379839179e-05,-0.09113161531491401,0.01600550744126882,9.803450592437326
2.112,0,4,1,26.104854009099288,376.5233212891743,1.8771086911451178,4.586749065497178,160,9,1,1,-28,-1,-0.09450000000000001,4.492249065497178,4.681249065497178,-0.26445088515377596,0.1715273240249196,-6.462238072203925e-05,-0.07376706417399828,0.010170741772963853,9.786191924559644
2.144,0,4,1,27.474431626277134,403.99775291545143,1.3695776171778462,4.512078197170551,160,9,1,0,-28,-1,-0.14450000000000002,4.367578197170551,4.656578197170551,-0.26736169047243574,0.1711471505998121,-6.44728877886875e-05,-0.07280119013420468,0.009102203676453218,9.759916890095797
2.176,0,4,1,27.02158159117705,431.01933450662847,-0.45285003510008437,4.536885666549905,160,9,1,-4,-32,-4,-0.378,4.158885666549905,4.914885666549905,-0.270224359489349,0.170767172314534,-6.437998034313462e-05,-0.05651152125357207,0.01203787738317454,9.789678473825687
2.208,0,4,1,25.641005824305285,456.66034033093376,-1.3805757668717646,4.611824293778742,160,9,1,-8,-40,-4,-0.6180000000000001,3.993824293778742,5.2298242937787425,-0.27310165673683,0.17037553804166486,-6.442607776837965e-05,0.00912612252384039,0.014542247785166008,9.810670076548105
2.24,0,4,1,24.702430227771313,481.36277055870505,-0.9385755965339726,4.662311779000834,160,9,1,-9,-49,-1,-0.6995,3.9628117790008344,5.361811779000835,-0.27602340127239516,0.1699506282486037,-6.458620689112418e-05,0.054890379310330605,0.030236821635586913,9.807932589965281
2.2720000000000002,0,4,1,23.26770481005697,504.630475368762,-1.4347254177143434,4.739046251688796,160,9,1,-10,-59,-1,-0.7994999999999999,3.939546251688796,5.538546251688796,-0.2789714547813549,0.16947619699480138,-6.487950265497353e-05,0.05996885976417775,0.04764880820854328,9.791775093474909
2.3040000000000003,0,4,1,21.80140948635181,526.4318848551138,-1.4662953237051575,4.817265262637658,160,9,1,-9,-68,1,-0.7855000000000001,4.031765262637658,5.602765262637658,-0.2819594913963017,0.16894285789360822,-6.549281149026247e-05,0.07219585101344236,0.05327098999776732,9.782701794779461
2.336,0,4,1,20.80679101271124,547.238675867825,-0.9946184736405712,4.870406689607444,160,9,1,-8,-76,1,-0.7755000000000001,4.094906689607444,5.645906689607444,-0.28498628244972,0.16834246039722728,-6.66660210299052e-05,0.06984120600446611,0.06165761337622015,9.781529779365306
2.368,0,4,1,19.79887635452493,567.03755222235,-1.007914658186312,4.924476355226671,160,9,1,-6,-82,2,-0.7010000000000001,4.223476355226671,5.62547635522667,-0.2880347938593883,0.16767832640379243,-6.829735263970405e-05,0.05038360751613038,0.0623237627979327,9.780929666478697
2.4,0,4,1,18.778033222445536,585.8155854447955,-1.020843132079392,4.9795969489293155,160,9,1,-5,-87,1,-0.6805000000000001,4.299096948929315,5.660096948929316,-0.2911044851564981,0.16695085443883387,-7.019019193189868e-05,0.04713133449833164,0.06272001386435537,9.81862991990413
2.432,0,4,1,17.744671625056924,603.5602570698525,-1.0333615973886126,5.035903115432742,160,9,1,-4,-91,1,-0.6505000000000001,4.385403115432742,5.686403115432742,-0.29419621638478904,0.16616518673538844,-7.223344752048215e-05,0.04373771337304333,0.059117380634318276,9.788618562318973
2.464,0,4,1,17.22343619113144,620.7836932609839,-0.521235433925483,5.0645461479686436,160,9,1,-2,-93,2,-0.556,4.5085461479686435,5.620546147968644,-0.2973096718246416,0.16532236885077584,-7.424493598144448e-05,0.0406701180330053,0.05988070641870378,9.856235591111222
2.496,0,4,1,16.17215901578257,636.9558522767664,-1.051277175348872,5.122908774330808,160,9,1,-1,-94,1,-0.5155000000000001,4.607408774330808,5.6384087743308084,-0.3004268753676863,0.16442954588787775,-7.594183286130374e-05,0.0195935644260847,0.05953392542096954,9.82772487899546
2.528,0,4,1,15.109575122340447,652.0654273991069,-1.0625838934421221,5.182847707968271,160,9,1,-1,-95,0,-0.525,4.657847707968271,5.707847707968272,-0.30356777040014027,0.16348836968917727,-7.727768324042664e-05,0.03543987446133618,0.05419780771206155,9.802291980485071
2.56,0,4,1,13.495733280795811,665.5611606799026,-1.6138418415446356,5.276118264105919,160,9,1,0,-95,1,-0.47050000000000003,4.805618264105918,5.746618264105919,-0.3067339233746075,0.162500908768615,-7.657271255089027e-05,0.03711999503082962,0.05248857945419341,9.853425440754176
2.592,0,4,1,11.859779120947966,677.4209398008506,-1.635954159847845,5.374047857621811,160,9,1,1,-94,1,-0.41550000000000004,4.958547857621811,5.789547857621811,-0.309944774231707,0.1614591495801226,-7.57641423049793e-05,0.057997814808475476,0.05437175716127454,9.818215959224283
2.624,0,4,1,8.530765609948096,685.9517054107987,-3.3290135109998698,5.587258244324584,160,9,1,0,-94,-1,-0.47450000000000003,5.112758244324584,6.061758244324584,-0.31320383925304685,0.16036516017122818,-7.485390010613865e-05,0.0610165657001888,0.05152652071305758,9.798029215363938
2.656,0,4,1,5.142764557884225,691.0944699686829,-3.3880010520638715,5.830783204987616,160,9,1,1,-93,1,-0.41050000000000003,5.420283204987616,6.2412832049876155,-0.31658217135568384,0.15919778537277707,-7.401211434150505e-05,0.1337272398625444,0.0481131103132754,9.81947885965653
2.688,0,4,1,1.7183580016555007,692.8128279703384,-3.424406556228724,6.116357855429741,160,9,1,1,-92,0,-0.41000000000000003,5.706357855429741,6.28,-0.32009488525925855,0.1579432454107797,-7.303694667400856e-05,0.15208184213307632,0.055077723477056514,9.833414176913886
2.72,0,4,1,1.7183580016555007,694.5311859719939,0.0,6.116357855429741,160,9,1,0,-92,-1,-0.4645,5.651857855429741,6.28,-0.32369352459734924,0.15662195721450337,-7.187263720323696e-05,0.10163209097541329,0.05233966117603375,9.794168753834036
2.7520000000000002,0,4,1,5.710593137499568,700.2417791094935,3.9922351358440675,5.787647729296528,160,9,1,-1,-93,-1,-0.5195,5.268147729296528,6.28,-0.32726797193845886,0.15528504231486373,-7.085341287297632e-05,-0.016626270445299986,0.04359853104823814,9.788549896674988
2.7840000000000003,0,4,1,8.530765609948096,708.7725447194415,2.8201724724485278,5.587258244324584,160,9,1,1,-92,2,-0.401,5.186258244324584,5.988258244324584,-0.33071926443940175,0.1539671454558676,-7.030580823746448e-05,-0.11889490769178138,0.047839945366020445,9.839189234166
2.816,0,4,1,11.309932474020227,720.0824771934617,2.779166864072131,5.40786162681162,160,9,1,2,-90,1,-0.3455,5.06236162681162,5.75336162681162,-0.3340442715409111,0.15265349603315176,-6.978036856521326e-05,-0.11634672617333208,0.0633178599386302,9.769743762403204
2.848,0,4,1,13.495733280795811,733.5782104742575,2.1858008067755836,5.276118264105919,160,9,1,4,-86,2,-0.22099999999999997,5.055118264105919,5.497118264105919,-0.33725105511949593,0.1513531977141983,-6.935277927138696e-05,-0.11189985224829649,0.05215580481158873,9.80395935988749
2.88,0,4,1,13.495733280795811,747.0739437550533,0.0,5.276118264105919,160,9,1,9,-77,5,0.0875,5.363618264105919,5.188618264105918,-0.34036979544532325,0.15006103318335198,-6.892113573800547e-05,-0.08243136565162866,0.04551041143690954,9.791653593220275
2.912,0,4,1,12.407418527400745,759.481362282454,-1.088314753395066,5.3408386412503175,160,9,1,13,-64,4,0.34800000000000003,5.688838641250317,4.992838641250318,-0.343485562329719,0.14875397398893753,-6.820179318106807e-05,0.0027649308370862923,0.03375673560729333,9.805897992492719
2.944,0,4,1,11.859779120947966,771.341141403402,-0.5476394064527792,5.374047857621811,160,9,1,14,-50,1,0.45450000000000007,5.828547857621811,4.919547857621811,-0.3466365953929549,0.14744098993109067,-6.709297927091906e-05,0.034641897912342325,0.010691215832859476,9.828192141011266
2.976,0,4,1,10.757967088390043,782.0991084917921,-1.1018120325579233,5.442316345653184,160,9,1,14,-36,0,0.52,5.962316345653184,4.922316345653185,-0.349821156258787,0.14614968922639038,-6.610332560549187e-05,0.024259365326949937,-0.014587151509382845,9.83695427451317
3.008,0,4,1,10.203973721731703,792.3030822135238,-0.5539933666583394,5.477446571130509,160,9,1,13,-23,-1,0.5305000000000001,6.007946571130509,4.946946571130509,-0.3530634345206962,0.14488014939644495,-6.547612154883184e-05,0.047975460526572485,-0.024442158284711902,9.812868224605415
3.04,0,4,1,11.200797787884444,803.5038800014082,0.9968240661527403,5.414632550096107,160,9,1,12,-11,-1,0.5405000000000001,5.955132550096107,4.874132550096108,-0.35634503142117413,0.14364566106959373,-6.542340082779305e-05,0.02867492479621074,-0.03238786788658534,9.790922845414007
3.072,0,4,1,14.43597497897519,817.9398549803834,3.235177191090747,5.221420761758078,160,9,1,10,-1,-2,0.486,5.707420761758078,4.735420761758078,-0.3596081466273593,0.14246851505321817,-6.592930422732145e-05,-0.0373171404794493,-0.036814434706783784,9.859625607124018
3.104,0,4,1,18.778033222445536,836.7178882028289,4.342058243470346,4.9795969489293155,160,9,1,8,7,-2,0.42600000000000005,5.405596948929316,4.553596948929315,-0.3627692375504782,0.14137526218041555,-6.673377011698518e-05,-0.15453970332643469,-0.03883496576941146,9.744294537195927
3.136,0,4,1,24.702430227771313,861.4203184306002,5.924397005325776,4.662311779000834,160,9,1,6,13,-2,0.35600000000000004,5.018311779000834,4.3063117790008345,-0.3657954184684347,0.14036811252021295,-6.748305867137344e-05,-0.18010126125597897,-0.03574911889916308,9.762524638194071
3.168,0,4,1,30.96375653207352,892.3840749626737,6.261326304302209,4.315453970186545,160,9,1,5,18,-1,0.33549999999999996,4.650953970186545,3.979953970186545,-0.36863796792363956,0.13945419737939865,-6.825070246023641e-05,-0.22271459789769416,-0.03170186186456981,9.788688938355111
3.2,0,4,1,35.37475184387608,927.7588268065498,4.410995311802562,4.04523112275942,160,9,1,4,22,-1,0.3055,4.35073112275942,3.73973112275942,-0.3712758318580057,0.1386301202159918,-6.879144515992662e-05,-0.23559647197285952,-0.02670896331749035,9.80429076269342
3.232,0,4,1,40.030259271889705,967.7890860784395,4.655507428013621,3.715860624110946,160,9,1,2,24,-2,0.211,3.926860624110946,3.5048606241109463,-0.3737542729303941,0.13787636313286694,-6.912171713822045e-05,-0.1857857863980768,-0.02439227925488811,9.832632244993981
3.2640000000000002,0,4,1,42.92282523483718,1010.7119113132767,2.8925659629474723,3.4758981961872726,160,9,1,2,26,0,0.23,3.7058981961872726,3.2458981961872726,-0.3760358006246335,0.13719959021450595,-6.905734492323144e-05,-0.2199538204009992,-0.02250706399572145,9.783505484291807
3.2960000000000003,0,4,1,45.84667402386151,1056.558585337138,2.9238487890243334,3.279281808024616,160,9,1,1,27,-1,0.1805,3.459781808024616,3.0987818080246163,-0.3781726941012751,0.13657574725519933,-6.890926804639826e-05,-0.16167833541105142,-0.016026393980643774,9.81541335074635
3.3280000000000003,0,4,1,48.742988295687134,1105.3015736328252,2.8963142718256236,3.2690759606800053,160,9,1,0,27,-1,0.1305,3.3995759606800053,3.138575960680005,-0.3801916718894348,0.13599689840679166,-6.859791710091614e-05,-0.13515662984161506,-0.016847710578088208,9.814689445690442
3.36,0,4,1,50.88860874604566,1156.190182378871,2.1456204503585283,3.2539950208442705,160,9,1,0,27,0,0.135,3.3889950208442707,3.1189950208442703,-0.3822063021166787,0.13542685726981976,-6.827388454064102e-05,-0.01691220692341029,-0.013629135329497073,9.787703860858056
3.392,0,4,1,52.70933308003393,1208.899515458905,1.8207243339882666,3.236298478447972,160,9,1,0,27,0,0.135,3.3712984784479723,3.101298478447972,-0.3842128667494533,0.13486415955898107,-6.791593232101205e-05,-0.019416014102695625,-0.011306216143724783,9.772488725982722
3.424,0,4,1,54.02312971289068,1262.9226451717957,1.31379663285675,3.2207583004378497,160,9,1,0,27,0,0.135,3.3557583004378495,3.08575830043785,-0.38620988257815325,0.13430967853876113,-6.753839892007646e-05,-0.021021184824223327,-0.011606907204054958,9.751246973879182
3.456,0,4,1,55.369199619742986,1318.2918447915388,1.346069906852307,3.202422744020444,160,9,1,0,27,0,0.135,3.3374227440204436,3.067422744020444,-0.38819869624593845,0.13376319410541102,-6.716090678091265e-05,-0.01946817563236216,-0.011433052543511197,9.827913870251052
3.488,0,4,1,55.54475887500677,1373.8366036665454,0.17555925526378502,3.19984940908884,160,9,1,6,33,6,0.4920000000000001,3.69184940908884,2.70784940908884,-0.3901775965623285,0.1332252984263792,-6.679338836836773e-05,-0.021212459649776534,-0.011417183996797703,9.83464341595498
3.52,0,4,1,54.74859424168536,1428.5851979082308,-0.7961646333214105,3.211181846291977,160,9,1,11,44,5,0.7925,4.003681846291977,2.418681846291977,-0.3921554909645778,0.13269321455073332,-6.668159977290047e-05,-0.01215374114961354,-0.010606614274355289,9.79498038785898
3.552,0,4,1,54.080072864026725,1482.6652707722576,-0.6685213776586352,3.2200305923634573,160,9,1,17,61,6,1.182,4.402030592363458,2.0380305923634574,-0.3941469767005674,0.13218214048400598,-6.674285407201608e-05,0.0002404049136204441,-0.0282186412279666,9.800708404213253
3.584,0,4,1,53.054414446381756,1535.7196852186394,-1.0256584176449692,3.2324415578492527,160,9,1,20,81,3,1.4185,4.650941557849253,1.8139415578492526,-0.39615532926768493,0.13170726222807572,-6.710554131747481e-05,0.004717769295229054,-0.042850118514649496,9.803622974414978
3.616,0,4,1,55.097504384075286,1590.8171896027147,2.04308993769353,3.20631961332164,160,9,1,20,101,0,1.505,4.71131961332164,1.70131961332164,-0.39818734557824514,0.13128748153227024,-6.791307743949336e-05,0.015102455788844053,-0.06175240875097672,9.834071830524714
3.648,0,4,1,75,1665.8171896027147,19.902495615924714,2.60889047317299,160,9,1,18,119,-2,1.4860000000000002,4.09489047317299,1.1228904731729896,-0.40021910992434,0.130939664462028,-6.93655876120372e-05,-0.006506653447195377,-0.07427159444244749,9.832105438134393
3.68,0,4,1,56.88865803962798,1722.7058476423426,-18.111341960372023,3.1787695999189993,160,9,1,10,129,-8,1.109,4.287769599918999,2.0697695999189993,-0.40188456299766173,0.13071711877032524,-7.09657527814371e-05,-0.4409581006139308,-0.08751089698192333,9.789024947789668
3.712,0,4,1,75,1797.7058476423426,18.111341960372023,2.60889047317299,160,9,1,11,140,1,1.2545,3.8633904731729896,1.3543904731729899,-0.40391712469531704,0.130511184253937,-7.332566186586675e-05,0.29822999112265514,-0.05521248871064454,9.817467267900682
3.744,0,4,1,75,1872.7058476423426,0,2.60889047317299,160,9,1,8,148,-3,1.1265,3.73539047317299,1.4823904731729898,-0.40558958361402825,0.13038820121095396,-7.537562737808083e-05,-0.40012132710571097,-0.06878781906763895,9.836004303220745
3.7760000000000002,0,4,1,75,1947.7058476423426,0,2.60889047317299,160,9,1,5,153,-3,1.0015,3.61039047317299,1.6073904731729898,-0.40726318668454925,0.13031398664854407,-7.750502648018812e-05,-0.036963128738757636,-0.05528770695193171,9.822984903867178
3.8080000000000003,0,4,1,75,2022.7058476423426,0,2.60889047317299,160,9,1,3,156,-2,0.921,3.5298904731729897,1.6878904731729898,-0.4089363011003763,0.1302825754422908,-7.925089159298813e-05,-0.02922762826061035,-0.0496235950811161,9.793626943581485
3.84,0,4,1,75,2097.7058476423426,0,2.60889047317299,160,9,1,2,158,-1,0.8855000000000001,3.49439047317299,1.7233904731729899,-0.4106081890739734,0.13028817773913498,-8.060758392890686e-05,-0.022880427142203157,-0.044669032736410985,9.80908259194609
3.872,0,4,1,75,2172.7058476423426,0,2.60889047317299,160,9,1,1,159,-1,0.8405000000000001,3.44939047317299,1.7683904731729898,-0.4122785863588867,0.13032755505717192,-8.161546483929395e-05,-0.017792237415375268,-0.041716136853001747,9.815739565639454
3.904,0,4,1,75,2247.7058476423426,0,2.60889047317299,160,9,1,0,159,-1,0.7905000000000001,3.39939047317299,1.8183904731729896,-0.4139470798074185,0.1303984963133701,-8.225528698491136e-05,-0.013775438054650434,-0.03982246526457037,9.806003775992407
3.936,0,4,1,75,2322.7058476423426,0,2.60889047317299,160,9,1,-1,158,-1,0.7355,3.34439047317299,1.8733904731729898,-0.41561332492662584,0.13049979166158204,-8.253980672059784e-05,-0.010726102019249598,-0.038776296830698644,9.791941529279468
3.968,0,4,1,75,2397.7058476423426,0,2.60889047317299,160,9,1,-2,156,-1,0.6755000000000001,3.28439047317299,1.9333904731729898,-0.4172770486624377,0.13062950422941005,-8.249638706793114e-05,-0.008434164625257541,-0.036952676408907606,9.765949432893299
4.0,0,4,1,75,2472.7058476423426,0,2.60889047317299,160,9,1,-2,154,0,0.67,3.2788904731729898,1.93889047317299,-0.4189380649173762,0.13078552076243696,-8.216032269429616e-05,-0.006849056695818323,-0.03482593433663499,9.779066112706523
4.032,0,4,1,75,2547.7058476423426,0,2.60889047317299,160,9,1,-3,151,-1,0.6005,3.2093904731729896,2.00839047317299,-0.42059654097892807,0.13096566370691087,-8.16581540591492e-05,-0.00543396957571136,-0.032435118504049607,9.815774125680512
4.064,0,4,1,75,2622.7058476423426,0,2.60889047317299,160,9,1,-3,148,0,0.59,3.1988904731729897,2.01889047317299,-0.42225199346178904,0.1311697830950346,-8.093723348536613e-05,-0.004965062909249228,-0.03234856909312457,9.81013344356507
4.096,0,4,1,75,2697.7058476423426,0,2.60889047317299,160,9,1,2,150,5,0.8724999999999999,3.48139047317299,1.7363904731729898,-0.4239046941123175,0.1313953113488325,-8.012468170295536e-05,-0.004359448121257728,-0.029589970512627538,9.807891043245721
4.128,0,4,1,75,2772.7058476423426,0,2.60889047317299,160,9,1,9,159,7,1.2765000000000002,3.88539047317299,1.3323904731729896,-0.42555550733104686,0.13164251867696058,-7.962184953443953e-05,-0.0027424434257323207,-0.029193024778600685,9.787307956799305
4.16,0,4,1,75,2847.7058476423426,0,2.60889047317299,160,9,1,11,170,2,1.4089999999999998,4.01789047317299,1.19989047317299,-0.42720319628808967,0.13192335213256462,-7.957646159533101e-05,-0.0006748002999987281,-0.040946422633570435,9.824014178733304
4.192,0,4,1,75,2922.7058476423426,0,2.60889047317299,160,9,1,14,184,3,1.6335000000000002,4.24239047317299,0.9753904731729897,-0.4288439588168118,0.13225392714699977,-7.975611790187256e-05,0.0006881568990114006,-0.05699176511242406,9.813492184444453
4.224,0,4,1,75,2997.7058476423426,0,2.60889047317299,160,9,1,17,201,3,1.8685000000000003,4.47739047317299,0.7403904731729896,-0.43047553177581627,0.1326394819936944,-8.043634783587265e-05,0.002357862370786565,-0.06274253131439052,9.792945702473482
4.256,0,4,1,75,3072.7058476423426,0,2.60889047317299,160,9,1,19,220,2,2.059,4.66789047317299,0.5498904731729897,-0.43209505232136813,0.13308840394133933,-8.181307748996412e-05,0.005487422107190589,-0.07074920492418502,9.815954251620793
4.288,0,4,1,75,3147.7058476423426,0,2.60889047317299,160,9,1,16,236,-3,1.9665,4.575390473172989,0.6423904731729899,-0.4336981885056057,0.13360934930132096,-8.404154984293158e-05,0.00893699932323062,-0.08087840391040958,9.838357480618841
4.32,0,4,1,75,3222.7058476423426,0,2.60889047317299,160,9,1,13,249,-3,1.8815,4.49039047317299,0.7273904731729899,-0.43527008260470723,0.1342077786446274,-8.53981058018781e-05,0.000800915413015968,-0.09111303535679093,9.857148615733502
4.352,0,4,1,57.144278049567006,3279.85012569191,-17.855721950432994,3.1744817784197785,160,9,1,10,259,-3,1.7814999999999999,4.955981778419778,1.3929817784197787,-0.4368018275659015,0.1348730334801493,-8.70041942048639e-05,-0.007964350401436865,-0.0863242880372242,9.79078786492431
4.384,0,4,1,56.496563017585785,3336.3466887094955,-0.647715031981221,3.185174490566953,160,9,1,6,265,-4,1.607,4.7921744905669525,1.5781744905669528,-0.4385448491728179,0.1357174842363918,-8.920753968561651e-05,0.26261849761647466,-0.07125392083793965,9.808337597070128
4.416,0,4,1,55.64921965924494,3391.9959083687404,-0.8473433583408436,3.198301692234392,160,9,1,4,269,-2,1.536,4.734301692234392,1.6623016922343918,-0.44026163838726906,0.136646628739928,-9.143510302497652e-05,0.019211817345131842,-0.09691794741906581,9.849673471283038
4.448,0,4,1,54.74859424168536,3446.7445026104256,-0.9006254175595814,3.211181846291977,160,9,1,12,281,8,2.041,5.252181846291977,1.1701818462919769,-0.44117219431586535,0.13720622562023066,-9.363058002824151e-05,-0.8659053121977314,-0.09133231203960851,9.836870178091518
4.48,0,4,1,53.7852987178846,3500.52980132831,-0.9632955238007597,3.223742380173625,160,9,1,21,302,9,2.6005000000000003,5.824242380173626,0.6232423801736249,-0.44158442392555214,0.13749557176116287,-9.63822668164551e-05,-0.5551057920106232,-0.02241513371652412,9.711968616090225
4.5120000000000005,0,4,1,53.13010235415599,3553.659903682466,-0.6551963637286136,3.23157480231107,160,9,1,25,327,4,2.9029999999999996,6.13457480231107,0.3285748023110706,-0.44180124531947634,0.13765289775344786,-9.922087037522731e-05,-0.22994029230976454,0.004417009923978538,9.881981852134233
4.5440000000000005,0,4,1,53.20470619156868,3606.8646098740346,0.07460383741269538,3.2307115428752398,160,9,1,27,354,2,3.129,6.28,0.10171154287523976,-0.4419119095230871,0.13773931264301928,-0.00010118209277173301,-0.12472831204761892,-0.005945042171879171,9.817553647381121
4.5760000000000005,0,4,1,53.20470619156868,3660.0693160656033,0.0,3.2307115428752398,160,9,1,28,382,1,3.3145000000000007,6.28,-0.0837884571247609,-0.4419409890453215,0.13777029951718076,-0.00010183032654731416,-0.09642207251732447,-0.00760304080646262,9.799772884467902
4.6080000000000005,0,4,1,54.050721677183724,3714.120037742787,0.846015485615041,3.2204057561876165,160,9,1,11,393,-17,2.4385000000000003,5.658905756187616,0.7819057561876162,-0.4430605984619397,0.13846687537257812,-0.00010110190476742345,1.249034618371041,-0.0022640201022392486,9.849999063479837
4.64,0,4,1,54.42278061353509,3768.542818356322,0.37205893635136533,3.2155694311226375,160,9,1,-3,390,-14,1.7369999999999999,4.952569431122638,1.4785694311226376,-0.444684741015974,0.13949465822469598,-9.950430352462063e-05,0.5862418114875693,0.0070944983289366725,9.785073649995761
4.672,0,4,1,54.14708038487515,3822.6898987411973,-0.27570022865993593,3.219173555613344,160,9,1,-10,380,-7,1.3685,4.587673555613344,1.8506735556133438,-0.44627769013048946,0.14065165530931778,-9.812529967903778e-05,0.054017547012746345,-0.1333418565904177,9.774119912398877
4.704,0,4,1,53.47114463301482,3876.161043374212,-0.6759357518603295,3.227569342506388,160,9,1,-14,366,-4,1.1119999999999999,4.339569342506388,2.1155693425063884,-0.4478355115615217,0.14189275887338854,-9.727833199479896e-05,0.026792854067446355,-0.09950937930034755,9.856410978759227
4.736,0,4,1,53.061237267710176,3929.222280641922,-0.40990736530464744,3.2323639490386182,160,9,1,-15,351,-1,1.0005000000000002,4.232863949038618,2.231863949038618,-0.4493635537032001,0.14319745505284814,-9.671498139218054e-05,0.019628931834045477,-0.08037425199222333,9.835480474776336
4.768,0,4,1,52.217379159029214,3981.4396598009516,-0.843858108680962,3.24152237098512,160,9,1,-15,336,0,0.9299999999999999,4.17152237098512,2.31152237098512,-0.45086095245317204,0.1445473574635036,-9.627535044921288e-05,0.008444539170328577,-0.06710264007867525,9.846668311723645
4.8,0,4,1,51.78304885520115,4033.222708656153,-0.43433030382806237,3.2458608458275497,160,9,1,-15,321,0,0.855,4.100860845827549,2.3908608458275498,-0.45233144201685827,0.14593791705526585,-9.580764475989115e-05,0.009056935359202517,-0.061343139734197305,9.841872981268523
4.832,0,4,1,51.34019174590991,4084.562900402063,-0.4428571092912392,3.250023176211444,160,9,1,-15,306,0,0.78,4.0300231762114445,2.470023176211444,-0.45377505456453193,0.14736425969187306,-9.518395400771006e-05,0.006640857067192364,-0.05844629349239534,9.80179338629415
4.864,0,4,1,51.11550356628541,4135.678403968348,-0.2246881796245006,3.252034117285769,160,9,1,-15,291,0,0.7050000000000001,3.9570341172857693,2.547034117285769,-0.4551940181809671,0.1488233331050393,-9.434935174092683e-05,0.006775061193919915,-0.054039221532543695,9.795672260977648
4.896,0,4,1,50.88860874604566,4186.567012714394,-0.2268948202397496,3.2539950208442705,160,9,1,-14,277,1,0.6894999999999999,3.9434950208442703,2.5644950208442707,-0.4565897159385971,0.1503113305832544,-9.329128380742083e-05,0.005559201318782542,-0.050238655702686846,9.807782962124984
4.928,0,4,1,50.42809718611073,4236.995109900505,-0.460511559934929,3.2577613273196406,160,9,1,-12,265,2,0.7339999999999999,3.9917613273196406,2.5237613273196406,-0.4579837733585403,0.15184650769158273,-9.21080503512306e-05,0.03356912154683697,-0.04619812125086697,9.802263102794154
4.96,0,4,1,50.19442890773481,4287.189538808239,-0.23366827837592297,3.2595607206988135,160,9,1,-11,254,1,0.7244999999999999,3.9840607206988135,2.5350607206988136,-0.45935661647708703,0.1534045226686476,-9.090888987605371e-05,0.0034940587058129046,-0.04441775493912548,9.88364565538749
4.992,0,4,1,50.19442890773481,4337.383967715974,0.0,3.2595607206988135,160,9,1,-11,243,0,0.665,3.9245607206988136,2.5945607206988135,-0.4607051481034872,0.15498568932643686,-8.965240064902173e-05,0.0022674139033642834,-0.04645275686254201,9.826452777521206
5.024,0,4,1,49.95845091948537,4387.34241863546,-0.23597798824943794,3.2613062976048606,160,9,1,-9,234,2,0.729,3.9903062976048607,2.5323062976048605,-0.46202837971585903,0.15658840089959902,-8.831729093069715e-05,0.0008982048667996514,-0.04630911700314836,9.840203669700681
5.056,0,4,1,49.72013693104356,4437.062555566503,-0.23831398844180995,3.262986424311118,160,9,1,-8,226,1,0.7345,3.997486424311118,2.528486424311118,-0.46332915011360615,0.15821217206724345,-8.708827588954117e-05,0.0027521375928745073,-0.0429976731876127,9.789728716118248
5.088,0,4,1,49.236394799058836,4486.298950365562,-0.4837421319847266,3.266164609700395,160,9,1,-7,219,1,0.7494999999999998,4.015664609700394,2.516664609700395,-0.4646043163523882,0.15985853960176502,-8.591704571957355e-05,0.002564712047748025,-0.046162436157291306,9.787125581524627
5.12,0,4,1,48.239700296102136,4534.538650661664,-0.9966945029567,3.271693564338972,160,9,1,-4,215,3,0.8885,4.160193564338972,2.383193564338972,-0.4658537408956491,0.16152815811137267,-8.483809947115728e-05,0.003541620402676226,-0.04627567400619279,9.8469499179975
5.152,0,4,1,46.936800386221044,4581.475451047885,-1.3028999098810914,3.2768356097624167,160,9,1,-2,213,2,0.974,4.250835609762417,2.3028356097624165,-0.4670774384501499,0.16322305991658576,-8.3996598497494e-05,0.0058150903274079135,-0.047035679742718675,9.805672001843385
5.184,0,4,1,45.28505127758383,4626.760502325469,-1.6517491086372118,3.2798752026476596,160,9,1,0,213,2,1.0739999999999998,4.353875202647659,2.20587520264766,-0.46826887755370256,0.1649466330314664,-8.334447466226517e-05,0.005794917638126999,-0.053828817861677855,9.814972521077403
5.216,0,4,1,43.22853025996593,4669.989032585435,-2.0565210176179036,3.4484544492685467,160,9,1,1,214,1,1.1245,4.572954449268547,2.3239544492685464,-0.4694230694174061,0.16669968822810435,-8.291661947698072e-05,0.004868833370141355,-0.05832276669990058,9.841703139843585
5.248,0,4,1,41.66908261954995,4711.658115204985,-1.559447640415982,3.5840363886425965,160,9,1,0,214,-1,1.0655000000000001,4.649536388642597,2.5185363886425964,-0.4705916418279546,0.16857338708222327,-8.270440722800941e-05,0.10780933805990747,-0.06011351349934387,9.86154447632055
5.28,0,4,1,40.030259271889705,4751.688374476875,-1.6388233476602423,3.715860624110946,160,9,1,0,214,0,1.07,4.7858606241109465,2.645860624110946,-0.4717556988891686,0.17055185133358855,-8.261466217160222e-05,0.08727398354631313,-0.06631693937314159,9.863680105144336
5.312,0,4,1,38.30873556744772,4789.997110044323,-1.721523704441985,3.8445060828139765,160,9,1,0,214,0,1.07,4.914506082813976,2.7745060828139767,-0.4729123984485988,0.17263215003982507,-8.270764018491507e-05,0.08486304053588217,-0.0648456882214576,9.761839572466629
5.344,0,4,1,36.86989764584401,4826.867007690166,-1.4388379216037066,3.9455326768225967,160,9,1,-1,213,-1,1.0105,4.956032676822597,2.9350326768225967,-0.4740562375411392,0.17481306210678452,-8.295494617873399e-05,0.08274477559128883,-0.06768430743281374,9.790878102370488
5.376,0,4,1,35.753887254436755,4862.620894944603,-1.1160103914072579,4.020413348586382,160,9,1,-2,211,-1,0.9505,4.970913348586382,3.0699133485863825,-0.4751748825136956,0.17707848580239322,-8.324537476939696e-05,0.06390761109197594,-0.07046104031067328,9.83241176399016
5.408,0,4,1,34.99202019855866,4897.612915143161,-0.761867055878092,4.069988368518839,160,9,1,-4,207,-2,0.826,4.895988368518839,3.243988368518839,-0.47625282268083835,0.17939400381008316,-8.351767695002899e-05,0.02859302621454825,-0.06975043023780006,9.811442795954443
5.44,0,4,1,33.424811182603804,4931.037726325765,-1.5672090159548588,4.16851182722942,160,9,1,-4,203,0,0.8150000000000002,4.98351182722942,3.3535118272294193,-0.47728035777758887,0.18173570849898454,-8.361257845746449e-05,0.004518845920491343,-0.06954146175169904,9.794012337343933
5.472,0,4,1,32.210927723673755,4963.248654049439,-1.2138834589300487,4.242043203031546,160,9,1,-4,199,0,0.7949999999999999,5.037043203031546,3.447043203031546,-0.4782850689079004,0.1841558612514862,-8.364785744247906e-05,0.06267758239822108,-0.06375574607469273,9.805616754601758
5.5040000000000004,0,4,1,30.96375653207352,4994.212410581513,-1.2471711916002342,4.315453970186545,160,9,1,-4,195,0,0.7749999999999999,5.0904539701865446,3.540453970186545,-0.4792592047424994,0.18663992168382235,-8.357664431509967e-05,0.04813199363976729,-0.06585552258797427,9.855303304734829
5.5360000000000005,0,4,1,30.11373315098243,5024.326143732495,-0.8500233810910913,4.364417602783343,160,9,1,-5,190,-1,0.6955000000000001,5.059917602783343,3.668917602783343,-0.4802019438547275,0.18918712615648442,-8.338647484788797e-05,0.04810850902350433,-0.06603853078247696,9.829493429217855
5.5680000000000005,0,4,1,29.683140179123296,5054.009283911619,-0.43059297185913437,4.388927883324419,160,9,1,-5,185,0,0.675,5.063927883324419,3.713927883324419,-0.48110859617374563,0.19178512469925046,-8.297248979092717e-05,0.036072528559470136,-0.06634866270804211,9.851097508138983
5.6000000000000005,0,4,1,28.810793742973065,5082.820077654592,-0.8723464361502309,4.438044307025693,160,9,1,-4,181,1,0.7095,5.147544307025694,3.728544307025693,-0.4819769400593617,0.19441361331726345,-8.243600913749455e-05,0.017206610133572223,-0.06203083858121382,9.833471784308903
5.632,0,4,1,29.24882633654698,5112.0689039911385,0.4380325935739151,4.4134673294980225,160,9,1,-5,176,-1,0.6255000000000001,5.038967329498022,3.7879673294980223,-0.48281127726586076,0.1970838193926892,-8.188713553489504e-05,0.029755520618079574,-0.061874483716383884,9.818772964886373
5.664,0,4,1,30.5406048496815,5142.60950884082,1.2917785131345205,4.339928803294204,160,9,1,-6,170,-1,0.5455,4.885428803294204,3.794428803294204,-0.48360459496600405,0.19978392269833076,-8.114544972454008e-05,0.017384769276133385,-0.06514631485423233,9.849894700136295
5.696,0,4,1,30.96375653207352,5173.573265372894,0.42315168239202094,4.315453970186545,160,9,1,-5,165,1,0.5795,4.894953970186545,3.735953970186545,-0.48434719133780363,0.2024484341015753,-8.025655616713916e-05,-0.0463342720925,-0.0575165239789277,9.777958593418886
5.728,0,4,1,31.38319105635903,5204.956456429253,0.41943452428551,4.29098574308139,160,9,1,-5,160,0,0.55,4.84098574308139,3.7409857430813904,-0.48505358680062133,0.20510700328535114,-7.943895572394555e-05,-0.01428993643616332,-0.051955110416918235,9.799975504200889
5.76,0,4,1,32.210927723673755,5237.167384152927,0.8277366673147242,4.242043203031546,160,9,1,-5,155,0,0.525,4.767043203031546,3.717043203031546,-0.485721632522816,0.2077591969006812,-7.860517288487204e-05,-0.014800194206038888,-0.05369889188192772,9.830083038985165
5.792,0,4,1,32.61924307119282,5269.78662722412,0.4083153475190642,4.217555288346352,160,9,1,-5,150,0,0.5,4.717555288346352,3.717555288346352,-0.48634963931632985,0.21038908296464234,-7.779127745152249e-05,-0.029896841674734605,-0.05146405123455473,9.817807402269214
5.824,0,4,1,33.424811182603804,5303.211438406724,0.8055681114109845,4.16851182722942,160,9,1,-5,145,0,0.475,4.643511827229419,3.6935118272294196,-0.4869432078956215,0.21301109979097824,-7.701268025110675e-05,-0.014651191041888981,-0.0492262097533377,9.838959173530199
5.856,0,4,1,33.82208521749396,5337.033523624217,0.39727403489015245,4.143945406112972,160,9,1,-5,140,0,0.45000000000000007,4.593945406112972,3.693945406112972,-0.48750068250426254,0.21560927345537279,-7.628752580850738e-05,-0.03007634337501842,-0.04743034299855608,9.791495599634953
5.888,0,4,1,34.605675551638576,5371.6391991758555,0.7835903341446198,4.094689096142488,160,9,1,-5,135,0,0.42500000000000004,4.519689096142488,3.6696890961424886,-0.48802728148422836,0.21819820877734344,-7.562062465816047e-05,-0.014683883115105921,-0.04505057581980528,9.835254513463969
5.92,0,4,1,34.99202019855866,5406.631219374414,0.38634464692008663,4.069988368518839,160,9,1,-5,130,0,0.4,4.469988368518839,3.669988368518839,-0.48852165043120993,0.22076185709062443,-7.502174761561502e-05,-0.029967452260657067,-0.0429451415101325,9.767245689975608
5.952,0,4,1,35.37475184387608,5442.00597121829,0.38273164531742054,4.04523112275942,160,9,1,-4,126,1,0.4345,4.47973112275942,3.61073112275942,-0.4889886671743802,0.2233199484930116,-7.446177232236888e-05,-0.010089774519684475,-0.04102004955033272,9.797375246050493
5.984,0,4,1,34.605675551638576,5476.6116467699285,-0.7690762922375072,4.094689096142488,160,9,1,-1,125,3,0.5884999999999999,4.683189096142488,3.5061890961424886,-0.48943001517164,0.22587295035878457,-7.390804247105198e-05,-0.009275588397804384,-0.03940176457637009,9.748880281818913
6.016,0,4,1,33.424811182603804,5510.036457952532,-1.1808643690347722,4.16851182722942,160,9,1,2,127,3,0.7484999999999999,4.91701182722942,3.4200118272294198,-0.48985151874555183,0.22845334677033996,-7.357868095951223e-05,0.02358359922321938,-0.03772089257582526,9.79989099480518
6.048,0,4,1,31.798912824294433,5541.8353707768265,-1.625898358309371,4.2665169762980515,160,9,1,4,131,2,0.864,5.130516976298051,3.4025169762980516,-0.4902449180776232,0.2310883513167536,-7.348951025805753e-05,0.04954081104841487,-0.04852558385879628,9.803255890038347
6.08,0,4,1,30.5406048496815,5572.375975626508,-1.2583079746129329,4.339928803294204,160,9,1,4,135,0,0.875,5.214928803294204,3.464928803294204,-0.4906004228921836,0.23379438197945027,-7.3680083916592e-05,0.06516547019175514,-0.05840667065764892,9.80176094332019
6.112,0,4,1,29.24882633654698,5601.624801963055,-1.2917785131345205,4.4134673294980225,160,9,1,3,138,-1,0.8355000000000001,5.248967329498022,3.5779673294980223,-0.4909061829253187,0.23655541061398874,-7.404633112239115e-05,0.049437223017006295,-0.0669152052930763,9.79634568117268
6.144,0,4,1,27.923589715138373,5629.548391678193,-1.3252366214086067,4.487341320305189,160,9,1,3,141,0,0.855,5.34234132030519,3.6323413203051893,-0.49115963550106184,0.23936979564151512,-7.445589653521344e-05,0.04852723305547597,-0.06779037128967773,9.848690287927123
6.176,0,4,1,26.565051177077994,5656.113442855271,-1.3585385380603796,4.561772825647204,160,9,1,2,143,-1,0.8105,5.3722728256472045,3.751272825647204,-0.491361625806546,0.2422386250896871,-7.495841278627041e-05,0.05058357652228155,-0.06726259514363526,9.848348099391258
6.208,0,4,1,25.173524524530173,5681.286967379801,-1.391526652547821,4.637008452531117,160,9,1,2,145,0,0.825,5.462008452531117,3.812008452531117,-0.49150950677590227,0.24515814224644764,-7.54531612756227e-05,0.04769842579869805,-0.06856047314184131,9.82140444194292
6.24,0,4,1,24.22774531795417,5705.514712697755,-0.9457792065760025,4.687745016755513,160,9,1,0,145,-2,0.716,5.403745016755513,3.971745016755513,-0.4916049191504336,0.2481277671169055,-7.597731005409836e-05,0.0479402190437417,-0.06664405859616103,9.822146230826068
6.272,0,4,1,22.782405730481685,5728.297118428237,-1.4453395874724855,4.764937900894603,160,9,1,0,145,0,0.725,5.489937900894603,4.0399379008946035,-0.49164468440460796,0.25113014566100283,-7.632388725804622e-05,0.031795657866914004,-0.06982043690404398,9.786380612870826
6.304,0,4,1,21.80140948635181,5750.098527914589,-0.980996244129873,4.817265262637658,160,9,1,-1,144,-1,0.6655,5.482765262637658,4.151765262637658,-0.4916361683712608,0.2541816023529242,-7.661601871856646e-05,0.049050153007245995,-0.06277011845909972,9.786749338855918
6.336,0,4,1,20.80679101271124,5770.9053189273,-0.9946184736405712,4.870406689607444,160,9,1,-1,143,0,0.6649999999999999,5.535406689607444,4.205406689607444,-0.49157809282218096,0.25726520709019146,-7.672453932871387e-05,0.033108140597283946,-0.06444560117754268,9.798634392745106
6.368,0,4,1,19.79887635452493,5790.7041952818245,-1.007914658186312,4.924476355226671,160,9,1,-2,141,-1,0.6005,5.524976355226671,4.32397635522667,-0.49147367436098205,0.26038113923574463,-7.671857863619617e-05,0.03360608023591073,-0.06172301212063522,9.846299806437944
6.4,0,4,1,18.778033222445536,5809.48222850427,-1.020843132079392,4.9795969489293155,160,9,1,-2,139,0,0.5950000000000001,5.574596948929315,4.384596948929316,-0.49132112978067743,0.26352912257904926,-7.650456485232271e-05,0.0341731734355874,-0.06406291052391215,9.82126876453443
6.432,0,4,1,18.262889942194125,5827.745118446464,-0.5151432802514115,5.007593001934974,160,9,1,-3,136,-1,0.5255000000000001,5.533093001934974,4.482093001934974,-0.49112422123745725,0.2667097347403926,-7.619035756128295e-05,0.03496941855305585,-0.060437643903699774,9.78587663509554
6.464,0,4,1,17.22343619113144,5844.968554637596,-1.039453751062684,5.0645461479686436,160,9,1,-3,133,0,0.515,5.579546147968643,4.549546147968644,-0.4908842890561228,0.26990493580498254,-7.568741180598824e-05,0.017860607263004345,-0.06052135326283368,9.834372984605444
6.496,0,4,1,16.17215901578257,5861.140713653378,-1.051277175348872,5.122908774330808,160,9,1,-3,130,0,0.5,5.622908774330808,4.622908774330808,-0.49060869479958163,0.2731333770755309,-7.511379955666385e-05,0.03557204194684334,-0.051704040372145786,9.826522153512174
6.5280000000000005,0,4,1,16.17215901578257,5877.31287266916,0.0,5.122908774330808,160,9,1,-4,126,-1,0.4255,5.548408774330808,4.697408774330809,-0.49029336907803217,0.2763956476690568,-7.448701142733459e-05,0.037001362296976044,-0.055388991493069674,9.805518869518037
6.5600000000000005,0,4,1,16.17215901578257,5893.485031684942,0.0,5.122908774330808,160,9,1,-3,123,1,0.4695,5.592408774330808,4.653408774330808,-0.4899425136630572,0.27965408107739914,-7.375082507772579e-05,0.00038130564365778107,-0.055490307125034326,9.8063468296428
6.5920000000000005,0,4,1,17.22343619113144,5910.708467876074,1.051277175348872,5.0645461479686436,160,9,1,-4,119,-1,0.39049999999999996,5.455046147968644,4.674046147968643,-0.48956166771065013,0.28290938918061276,-7.312630046732958e-05,0.0007354384191791883,-0.05000766284577742,9.782986954655765
6.6240000000000006,0,4,1,18.778033222445536,5929.4865010985195,1.5545970313140955,4.9795969489293155,160,9,1,-4,115,0,0.37500000000000006,5.3545969489293155,4.6045969489293155,-0.48915200742087345,0.28612350421407695,-7.245552537535858e-05,-0.03612345784043697,-0.053554243817825774,9.797182593055513
6.656000000000001,0,4,1,20.304473709960448,5949.79097480848,1.5264404875149111,4.897317877337974,160,9,1,-4,111,0,0.35500000000000004,5.252317877337974,4.5423178773379735,-0.48872246845530937,0.2892802730682258,-7.186886161623073e-05,-0.05252952834373059,-0.04707692828994697,9.80065829836466
6.688,0,4,1,21.80140948635181,5971.592384294832,1.4969357763913642,4.817265262637658,160,9,1,-4,107,0,0.335,5.152265262637658,4.482265262637658,-0.48827477322411506,0.2923814534600066,-7.137116983222357e-05,-0.05097717037462122,-0.04502877114816424,9.78511003549184
6.72,0,4,1,23.26770481005697,5994.860089104889,1.4662953237051575,4.739046251688796,160,9,1,-4,103,0,0.315,5.0540462516887965,4.424046251688796,-0.4878109037090733,0.295428581572505,-7.096755105730386e-05,-0.049608991136847434,-0.04257907268010867,9.843216807119616
6.752,0,4,1,24.702430227771313,6019.5625193326605,1.4347254177143434,4.662311779000834,160,9,1,-4,99,0,0.295,4.957311779000834,4.3673117790008344,-0.4873327745959845,0.2984229569992272,-7.064591069473256e-05,-0.04861431845615077,-0.04031345254387943,9.840350744824452
6.784,0,4,1,26.104854009099288,6045.66737334176,1.4024237813279754,4.586749065497178,160,9,1,-4,95,0,0.275,4.861749065497178,4.311749065497177,-0.4868422623391718,0.3013656659826205,-7.0213162208373e-05,-0.0482786364590532,-0.037648318050788394,9.82758272322307
6.816,0,4,1,27.474431626277134,6073.141804968037,1.3695776171778462,4.512078197170551,160,9,1,-4,91,0,0.255,4.767078197170551,4.257078197170551,-0.48634118411567495,0.30425762282099034,-6.971653216275402e-05,-0.04789335590666298,-0.035271589299349405,9.76834035279313
6.848,0,4,1,29.24882633654698,6102.390631304584,1.7743947102698456,4.4134673294980225,160,9,1,-5,86,-1,0.1755,4.588967329498022,4.237967329498023,-0.4858313119157851,0.3070995836334716,-6.91918000106373e-05,-0.04795048179964082,-0.03247503648237245,9.754121470924744
6.88,0,4,1,30.5406048496815,6132.931236154265,1.2917785131345205,4.339928803294204,160,9,1,-4,82,1,0.21450000000000002,4.554428803294204,4.125428803294204,-0.4853172905229058,0.3098765833747558,-6.857691093949819e-05,-0.06396945884639474,-0.029896303824629853,9.781656622204865
6.912,0,4,1,30.5406048496815,6163.471841003947,0.0,4.339928803294204,160,9,1,-1,81,3,0.36850000000000005,4.708428803294204,3.971428803294204,-0.4848019174900974,0.31260558580170855,-6.806725609737226e-05,-0.0487359953286188,-0.023456249386675804,9.844996355349277
6.944,0,4,1,29.683140179123296,6193.15498118307,-0.8574646705582047,4.388927883324419,160,9,1,3,84,4,0.5880000000000001,4.976927883324419,3.8009278833244187,-0.4842737983499736,0.31533248941536424,-6.779529512390518e-05,-0.0033005177837967968,-0.02486462828111673,9.822890904672727
6.976,0,4,1,27.923589715138373,6221.078570898208,-1.7595504639849224,4.487341320305189,160,9,1,6,90,3,0.7635,5.250841320305189,3.723841320305189,-0.483716127899731,0.3180861885327077,-6.77597112506128e-05,0.033694437534606735,-0.03414795792310471,9.810274332466387
7.008,0,4,1,26.565051177077994,6247.643622075287,-1.3585385380603796,4.561772825647204,160,9,1,7,97,1,0.8394999999999999,5.4012728256472045,3.722272825647204,-0.48310631489490996,0.32089449705312056,-6.793173244144628e-05,0.08380346639339435,-0.04831085482863999,9.79696906118165
7.04,0,4,1,25.173524524530173,6272.817146599817,-1.391526652547821,4.637008452531117,160,9,1,6,103,-1,0.8105000000000001,5.4475084525311175,3.826508452531117,-0.4824340000865029,0.32373889162271846,-6.833485452500086e-05,0.06661275097488656,-0.060703922386157703,9.803445416174537
7.072,0,4,1,24.22774531795417,6297.044891917771,-0.9457792065760025,4.687745016755513,160,9,1,5,108,-1,0.7855000000000001,5.473245016755513,3.902245016755513,-0.4816931490158748,0.32661666159278724,-6.920253722241844e-05,0.06364422280623266,-0.0664430344862626,9.82274792511407
7.104,0,4,1,22.782405730481685,6319.827297648252,-1.4453395874724855,4.764937900894603,160,9,1,4,112,-1,0.7555000000000001,5.520437900894603,4.0094379008946035,-0.4808889106031839,0.3295112112284648,-7.046070615234108e-05,0.044829001887331466,-0.0656870353919394,9.815199034095519
