Time,SetPointAngle,SensorAngleRow,SensorAngleWidth,Angle,IntegralAngle,DeltaAngle,BaseSpeed,SetPointError,SensorErrorRow,SensorErrorWidth,Error,IntegralError,DeltaError,DeltaSpeed,LeftSpeed,RightSpeed,X,Y,Z,Roll,Pitch,Yaw
0.008,0,4,1,0.0,0.0,0.0,6.28,160,7,1,1,1,1,0.0595,6.28,6.2205,0.360682,0.4009999999999967,-5.441794429106826e-05,-1.2653792179699163e-08,-3.302501023706672e-08,9.928053609722056
0.016,0,4,1,0.9548412538723549,0.9548412538723549,0.9548412538723549,6.23130309605251,160,7,1,1,2,0,0.060000000000000005,6.28,6.171303096052511,0.359773910507813,0.40100000265330105,-4.4177209734725525e-05,14.382569469431942,-3.8109113863738793e-06,9.593873312872995
0.024,0,4,1,0.0,0.9548412538723549,-0.9548412538723549,6.280954841253872,160,7,1,1,3,0,0.065,6.28,6.215954841253872,0.35977074640938256,0.40100000432637833,-3.898208066046953e-05,-14.098767701838305,-2.2674432832384893e-05,9.84324645841449
0.032,0,4,1,0.0,0.9548412538723549,0.0,6.28,160,7,1,1,4,0,0.07,6.28,6.21,0.3590275634166039,0.40100000715819195,-3.329360318957142e-05,11.663221895998937,1.3422685478600263e-05,9.73635819433785
0.04,0,4,1,0.9548412538723549,1.9096825077447097,0.9548412538723549,6.23130309605251,160,7,1,1,5,0,0.07500000000000001,6.28,6.15630309605251,0.3580288993787415,0.401000045504462,-2.9068068631649124e-05,4.0590570668271555,0.0003387065751590234,9.780953105748003
0.048,0,4,1,0.9548412538723549,2.8645237616170647,0.0,6.2322579373063824,160,7,1,1,6,0,0.08,6.28,6.152257937306382,0.35703397433350753,0.401000334156127,-2.648162192589107e-05,0.006078700231431258,-0.0039365525047743025,9.779297706588101
0.056,0,4,1,0.9548412538723549,3.8193650154894194,0.0,6.2322579373063824,160,7,1,1,7,0,0.085,6.28,6.1472579373063825,0.35603937739103514,0.40100099308918563,-2.442930828813923e-05,0.048540280766422056,-0.005790667554388582,9.808022799613788
0.064,0,4,1,0.9548412538723549,4.774206269361774,0.0,6.2322579373063824,160,7,1,1,8,0,0.09,6.28,6.142257937306383,0.3550451838313912,0.4010020282300068,-2.279319734544913e-05,0.036625902719318024,-0.0058831065308523585,9.784291210700276
0.07200000000000001,0,4,1,0.9548412538723549,5.729047523234129,0.0,6.2322579373063824,160,7,1,1,9,0,0.095,6.28,6.137257937306383,0.3540513932243959,0.4010034488207982,-2.1483379240827202e-05,0.02518007121672259,-0.006039016579902287,9.78504545704333
0.08,0,4,1,0.0,5.729047523234129,-0.9548412538723549,6.280954841253872,160,7,1,0,9,-1,0.0405,6.28,6.2404548412538725,0.3530580052477277,0.40100526473825193,-2.0427875833109108e-05,0.013821066763788609,-0.0061839469135033485,9.772019970020725
0.088,0,4,1,0.0,5.729047523234129,0.0,6.28,160,7,1,0,9,0,0.045,6.28,6.235,0.35205636570077115,0.4010074948929482,-1.9564797046007013e-05,0.13924113681381262,-0.006263424801443122,9.856619989155897
0.096,0,4,1,0.0,5.729047523234129,0.0,6.28,160,7,1,0,9,0,0.045,6.28,6.235,0.35105516292030675,0.4010098190382529,-1.8860428224852163e-05,-0.006686995188865766,-0.0014912500473563178,9.801179656151286
0.10400000000000001,0,4,1,0.0,5.729047523234129,0.0,6.28,160,7,1,0,9,0,0.045,6.28,6.235,0.35005396162995844,0.40101225697049586,-1.8278315966685152e-05,-0.009909924497186777,-0.0017873122290517445,9.876387299042417
0.112,0,4,1,0.9548412538723549,6.6838887771064845,0.9548412538723549,6.23130309605251,160,7,1,0,9,0,0.045,6.27630309605251,6.1863030960525105,0.34905276151158454,0.40101481066084654,-1.778990545459741e-05,-0.01987502184693092,-0.001823170583176977,9.751171076588593
0.12,0,4,1,0.9548412538723549,7.63873003097884,0.0,6.2322579373063824,160,7,1,0,9,0,0.045,6.277257937306382,6.1872579373063825,0.3480557531000115,0.40101746468002114,-1.7367956480210042e-05,-0.09529692244206969,-0.0017548245101689595,9.734544220691586
0.128,0,4,1,0.9548412538723549,8.593571284851194,0.0,6.2322579373063824,160,7,1,0,9,0,0.045,6.277257937306382,6.1872579373063825,0.3470585936783431,0.40102037277528296,-1.6996265669581845e-05,-0.03898527423232675,-0.0039947426275553635,9.74381651049721
0.136,0,4,1,0.9548412538723549,9.548412538723548,0.0,6.2322579373063824,160,7,1,0,9,0,0.045,6.277257937306382,6.1872579373063825,0.3460614374109026,0.4010235317520622,-1.6576807443583266e-05,-0.03989284035287741,-0.003993077487447688,9.852610442743897
0.14400000000000002,0,4,1,0.9548412538723549,10.503253792595903,0.0,6.2322579373063824,160,7,1,0,9,0,0.045,6.277257937306382,6.1872579373063825,0.3450642802729604,0.40102695304500563,-1.6438132264002397e-05,-0.03819072031875868,-0.00409389033441602,9.809574847116378
0.152,0,4,1,0.0,10.503253792595903,-0.9548412538723549,6.280954841253872,160,7,1,-1,8,-1,-0.014500000000000002,6.266454841253872,6.28,0.3440671243535922,0.40103063145571133,-1.6331602848808704e-05,-0.036575406246531834,-0.004025668571207732,9.844956704205712
0.16,0,4,1,0.0,10.503253792595903,0.0,6.28,160,7,1,-1,7,0,-0.015,6.265000000000001,6.28,0.3430634160579273,0.40103461295730547,-1.625876800193972e-05,0.06897042269674114,-0.0043542005069779,9.802045940635423
0.168,0,4,1,0.0,10.503253792595903,0.0,6.28,160,7,1,-1,6,0,-0.020000000000000004,6.260000000000001,6.28,0.3420598230983463,0.40103852854286187,-1.6203698781360257e-05,-0.03190699085495645,0.0009960102434994167,9.788748723707446
0.176,0,4,1,0.0,10.503253792595903,0.0,6.28,160,7,1,-1,5,0,-0.025,6.255,6.28,0.3410566300127279,0.40104237800987425,-1.6161937041353144e-05,-0.03327115847727026,0.000997596735344537,9.826527955273002
0.184,0,4,1,0.0,10.503253792595903,0.0,6.28,160,7,1,-1,4,0,-0.030000000000000002,6.25,6.28,0.3400538367532133,0.4010461498949823,-1.6130284201531717e-05,-0.0296399790540062,0.0011778004605529201,9.793196827294073
0.192,0,4,1,0.0,10.503253792595903,0.0,6.28,160,7,1,-1,3,0,-0.035,6.245,6.28,0.33905144324327624,0.4010498322762132,-1.6106190797605252e-05,-0.02641670445969609,0.0013679581405532605,9.82414310664038
0.2,0,4,1,0.0,10.503253792595903,0.0,6.28,160,7,1,-1,2,0,-0.04,6.24,6.28,0.3380494494182145,0.401053412849641,-1.6087632967096838e-05,-0.023079360367178725,0.0015508902997998202,9.871875813934185
0.20800000000000002,0,4,1,0.9548412538723549,11.458095046468257,0.9548412538723549,6.23130309605251,160,7,1,0,2,1,0.014499999999999999,6.24580309605251,6.2168030960525105,0.3370478552234431,0.4010568789938584,-1.6073014116936915e-05,-0.019884672980125615,0.0017542898734834989,9.842050739717825
0.216,0,4,1,0.0,11.458095046468257,-0.9548412538723549,6.280954841253872,160,7,1,-1,1,-1,-0.0495,6.231454841253872,6.28,0.3360508515549926,0.4010601984745126,-1.6059126379487296e-05,-0.0829778597740881,0.0020217536024363662,9.818014836575857
0.224,0,4,1,0.0,11.458095046468257,0.0,6.28,160,7,1,-1,0,0,-0.05,6.23,6.28,0.335049941551538,0.40106362761965536,-1.6049545046107824e-05,0.05323522324557945,-0.0015183898629788448,9.798234382463912
0.232,0,4,1,0.0,11.458095046468257,0.0,6.28,160,7,1,-1,-1,0,-0.055,6.2250000000000005,6.28,0.3340491468044097,0.401066904531903,-1.604098126745633e-05,-0.006496837571539868,0.0023610991656800306,9.80337825232055
0.24,0,4,1,0.9548412538723549,12.412936300340611,0.9548412538723549,6.23130309605251,160,7,1,0,-1,1,-0.0005000000000000004,6.230803096052511,6.23180309605251,0.3330487515114648,0.40107002647874374,-1.6032744751853095e-05,-0.007694424996456119,0.002397806304011473,9.804803233149164
0.248,0,4,1,0.9548412538723549,13.367777554212966,0.0,6.2322579373063824,160,7,1,0,-1,0,-0.005,6.2272579373063826,6.237257937306382,0.33205174699173773,0.40107297120717933,-1.6024535306368576e-05,-0.051580412381444854,0.002593424765300535,9.814873269672953
0.256,0,4,1,0.9548412538723549,14.32261880808532,0.0,6.2322579373063824,160,7,1,0,-1,0,-0.005,6.2272579373063826,6.237257937306382,0.3310545901311743,0.4010759197475862,-1.6016634385730352e-05,0.006024153998410596,-5.6315998159831304e-05,9.866023975197692
0.264,0,4,1,0.9548412538723549,15.277460061957674,0.0,6.2322579373063824,160,7,1,0,-1,0,-0.005,6.2272579373063826,6.237257937306382,0.33005743318298353,0.40107884226986984,-1.600871466864509e-05,0.006188593619364714,0.00040367638053295476,9.765206545932026
0.272,0,4,1,0.9548412538723549,16.23230131583003,0.0,6.2322579373063824,160,7,1,0,-1,0,-0.005,6.2272579373063826,6.237257937306382,0.3290602761647414,0.40108173826495136,-1.6000547943172128e-05,0.008669797938543028,0.000412391198616812,9.856225492662746
0.28,0,4,1,0.0,16.23230131583003,-0.9548412538723549,6.280954841253872,160,7,1,-1,-2,-1,-0.0645,6.2164548412538725,6.28,0.32806311907286667,0.4010846073063563,-1.5991979182575222e-05,0.011210617585915858,0.0004202016744412734,9.833424549315707
0.28800000000000003,0,4,1,0.9548412538723549,17.187142569702385,0.9548412538723549,6.23130309605251,160,7,1,0,-2,1,-0.0055000000000000005,6.225803096052511,6.23680309605251,0.32706340708504056,0.40108745258456735,-1.598152918989501e-05,0.05398194798461902,0.0004828251574484287,9.84616076164495
0.296,0,4,1,0.9548412538723549,18.14198382357474,0.0,6.2322579373063824,160,7,1,0,-2,0,-0.01,6.222257937306383,6.242257937306382,0.32606640173282786,0.4010901012847529,-1.597176751112414e-05,-0.025727382416238186,0.0029637994991457174,9.84173892206024
0.304,0,4,1,0.9548412538723549,19.096825077447097,0.0,6.2322579373063824,160,7,1,0,-2,0,-0.01,6.222257937306383,6.242257937306382,0.3250692439586482,0.4010927213269327,-1.596140673045844e-05,0.02129421548932429,0.00045543753422355244,9.814306463189789
0.312,0,4,1,0.9548412538723549,20.051666331319453,0.0,6.2322579373063824,160,7,1,0,-2,0,-0.01,6.222257937306383,6.242257937306382,0.32407208602096155,0.40109528476548956,-1.5950568450918967e-05,0.021169325477181963,0.0008814599879870561,9.802087128505965
0.32,0,4,1,0.9548412538723549,21.00650758519181,0.0,6.2322579373063824,160,7,1,0,-2,0,-0.01,6.222257937306383,6.242257937306382,0.32307492794372944,0.40109779152157526,-1.5939322973725426e-05,0.023337362662312584,0.0008906605739714561,9.7936242375715
0.328,0,4,1,0.9548412538723549,21.961348839064165,0.0,6.2322579373063824,160,7,1,0,-2,0,-0.01,6.222257937306383,6.242257937306382,0.32207776972857816,0.40110024153474944,-1.5927764952742424e-05,0.025525513611058696,0.000893929028991195,9.809385802002195
0.336,0,4,1,0.9548412538723549,22.91619009293652,0.0,6.2322579373063824,160,7,1,0,-2,0,-0.01,6.222257937306383,6.242257937306382,0.32108061137754346,0.40110263475391567,-1.5916008375081378e-05,0.027313443872735804,0.0008866408821928118,9.770052887448843
0.34400000000000003,0,4,1,0.9548412538723549,23.871031346808877,0.0,6.2322579373063824,160,7,1,0,-2,0,-0.01,6.222257937306383,6.242257937306382,0.3200834528929507,0.40110497113687016,-1.590418190371666e-05,0.029329831868832933,0.000887886531622214,9.756466621522938
0.352,0,4,1,0.9548412538723549,24.825872600681233,0.0,6.2322579373063824,160,7,1,0,-2,0,-0.01,6.222257937306383,6.242257937306382,0.319086294277321,0.401107250649665,-1.589242459878147e-05,0.031079506607652945,0.0008933458727898129,9.8116116196556
0.36,0,4,1,0.9548412538723549,25.78071385455359,0.0,6.2322579373063824,160,7,1,0,-2,0,-0.01,6.222257937306383,6.242257937306382,0.3180891355333038,0.401109473265869,-1.5880881961234314e-05,0.032750232665351514,0.0008943631691330088,9.842568148925118
0.368,0,4,1,0.9548412538723549,26.735555108425945,0.0,6.2322579373063824,160,7,1,0,-2,0,-0.01,6.222257937306383,6.242257937306382,0.3170919766636313,0.40111163896578916,-1.5869702260463275e-05,0.034344743646367484,0.0008885734837417358,9.808493909458418
0.376,0,4,1,0.9548412538723549,27.6903963622983,0.0,6.2322579373063824,160,7,1,0,-2,0,-0.01,6.222257937306383,6.242257937306382,0.3160948188840998,0.401113747260006,-1.5843853497956098e-05,0.03398755808769273,0.0008955673181756042,9.810376288658574
0.384,0,4,1,0.9548412538723549,28.645237616170657,0.0,6.2322579373063824,160,7,1,0,-2,0,-0.01,6.222257937306383,6.242257937306382,0.31509765962711905,0.4011157994642427,-1.5851403683616802e-05,0.033828864091835026,0.0008806207991992718,9.807775184216315
0.392,0,4,1,0.9548412538723549,29.600078870043014,0.0,6.2322579373063824,160,7,1,0,-2,0,-0.01,6.222257937306383,6.242257937306382,0.3141005002749753,0.40111779490457317,-1.585897029913845e-05,0.03327165056717419,0.0008920519352622086,9.816611709226283
0.4,0,4,1,0.9548412538723549,30.55492012391537,0.0,6.2322579373063824,160,7,1,0,-2,0,-0.01,6.222257937306383,6.242257937306382,0.31310334082664304,0.40111973358193004,-1.5866499641746176e-05,0.03269718870614582,0.0008852427650044834,9.799571424792564
0.40800000000000003,0,4,1,0.9548412538723549,31.509761377787726,0.0,6.2322579373063824,160,7,1,0,-2,0,-0.01,6.222257937306383,6.242257937306382,0.31210618128183687,0.4011216154994233,-1.5874095500962096e-05,0.0318807010962859,0.000888847065721716,9.778509895158043
0.41600000000000004,0,4,1,0.9548412538723549,32.46460263166008,0.0,6.2322579373063824,160,7,1,0,-2,0,-0.01,6.222257937306383,6.242257937306382,0.31110902164104826,0.4011234406617643,-1.5881818461882177e-05,0.03104468394085059,0.000889776850057569,9.828323960038414
0.424,0,4,1,0.9548412538723549,33.41944388553243,0.0,6.2322579373063824,160,7,1,0,-2,0,-0.01,6.222257937306383,6.242257937306382,0.3101118619053842,0.4011252090749353,-1.588969239403777e-05,0.030052387221849105,0.0008931681430089809,9.806998670539318
0.432,0,4,1,0.9548412538723549,34.37428513940478,0.0,6.2322579373063824,160,7,1,0,-2,0,-0.01,6.222257937306383,6.242257937306382,0.3091147020764372,0.40112692074589074,-1.5897711062412903e-05,0.029096611925445295,0.000891525737891657,9.857383078194044
0.44,0,4,1,0.9548412538723549,35.329126393277136,0.0,6.2322579373063824,160,7,1,0,-2,0,-0.01,6.222257937306383,6.242257937306382,0.30811754215618015,0.4011285756822899,-1.5905843798980426e-05,0.027713123787886637,0.0008867843517451566,9.834439792114384
0.448,0,4,1,0.9548412538723549,36.28396764714949,0.0,6.2322579373063824,160,7,1,0,-2,0,-0.01,6.222257937306383,6.242257937306382,0.30712038214688125,0.40113017389225986,-1.5914040421437584e-05,0.02630742096681204,0.0008884776451544924,9.791780987134263
0.456,0,4,1,0.9548412538723549,37.23880890102184,0.0,6.2322579373063824,160,7,1,0,-2,0,-0.01,6.222257937306383,6.242257937306382,0.3061232220510356,0.40113171538418657,-1.5922235549517202e-05,0.025145874833954106,0.0008877553484475745,9.817231993801308
0.464,0,4,1,0.9548412538723549,38.19365015489419,0.0,6.2322579373063824,160,7,1,0,-2,0,-0.01,6.222257937306383,6.242257937306382,0.30512606187130925,0.4011332001665319,-1.5930352433428732e-05,0.023652343408203175,0.0008901765068839816,9.803629097093522
0.47200000000000003,0,4,1,0.9548412538723549,39.148491408766546,0.0,6.2322579373063824,160,7,1,0,-2,0,-0.01,6.222257937306383,6.242257937306382,0.3041289016104944,0.40113462824767476,-1.5938306380211195e-05,0.0220531673078992,0.0008917733777146404,9.77782185997977
0.48,0,4,1,0.9548412538723549,40.1033326626389,0.0,6.2322579373063824,160,7,1,0,-2,0,-0.01,6.222257937306383,6.242257937306382,0.30313174127147346,0.40113599963577273,-1.5946007841643323e-05,0.02048960294864399,0.0008865438604272011,9.815094837086212
0.488,0,4,1,0.9548412538723549,41.05817391651125,0.0,6.2322579373063824,160,7,1,0,-2,0,-0.01,6.222257937306383,6.242257937306382,0.30213458085719064,0.40113731433864275,-1.5953365209087772e-05,0.018668842241872794,0.0008926085477909441,9.807009193817358
0.496,0,4,1,0.9548412538723549,42.0130151703836,0.0,6.2322579373063824,160,7,1,0,-2,0,-0.01,6.222257937306383,6.242257937306382,0.3011374203706293,0.4011385723636586,-1.5960287346662716e-05,0.01695303481550796,0.0008927041158910343,9.818218658906837
0.504,0,4,1,0.0,42.0130151703836,-0.9548412538723549,6.280954841253872,160,7,1,0,-2,0,-0.01,6.2709548412538725,6.28,0.30014025981479503,0.40113977371766246,-1.5966685883578302e-05,0.015092780185240408,0.0008914281243482434,9.81359143618876
0.512,0,4,1,0.0,42.0130151703836,0.0,6.28,160,7,1,0,-2,0,-0.01,6.2700000000000005,6.28,0.2991361850264916,0.4011409274102137,-1.596846477924102e-05,0.12212700575195264,0.000871494655695739,9.743618981896283
0.52,0,4,1,0.0,42.0130151703836,0.0,6.28,160,7,1,0,-2,0,-0.01,6.2700000000000005,6.28,0.29813218557030347,0.4011420575984153,-1.597035718145512e-05,0.012606190311606792,0.00037194543907710496,9.803534148555597
0.528,0,4,1,0.0,42.0130151703836,0.0,6.28,160,7,1,0,-2,0,-0.01,6.2700000000000005,6.28,0.2971281861148185,0.40114316093347036,-1.597229920759398e-05,0.0132539774877079,0.0004237070117290701,9.786305531089921
0.536,0,4,1,0.0,42.0130151703836,0.0,6.28,160,7,1,0,-2,0,-0.01,6.2700000000000005,6.28,0.2961241866444773,0.4011442369945708,-1.597426524867218e-05,0.012512461600284169,0.0004304546377964428,9.760032875580105
0.544,0,4,1,0.0,42.0130151703836,0.0,6.28,160,7,1,0,-2,0,-0.01,6.2700000000000005,6.28,0.2951201871561867,0.40114528543763245,-1.597622871469216e-05,0.011691260073091481,0.0004369611660257564,9.789784276229938
0.552,0,4,1,0.0,42.0130151703836,0.0,6.28,160,7,1,0,-2,0,-0.01,6.2700000000000005,6.28,0.2941161876477237,0.40114630598186296,-1.5978162518914818e-05,0.01086225178703806,0.0004411359084173034,9.810797511038752
0.56,0,4,1,0.0,42.0130151703836,0.0,6.28,160,7,1,0,-2,0,-0.01,6.2700000000000005,6.28,0.29311218811754536,0.40114729839904806,-1.5980039580835645e-05,0.01006839711964961,0.0004450499466201528,9.80807568509992
0.5680000000000001,0,4,1,0.0,42.0130151703836,0.0,6.28,160,7,1,0,-2,0,-0.01,6.2700000000000005,6.28,0.2921081885646397,0.40114826250443686,-1.5981833312118943e-05,0.009160486577770615,0.0004458328699669783,9.79203189376325
0.5760000000000001,0,4,1,0.0,42.0130151703836,0.0,6.28,160,7,1,0,-2,0,-0.01,6.2700000000000005,6.28,0.2911041889884085,0.4011491981490379,-1.59835180806589e-05,0.008234256911819412,0.0004473645754435782,9.783204501530705
0.584,0,4,1,0.0,42.0130151703836,0.0,6.28,160,7,1,0,-2,0,-0.01,6.2700000000000005,6.28,0.290100189388575,0.40115010521314726,-1.598506964840471e-05,0.007261343163277169,0.0004511515102249034,9.78222445289303
0.592,0,4,1,0.0,42.0130151703836,0.0,6.28,160,7,1,0,-2,0,-0.01,6.2700000000000005,6.28,0.2890961897651119,0.40115098360094226,-1.5986465577946807e-05,0.006289470984543388,0.00045131589652151006,9.781482978913612
0.6,0,4,1,0.0,42.0130151703836,0.0,6.28,160,7,1,0,-2,0,-0.01,6.2700000000000005,6.28,0.28809219011818515,0.4011518332359871,-1.598768560411891e-05,0.005290386894438082,0.00045009397529624333,9.818985843620046
0.608,0,4,1,0.0,42.0130151703836,0.0,6.28,160,7,1,0,-2,0,-0.01,6.2700000000000005,6.28,0.28708819044811,0.4011526540575158,-1.5988711966247876e-05,0.004243373752998615,0.0004524445962005773,9.788856047213663
0.616,0,4,1,0.0,42.0130151703836,0.0,6.28,160,7,1,0,-2,0,-0.01,6.2700000000000005,6.28,0.28608419075531716,0.4011534460173712,-1.5989529697075372e-05,0.0032192941711304407,0.0004550046112185213,9.856292379012109
0.624,0,4,1,0.0,42.0130151703836,0.0,6.28,160,7,1,0,-2,0,-0.01,6.2700000000000005,6.28,0.28508019104032684,0.4011542090774943,-1.5990126865718032e-05,0.002190094290113772,0.0004546995211512818,9.827498159390876
0.632,0,4,1,0.0,42.0130151703836,0.0,6.28,160,7,1,0,-2,0,-0.01,6.2700000000000005,6.28,0.2840761913037284,0.4011549432078749,-1.5990494771153316e-05,0.0011104787086069683,0.0004575254865974214,9.802014397483134
0.64,0,4,1,0.0,42.0130151703836,0.0,6.28,160,7,1,0,-2,0,-0.01,6.2700000000000005,6.28,0.2830721915461656,0.40115564838488443,-1.599062808469061e-05,4.605417008243241e-05,0.0004573448413463443,9.851501889637444
0.648,0,4,1,0.0,42.0130151703836,0.0,6.28,160,7,1,0,-2,0,-0.01,6.2700000000000005,6.28,0.28206819176832454,0.40115632458992523,-1.5990524939474282e-05,-0.001021014107486934,0.00045603720117065404,9.818198882002429
0.656,0,4,1,0.0,42.0130151703836,0.0,6.28,160,7,1,0,-2,0,-0.01,6.2700000000000005,6.28,0.28106419197092536,0.4011569718083409,-1.599018696626757e-05,-0.002082960018282311,0.0004546914010184391,9.79801267713324
0.664,0,4,1,0.0,42.0130151703836,0.0,6.28,160,7,1,0,-2,0,-0.01,6.2700000000000005,6.28,0.28006019215471556,0.4011575900285403,-1.5989619275612668e-05,-0.0031324249216982116,0.0004560112271315362,9.819624355993387
0.672,0,4,1,0.0,42.0130151703836,0.0,6.28,160,7,1,0,-2,0,-0.01,6.2700000000000005,6.28,0.27905619232046547,0.40115817924129626,-1.5988830386556158e-05,-0.004159781945283795,0.00045498317622313955,9.833380307151135
0.68,0,4,1,0.0,42.0130151703836,0.0,6.28,160,7,1,0,-2,0,-0.01,6.2700000000000005,6.28,0.2780521924689645,0.4011587394391872,-1.5987832103634553e-05,-0.005203647498519378,0.0004531723194385149,9.794077128719426
0.6880000000000001,0,4,1,0.0,42.0130151703836,0.0,6.28,160,7,1,0,-2,0,-0.01,6.2700000000000005,6.28,0.2770481926010186,0.40115927061615325,-1.5986639343807882e-05,-0.00622822604983743,0.0004534971893718948,9.788763801094852
0.6960000000000001,0,4,1,0.0,42.0130151703836,0.0,6.28,160,7,1,0,-2,0,-0.01,6.2700000000000005,6.28,0.2760441927174483,0.40115977276714654,-1.5985269916652875e-05,-0.007196688393371032,0.00045628521065740137,9.839731624848778
0.704,0,4,1,0.0,42.0130151703836,0.0,6.28,160,7,1,0,-2,0,-0.01,6.2700000000000005,6.28,0.2750401928190874,0.40116024588785615,-1.598374426046642e-05,-0.0081666592503439,0.00045780786527684563,9.769876399287298
0.712,0,4,1,0.0,42.0130151703836,0.0,6.28,160,7,1,0,-2,0,-0.01,6.2700000000000005,6.28,0.2740361929067816,0.40116068997449383,-1.5982085139023758e-05,-0.009072785678162519,0.00045523667694070654,9.804141249161834
0.72,0,4,1,0.0,42.0130151703836,0.0,6.28,160,7,1,0,-2,0,-0.01,6.2700000000000005,6.28,0.2730321929813874,0.40116110502362773,-1.5980317303272706e-05,-0.009944974642695066,0.0004558106957616095,9.791719120652038
0.728,0,4,1,0.0,42.0130151703836,0.0,6.28,160,7,1,0,-2,0,-0.01,6.2700000000000005,6.28,0.2720281930437717,0.40116149103205495,-1.5978467123039727e-05,-0.010816585412165906,0.00045777342535947987,9.805659249755548
0.736,0,4,1,0.0,42.0130151703836,0.0,6.28,160,7,1,0,-2,0,-0.01,6.2700000000000005,6.28,0.27102419309481013,0.40116184799670523,-1.5976562194382204e-05,-0.01165316881456744,0.000456792809189235,9.827809492742448
0.744,0,4,1,0.0,42.0130151703836,0.0,6.28,160,7,1,0,-2,0,-0.01,6.2700000000000005,6.28,0.27002019313538683,0.401162175914568,-1.597463092867929e-05,-0.012453842588773292,0.00045492632418235324,9.83702637034811
0.752,0,4,1,0.0,42.0130151703836,0.0,6.28,160,7,1,0,-2,0,-0.01,6.2700000000000005,6.28,0.2690161931663931,0.40116247478263967,-1.5972702129208455e-05,-0.01313415278026676,0.0004549809881966482,9.813176000142551
0.76,0,4,1,0.0,42.0130151703836,0.0,6.28,160,7,1,0,-2,0,-0.01,6.2700000000000005,6.28,0.26801219318872643,0.40116274459788615,-1.5970804561846533e-05,-0.01377860741542462,0.0004578576042532776,9.791432662746889
0.768,0,4,1,0.0,42.0130151703836,0.0,6.28,160,7,1,0,-2,0,-0.01,6.2700000000000005,6.28,0.2670081932032897,0.4011629853572163,-1.596896652647159e-05,-0.014296143480315734,0.0004582799163014507,9.86012360077268
0.776,0,4,1,0.0,42.0130151703836,0.0,6.28,160,7,1,0,-2,0,-0.01,6.2700000000000005,6.28,0.2660041932109896,0.40116319705746617,-1.596721543480062e-05,-0.015016225327926097,0.0004567823070369068,9.744939234025018
0.784,0,4,1,0.0,42.0130151703836,0.0,6.28,160,7,1,0,-2,0,-0.01,6.2700000000000005,6.28,0.2650001932127356,0.4011633796953899,-1.5965577401917674e-05,-0.015553377099115206,0.0004567327538304479,9.762990521367836
0.792,0,4,1,0.0,42.0130151703836,0.0,6.28,160,7,1,0,-2,0,-0.01,6.2700000000000005,6.28,0.263996193209439,0.4011635332676559,-1.5964076856771203e-05,-0.016031878422948884,0.00045479530361850927,9.789187949341049
0.8,0,4,1,0.0,42.0130151703836,0.0,6.28,160,7,1,0,-2,0,-0.01,6.2700000000000005,6.28,0.2629921932020115,0.4011636577708489,-1.5962736177911607e-05,-0.016318722106181842,0.00045915648042592295,9.804504575627389
0.808,0,4,1,0.0,42.0130151703836,0.0,6.28,160,7,1,0,-2,0,-0.01,6.2700000000000005,6.28,0.261988193191364,0.4011637532014736,-1.59615753597981e-05,-0.01676403056683154,0.0004548347926075648,9.83271040808329
0.8160000000000001,0,4,1,0.0,42.0130151703836,0.0,6.28,160,7,1,0,-2,0,-0.01,6.2700000000000005,6.28,0.2609841931784058,0.4011638195559628,-1.5960611714608414e-05,-0.016988946084138305,0.0004576319999070556,9.783416392994779
0.8240000000000001,0,4,1,0.0,42.0130151703836,0.0,6.28,160,7,1,0,-2,0,-0.01,6.2700000000000005,6.28,0.2599801931640434,0.40116385683068595,-1.5959859614136235e-05,-0.01709973246213678,0.00045594234940241106,9.815518553767564
0.8320000000000001,0,4,1,0.0,42.0130151703836,0.0,6.28,160,7,1,0,-2,0,-0.01,6.2700000000000005,6.28,0.2589761931491797,0.4011638650219608,-1.5959330275344685e-05,-0.01745884374485522,0.00045742401426297053,9.81466849074999
0.84,0,4,1,0.0,42.0130151703836,0.0,6.28,160,7,1,0,-2,0,-0.01,6.2700000000000005,6.28,0.2579721931347132,0.40116384412606443,-1.5959031593074796e-05,-0.017406623803819632,0.00045764733938236525,9.78769180209339
0.848,0,4,1,0.0,42.0130151703836,0.0,6.28,160,7,1,0,-2,0,-0.01,6.2700000000000005,6.28,0.25696819312153757,0.4011637941392471,-1.5958968022380948e-05,-0.01735235083353796,0.0004578592656677177,9.772456685793006
0.856,0,4,1,0.0,42.0130151703836,0.0,6.28,160,7,1,0,-2,0,-0.01,6.2700000000000005,6.28,0.25596419311054114,0.4011637150577448,-1.595914051197994e-05,-0.017506759980701468,0.00045720525835437676,9.751230223681945
0.864,0,4,1,0.0,42.0130151703836,0.0,6.28,160,7,1,0,-2,0,-0.01,6.2700000000000005,6.28,0.2549601931026067,0.4011636068777935,-1.5959546490060955e-05,-0.017258120420922056,0.0004538431603681359,9.827914793723048
0.872,0,4,1,0.0,42.0130151703836,0.0,6.28,160,7,1,0,-2,0,-0.01,6.2700000000000005,6.28,0.2539561930986115,0.4011634695956432,-1.596017990276692e-05,-0.01700366726090847,0.00046076055582427826,9.834656103983129
0.88,0,4,1,0.0,42.0130151703836,0.0,6.28,160,7,1,0,-2,0,-0.01,6.2700000000000005,6.28,0.25295219309942735,0.4011633032075718,-1.5961031304221468e-05,-0.016749227758546505,0.0004561183186006765,9.795223604248443
0.888,0,4,1,0.0,42.0130151703836,0.0,6.28,160,7,1,0,-2,0,-0.01,6.2700000000000005,6.28,0.25194819310592076,0.4011631077098994,-1.5962087997631325e-05,-0.016575255732616614,0.0004594731675817542,9.800869540796363
0.896,0,4,1,0.0,42.0130151703836,0.0,6.28,160,7,1,0,-2,0,-0.01,6.2700000000000005,6.28,0.25094419311895383,0.4011628830990023,-1.596333422435557e-05,-0.016131896044671884,0.0004583986240178878,9.803916677412383
0.904,0,4,1,0.0,42.0130151703836,0.0,6.28,160,7,1,0,-2,0,-0.01,6.2700000000000005,6.28,0.24994019313938431,0.40116262937132674,-1.5964751399102917e-05,-0.015789790187461374,0.00045795639335723603,9.834520896315453
0.912,0,4,1,0.0,42.0130151703836,0.0,6.28,160,7,1,0,-2,0,-0.01,6.2700000000000005,6.28,0.24893619316806662,0.40116234652340255,-1.5966318386956627e-05,-0.015262164124489866,0.0004573710776610076,9.832757059921619
0.92,0,4,1,0.0,42.0130151703836,0.0,6.28,160,7,1,0,-2,0,-0.01,6.2700000000000005,6.28,0.24793219320585244,0.40116203455185645,-1.5968011818608477e-05,-0.014715932785347614,0.00045795809737123993,9.791745010490418
0.928,0,4,1,0.0,42.0130151703836,0.0,6.28,160,7,1,0,-2,0,-0.01,6.2700000000000005,6.28,0.2469281932535917,0.4011616934534247,-1.5969806438830003e-05,-0.014113616723971973,0.0004572575480430679,9.816734097187492
0.936,0,4,1,0.0,42.0130151703836,0.0,6.28,160,7,1,0,-2,0,-0.01,6.2700000000000005,6.28,0.2459241933121332,0.40116132322496567,-1.597167548307056e-05,-0.013408030658994607,0.000458616029878304,9.837540555651211
0.9440000000000001,0,4,1,0.0,42.0130151703836,0.0,6.28,160,7,1,0,-2,0,-0.01,6.2700000000000005,6.28,0.2449201933823256,0.40116092386347174,-1.5973591076660562e-05,-0.012812765876167472,0.0004579927492672041,9.823165182795666
0.9520000000000001,0,4,1,0.0,42.0130151703836,0.0,6.28,160,7,1,0,-2,0,-0.01,6.2700000000000005,6.28,0.24391619346501808,0.40116049536608095,-1.5975524650440817e-05,-0.011930199285558999,0.00045591236348101877,9.793329798533774
0.96,0,4,1,0.0,42.0130151703836,0.0,6.28,160,7,1,0,-2,0,-0.01,6.2700000000000005,6.28,0.24291219356106106,0.4011600377300875,-1.5977447366895617e-05,-0.011116327970199003,0.00045885077957263974,9.808759918843073
0.968,0,4,1,0.0,42.0130151703836,0.0,6.28,160,7,1,0,-2,0,-0.01,6.2700000000000005,6.28,0.2419081936713068,0.4011595509529522,-1.5979330550128235e-05,-0.010409070423090895,0.0004574609438835986,9.815444402789055
0.976,0,4,1,0.9548412538723549,42.967856424255956,0.9548412538723549,6.23130309605251,160,7,1,1,-1,1,0.0495,6.28,6.18180309605251,0.24090419379660996,0.40115903503231204,-1.5981146113569142e-05,-0.00952248842571844,0.00045764922733276564,9.805683684170006
0.984,0,4,1,0.0,42.967856424255956,-0.9548412538723549,6.280954841253872,160,7,1,0,-1,-1,-0.0095,6.271454841253872,6.28,0.2399072488064454,0.4011584876979257,-1.5980138751548953e-05,-0.12073388140953019,0.0005221142472843479,9.791559132695834
0.992,0,4,1,0.0,42.967856424255956,0.0,6.28,160,7,1,0,-1,0,-0.005,6.275,6.28,0.23890313342454217,0.4011582501283988,-1.5982069112730618e-05,0.10307796573947951,-0.004870823538775849,9.765718261742215
1.0,0,4,1,0.0,42.967856424255956,0.0,6.28,160,7,1,0,-1,0,-0.005,6.275,6.28,0.2378987334270094,0.4011579821290521,-1.5983962827105166e-05,-0.003542372158779881,0.0004754003948753342,9.778812774307156
1.008,0,4,1,0.0,42.967856424255956,0.0,6.28,160,7,1,0,-1,0,-0.005,6.275,6.28,0.23689433341900887,0.4011576957562965,-1.5985665399119095e-05,-0.006878106936505089,0.00028723117964279466,9.815639568262956
1.016,0,4,1,0.0,42.967856424255956,0.0,6.28,160,7,1,0,-1,0,-0.005,6.275,6.28,0.23588993343585204,0.40115739159296526,-1.5987150711669132e-05,-0.005791188240549481,0.00027980025459054176,9.809947586884888
1.024,0,4,1,0.0,42.967856424255956,0.0,6.28,160,7,1,0,-1,0,-0.005,6.275,6.28,0.23488553347192276,0.40115707012742463,-1.5988396480480158e-05,-0.004629029254071285,0.0002721880442854553,9.807826962088374
1.032,0,4,1,0.0,42.967856424255956,0.0,6.28,160,7,1,0,-1,0,-0.005,6.275,6.28,0.23388113352314666,0.401156731768964,-1.5989384204754056e-05,-0.0034853248878334753,0.00026298934042574346,9.787634511150378
1.04,0,4,1,0.0,42.967856424255956,0.0,6.28,160,7,1,0,-1,0,-0.005,6.275,6.28,0.23287673358662028,0.4011563768587709,-1.5990099342475667e-05,-0.0023302759278497095,0.00025976044789896054,9.824495333313065
1.048,0,4,1,0.0,42.967856424255956,0.0,6.28,160,7,1,0,-1,0,-0.005,6.275,6.28,0.2318723336603207,0.401156005679866,-1.5990531463203755e-05,-0.001152718025016809,0.00025543409370542116,9.81375849754022
1.056,0,4,1,0.0,42.967856424255956,0.0,6.28,160,7,1,0,-1,0,-0.005,6.275,6.28,0.23086793374288253,0.40115561846595227,-1.599067436405116e-05,3.3013719963505735e-05,0.00025303805476485034,9.79348481923188
1.064,0,4,1,0.0,42.967856424255956,0.0,6.28,160,7,1,0,-1,0,-0.005,6.275,6.28,0.2298635338334273,0.4011552154091938,-1.599052613898179e-05,0.0012099981405402434,0.000247266702282401,9.816695183731976
1.072,0,4,1,0.9548412538723549,43.92269767812831,0.9548412538723549,6.23130309605251,160,7,1,1,0,1,0.0545,6.28,6.17680309605251,0.22885913393143323,0.4011547966669759,-1.599008919533733e-05,0.002385138140043231,0.00024645139105264097,9.839265695678876
1.08,0,4,1,0.0,43.92269767812831,-0.9548412538723549,6.280954841253872,160,7,1,0,0,-1,-0.0045,6.276454841253872,6.28,0.22786258875732743,0.40115436713278946,-1.5990234255755867e-05,-0.1204749389620219,0.00018714229574680533,9.85639140419233
1.088,0,4,1,0.0,43.92269767812831,0.0,6.28,160,7,1,0,0,0,0.0,6.28,6.28,0.22685807320895082,0.4011542542196608,-1.598961036583524e-05,0.1279302227409485,-0.00499398325987828,9.791087121966884
1.096,0,4,1,0.0,43.92269767812831,0.0,6.28,160,7,1,0,0,0,0.0,6.28,6.28,0.22585327318506146,0.40115412500050485,-1.5988658092762342e-05,0.008800816101071016,0.00025448748525731563,9.809004450568201
1.104,0,4,1,0.0,43.92269767812831,0.0,6.28,160,7,1,0,0,0,0.0,6.28,6.28,0.22484847315664852,0.4011539920647669,-1.598740987564934e-05,0.005631681932146221,5.784163639234318e-05,9.849814575077737
1.112,0,4,1,0.0,43.92269767812831,0.0,6.28,160,7,1,0,0,0,0.0,6.28,6.28,0.22384367314851444,0.4011538560801482,-1.5985883928044953e-05,0.006827259874045043,4.69668153807333e-05,9.836980886803602
1.12,0,4,1,0.0,43.92269767812831,0.0,6.28,160,7,1,0,0,0,0.0,6.28,6.28,0.22283887315453815,0.40115371760197993,-1.598410297033205e-05,0.007981018239749033,3.8117884908701065e-05,9.712559741830397
1.1280000000000001,0,4,1,0.0,43.92269767812831,0.0,6.28,160,7,1,0,0,0,0.0,6.28,6.28,0.22183407317022483,0.40115357709223753,-1.598209374049052e-05,0.00909860057497913,3.106138653155713e-05,9.882059893510206
1.1360000000000001,0,4,1,0.0,43.92269767812831,0.0,6.28,160,7,1,0,0,0,0.0,6.28,6.28,0.22082927319230786,0.40115343493343614,-1.5979886485757364e-05,0.010198990402905962,2.4941255262374908e-05,9.81669661933444
1.1440000000000001,0,4,1,0.0,43.92269767812831,0.0,6.28,160,7,1,0,0,0,0.0,6.28,6.28,0.2198244732184398,0.4011532914409033,-1.5977514441991095e-05,0.011268597554584554,1.9850353704639743e-05,9.798491569626774
1.1520000000000001,0,4,1,0.0,43.92269767812831,0.0,6.28,160,7,1,0,0,0,0.0,6.28,6.28,0.2188196732469554,0.40115314687349635,-1.5975013295910917e-05,0.012291449151393756,1.5809543750010184e-05,9.848682055660804
1.16,0,4,1,0.0,43.92269767812831,0.0,6.28,160,7,1,0,0,0,0.0,6.28,6.28,0.2178148732766913,0.4011530014428696,-1.5972420629423167e-05,0.013178891861856038,1.2492680428834657e-05,9.784235224464942
1.168,0,4,1,0.0,43.92269767812831,0.0,6.28,160,7,1,0,0,0,0.0,6.28,6.28,0.21681007330684943,0.40115285532141853,-1.596977534797095e-05,0.014164813741174802,9.900811668459978e-06,9.774514916675196
1.176,0,4,1,0.0,43.92269767812831,0.0,6.28,160,7,1,0,0,0,0.0,6.28,6.28,0.21580527333689423,0.40115270864904096,-1.596711709684305e-05,0.01506004160816533,7.734743382763518e-06,9.857059706944085
1.184,0,4,1,0.0,43.92269767812831,0.0,6.28,160,7,1,0,0,0,0.0,6.28,6.28,0.2148004733664762,0.4011525615388511,-1.5964485671328063e-05,0.01581468238894823,6.036485599039994e-06,9.835852778628663
1.192,0,4,1,0.0,43.92269767812831,0.0,6.28,160,7,1,0,0,0,0.0,6.28,6.28,0.21379567339537536,0.40115241408198193,-1.5961920427191162e-05,0.016673269135724336,4.6577486144893265e-06,9.846862790903492
1.2,0,4,1,0.0,43.92269767812831,0.0,6.28,160,7,1,0,0,0,0.0,6.28,6.28,0.21279087342346015,0.401152266351598,-1.5959459699078568e-05,0.01724790886519484,3.58394236998039e-06,9.841908572846506
1.208,0,4,1,0.0,43.92269767812831,0.0,6.28,160,7,1,0,0,0,0.0,6.28,6.28,0.21178607345065775,0.40115211840623194,-1.595714023448422e-05,0.01789233240243427,2.7617900982438344e-06,9.801697357446125
1.216,0,4,1,0.0,43.92269767812831,0.0,6.28,160,7,1,0,0,0,0.0,6.28,6.28,0.21078127347693337,0.4011519702925455,-1.5954996651114384e-05,0.018493069336551267,2.0651727547836315e-06,9.795515651491087
1.224,0,4,1,0.0,43.92269767812831,0.0,6.28,160,7,1,0,0,0,0.0,6.28,6.28,0.20977647350227585,0.4011518220476053,-1.595306092574446e-05,0.01888152059976291,1.5436687229919852e-06,9.807606751005796
1.232,0,4,1,0.0,43.92269767812831,0.0,6.28,160,7,1,0,0,0,0.0,6.28,6.28,0.2087716735266881,0.4011516737007491,-1.5951361921742735e-05,0.019466206948674975,1.1453914270337265e-06,9.802175642796234
1.24,0,4,1,0.0,43.92269767812831,0.0,6.28,160,7,1,0,0,0,0.0,6.28,6.28,0.20776687355018114,0.40115152527511166,-1.594992496232496e-05,0.019747178915688567,8.374290959899736e-07,9.883660175393663
1.248,0,4,1,0.0,43.92269767812831,0.0,6.28,160,7,1,0,0,0,0.0,6.28,6.28,0.20676207357277054,0.40115137678886653,-1.5948771456031005e-05,0.020118334267656964,6.001274736656015e-07,9.82642822313402
1.256,0,4,1,0.0,43.92269767812831,0.0,6.28,160,7,1,0,0,0,0.0,6.28,6.28,0.20575727359447443,0.40115122825623356,-1.5947918579959156e-05,0.020332291002477736,4.2684922207870394e-07,9.840155730849485
1.264,0,4,1,0.0,43.92269767812831,0.0,6.28,160,7,1,0,0,0,0.0,6.28,6.28,0.20475247361531282,0.40115107968829283,-1.59473790255181e-05,0.02046542762649645,2.893630363580659e-07,9.789855708435455
1.272,0,4,1,0.0,43.92269767812831,0.0,6.28,160,7,1,0,0,0,0.0,6.28,6.28,0.20374767363530757,0.40115093109364014,-1.594716081061709e-05,0.02044543228554336,1.9158802823907103e-07,9.787208108019113
1.28,0,4,1,0.0,43.92269767812831,0.0,6.28,160,7,1,0,0,0,0.0,6.28,6.28,0.20274287365448262,0.40115078247891306,-1.5947267161271067e-05,0.020377694497969858,1.1877072474979768e-07,9.847065725029413
1.288,0,4,1,0.0,43.92269767812831,0.0,6.28,160,7,1,0,0,0,0.0,6.28,6.28,0.20173807367286442,0.40115063384921124,-1.5947696464299957e-05,0.020199293259016655,6.597583878755788e-08,9.805929079432648
1.296,0,4,1,0.0,43.92269767812831,0.0,6.28,160,7,1,0,0,0,0.0,6.28,6.28,0.20073327369048227,0.4011504852084316,-1.5948442291743165e-05,0.020078932818390283,2.831076489560421e-08,9.815190579074855
1.304,0,4,1,0.0,43.92269767812831,0.0,6.28,160,7,1,0,0,0,0.0,6.28,6.28,0.19972847370736876,0.4011503365595343,-1.594949349728418e-05,0.01985181944156019,1.952674712445921e-09,9.84196072223723
1.312,0,4,1,0.0,43.92269767812831,0.0,6.28,160,7,1,0,0,0,0.0,6.28,6.28,0.1987236737235595,0.4011501879047529,-1.595083438249434e-05,0.019434109613622744,-1.5959878897185036e-08,9.861798056128313
1.32,0,4,1,0.0,43.92269767812831,0.0,6.28,160,7,1,0,0,0,0.0,6.28,6.28,0.19771887373909325,0.40115003924576054,-1.5952444931077725e-05,0.019201981468537157,-2.7823699858909515e-08,9.863851060460235
1.328,0,4,1,0.0,43.92269767812831,0.0,6.28,160,7,1,0,0,0,0.0,6.28,6.28,0.19671407375401123,0.40114989058379946,-1.5954301107361582e-05,0.018751655948889133,-3.47626130694419e-08,9.762069242223186
1.336,0,4,1,0.0,43.92269767812831,0.0,6.28,160,7,1,0,0,0,0.0,6.28,6.28,0.19570927376835676,0.40114974191978336,-1.5956375214625992e-05,0.018224016504536703,-3.899928420454355e-08,9.791087914337705
1.344,0,4,1,0.0,43.92269767812831,0.0,6.28,160,7,1,0,0,0,0.0,6.28,6.28,0.19470447378217412,0.4011495932543764,-1.5958636308021842e-05,0.017438039108681736,-4.093352389634503e-08,9.83252166341197
1.352,0,4,1,0.0,43.92269767812831,0.0,6.28,160,7,1,0,0,0,0.0,6.28,6.28,0.19369967379550773,0.4011494445880542,-1.5961050655976042e-05,0.016843455176502608,-4.140689787555765e-08,9.811496275758985
1.36,0,4,1,0.0,43.92269767812831,0.0,6.28,160,7,1,0,0,0,0.0,6.28,6.28,0.19269487380840108,0.4011492959211518,-1.5963582243008062e-05,0.01609287855881585,-4.098981061475007e-08,9.793915114315766
1.368,0,4,1,0.0,43.92269767812831,0.0,6.28,160,7,1,0,0,0,0.0,6.28,6.28,0.19169007382089548,0.4011491472538997,-1.59661933067292e-05,0.015216096596351536,-3.973123863867993e-08,9.8056331785286
1.3760000000000001,0,4,1,0.0,43.92269767812831,0.0,6.28,160,7,1,0,0,0,0.0,6.28,6.28,0.1906852738330291,0.4011489985864517,-1.5968844900751678e-05,0.0144753351291931,-3.873354966044218e-08,9.855281628095547
1.3840000000000001,0,4,1,0.0,43.92269767812831,0.0,6.28,160,7,1,0,0,0,0.0,6.28,6.28,0.1896804738448357,0.4011488499189059,-1.597149747544803e-05,0.013563613561822896,-3.722016214457113e-08,9.829465697812816
1.3920000000000001,0,4,1,0.0,43.92269767812831,0.0,6.28,160,7,1,0,0,0,0.0,6.28,6.28,0.18867567385634385,0.40114870125132074,-1.5974111467526378e-05,0.012615391240283422,-3.577167726048612e-08,9.8509724452248
1.4000000000000001,0,4,1,0.0,43.92269767812831,0.0,6.28,160,7,1,0,0,0,0.0,6.28,6.28,0.18767087386757608,0.40114855258372645,-1.5976647889992535e-05,0.011565834150962991,-3.422668369277207e-08,9.833443295089987
1.408,0,4,1,0.0,43.92269767812831,0.0,6.28,160,7,1,0,0,0,0.0,6.28,6.28,0.1866660738785483,0.40114840391613454,-1.597906891332053e-05,0.010547620008685742,-3.329144748733211e-08,9.818855167248357
1.416,0,4,1,0.0,43.92269767812831,0.0,6.28,160,7,1,0,0,0,0.0,6.28,6.28,0.18566127388926942,0.4011482552485437,-1.598133842968877e-05,0.009468406176740846,-3.215597585730225e-08,9.84980967801726
1.424,0,4,1,0.0,43.92269767812831,0.0,6.28,160,7,1,0,0,0,0.0,6.28,6.28,0.18465647389974116,0.4011481065809447,-1.5983422591204013e-05,0.008312387189164399,-3.1210594294424514e-08,9.777905694333024
1.432,0,4,1,0.0,43.92269767812831,0.0,6.28,160,7,1,0,0,0,0.0,6.28,6.28,0.1836516739099583,0.40114795791332364,-1.5985290314639994e-05,0.007157047695677488,-3.064110728872283e-08,9.800126326035567
1.44,0,4,1,0.0,43.92269767812831,0.0,6.28,160,7,1,0,0,0,0.0,6.28,6.28,0.18264687391990897,0.4011478092456646,-1.5986913744917355e-05,0.005973195629040619,-2.9840591485753954e-08,9.830153412803716
1.448,0,4,1,0.0,43.92269767812831,0.0,6.28,160,7,1,0,0,0,0.0,6.28,6.28,0.1816420739295755,0.40114766057795104,-1.598826867042248e-05,0.004765813170510996,-2.9163482817090014e-08,9.817909365402967
1.456,0,4,1,0.0,43.92269767812831,0.0,6.28,160,7,1,0,0,0,0.0,6.28,6.28,0.18063727393893497,0.40114751191016673,-1.5989334884064163e-05,0.003553210172705647,-2.8804241032425955e-08,9.839071796527906
1.464,0,4,1,0.0,43.92269767812831,0.0,6.28,160,7,1,0,0,0,0.0,6.28,6.28,0.17963247394796056,0.4011473632422967,-1.599009648452568e-05,0.0023296788014118036,-2.850517094048252e-08,9.791621212313492
1.472,0,4,1,0.0,43.92269767812831,0.0,6.28,160,7,1,0,0,0,0.0,6.28,6.28,0.17862767395662277,0.40114721457432767,-1.5990542113427514e-05,0.00107680701901141,-2.8277300685181523e-08,9.835379910264336
1.48,0,4,1,0.0,43.92269767812831,0.0,6.28,160,7,1,0,0,0,0.0,6.28,6.28,0.17762287396489068,0.40114706590624793,-1.599066512461035e-05,-0.00017089628973871856,-2.7971029864272826e-08,9.767374987126532
1.488,0,4,1,0.0,43.92269767812831,0.0,6.28,160,7,1,0,0,0,0.0,6.28,6.28,0.17661807397273355,0.40114691723804785,-1.5990463683215536e-05,-0.0014215282685942048,-2.759228237559871e-08,9.79747206498732
1.496,0,4,1,0.0,43.92269767812831,0.0,6.28,160,7,1,0,0,0,0.0,6.28,6.28,0.1756132739801223,0.4011467685697194,-1.5989940793109322e-05,-0.002651282132957127,-2.7736903991480474e-08,9.748939829312988
1.504,0,4,1,0.0,43.92269767812831,0.0,6.28,160,7,1,0,0,0,0.0,6.28,6.28,0.17460847398703105,0.40114661990125666,-1.5989104251943123e-05,-0.003895580970034239,-2.7312854931914742e-08,9.800159352480037
1.512,0,4,1,0.0,43.92269767812831,0.0,6.28,160,7,1,0,0,0,0.0,6.28,6.28,0.17360367399343846,0.4011464712326549,-1.5987966534970408e-05,-0.00511607815437107,-2.7242091851675898e-08,9.803554254621796
1.52,0,4,1,0.0,43.92269767812831,0.0,6.28,160,7,1,0,0,0,0.0,6.28,6.28,0.1725988739993291,0.4011463225639113,-1.5986544608942097e-05,-0.006318000501931613,-2.6966799949585603e-08,9.802110422364434
1.528,0,4,1,0.0,43.92269767812831,0.0,6.28,160,7,1,0,0,0,0.0,6.28,6.28,0.17159407400469465,0.40114617389502427,-1.5984859679012142e-05,-0.007518608261342151,-2.670129356418112e-08,9.796602245484321
1.536,0,4,1,0.0,43.92269767812831,0.0,6.28,160,7,1,0,0,0,0.0,6.28,6.28,0.17058927400953475,0.4011460252259934,-1.5982936872499173e-05,-0.008655474848268386,-2.619896664910673e-08,9.848819015245766
1.544,0,4,1,0.0,43.92269767812831,0.0,6.28,160,7,1,0,0,0,0.0,6.28,6.28,0.16958447401385782,0.4011458765568196,-1.5980804864238266e-05,-0.009756304918403982,-2.6250858414960864e-08,9.848523174968996
1.552,0,4,1,0.0,43.92269767812831,0.0,6.28,160,7,1,0,0,0,0.0,6.28,6.28,0.16857967401768154,0.40114572788750474,-1.5978495448945584e-05,-0.010819923008026602,-2.5646393022269224e-08,9.821483925381475
1.56,0,4,1,0.0,43.92269767812831,0.0,6.28,160,7,1,0,0,0,0.0,6.28,6.28,0.16757487402103288,0.4011455792180516,-1.597604306689468e-05,-0.011800576653900835,-2.5240197204785766e-08,9.822260770145638
1.568,0,4,1,0.0,43.92269767812831,0.0,6.28,160,7,1,0,0,0,0.0,6.28,6.28,0.16657007402394816,0.4011454305484637,-1.5973484290471296e-05,-0.012750790473959847,-2.4866731009518963e-08,9.786299272880704
1.576,0,4,1,0.0,43.92269767812831,0.0,6.28,160,7,1,0,0,0,0.0,6.28,6.28,0.1655652740264726,0.40114528187874543,-1.5970857278719067e-05,-0.013871946673346866,-2.4396557565240605e-08,9.78677910365902
1.584,0,4,1,0.0,43.92269767812831,0.0,6.28,160,7,1,0,0,0,0.0,6.28,6.28,0.16456047402865953,0.40114513320890177,-1.5968201208188884e-05,-0.014746636839309504,-2.3804547060923392e-08,9.798542783792964
1.592,0,4,1,0.0,43.92269767812831,0.0,6.28,160,7,1,0,0,0,0.0,6.28,6.28,0.16355567403056978,0.40114498453893827,-1.5965555688834954e-05,-0.015474486026489162,-2.3246876909691256e-08,9.846272243565014
1.6,0,4,1,0.0,43.92269767812831,0.0,6.28,160,7,1,0,0,0,0.0,6.28,6.28,0.16255087403227006,0.401144835868861,-1.5962960173237367e-05,-0.016325939918560153,-2.2701256666346246e-08,9.821155019122319
1.608,0,4,1,0.0,43.92269767812831,0.0,6.28,160,7,1,0,0,0,0.0,6.28,6.28,0.16154607403383206,0.4011446871986765,-1.5960453368277575e-05,-0.01699523535717101,-2.1958644940730528e-08,9.785862623019808
1.616,0,4,1,0.0,43.92269767812831,0.0,6.28,160,7,1,0,0,0,0.0,6.28,6.28,0.16054127403533067,0.4011445385283918,-1.5958072657791186e-05,-0.01770527198684294,-2.114363082711314e-08,9.834272693369718
1.624,0,4,1,0.0,43.92269767812831,0.0,6.28,160,7,1,0,0,0,0.0,6.28,6.28,0.15953647403684243,0.40114438985801415,-1.5955853545242954e-05,-0.018180207696345256,-2.0272989213891716e-08,9.826520037180694
1.6320000000000001,0,4,1,0.0,43.92269767812831,0.0,6.28,160,7,1,0,0,0,0.0,6.28,6.28,0.15853167403844393,0.4011442411875513,-1.5953829124138244e-05,-0.018755171821357625,-1.9390551639739415e-08,9.80554110728811
1.6400000000000001,0,4,1,0.0,43.92269767812831,0.0,6.28,160,7,1,0,0,0,0.0,6.28,6.28,0.15752687404021004,0.4011440925170112,-1.595202958458268e-05,-0.01927471337437431,-1.8567173284636173e-08,9.80631229703218
1.6480000000000001,0,4,1,0.0,43.92269767812831,0.0,6.28,160,7,1,0,0,0,0.0,6.28,6.28,0.15652207404221247,0.40114394384640195,-1.5950481763020788e-05,-0.019601629116414717,-1.7623561403051352e-08,9.78315504410474
1.6560000000000001,0,4,1,0.0,43.92269767812831,0.0,6.28,160,7,1,0,0,0,0.0,6.28,6.28,0.155517274044518,0.401143795175732,-1.5949208742033552e-05,-0.019979298617994905,-1.662336773996874e-08,9.797202390882138
1.6640000000000001,0,4,1,0.0,43.92269767812831,0.0,6.28,160,7,1,0,0,0,0.0,6.28,6.28,0.15451247404718735,0.40114364650501005,-1.594822950608081e-05,-0.02011912946108902,-1.5599196157477327e-08,9.80079016760614
1.672,0,4,1,0.0,43.92269767812831,0.0,6.28,160,7,1,0,0,0,0.0,6.28,6.28,0.15350767405027388,0.40114349783424486,-1.5947558658439484e-05,-0.020301361130845182,-1.4523110443851421e-08,9.785240654608424
1.68,0,4,1,0.0,43.92269767812831,0.0,6.28,160,7,1,0,0,0,0.0,6.28,6.28,0.1525028740538227,0.4011433491634452,-1.5947206203471495e-05,-0.02036915254357667,-1.3404814950339574e-08,9.843346728628116
1.688,0,4,1,0.0,43.92269767812831,0.0,6.28,160,7,1,0,0,0,0.0,6.28,6.28,0.15149807405786997,0.40114320049262014,-1.5947177397271015e-05,-0.02040582103218711,-1.232034253188042e-08,9.840462589644833
1.696,0,4,1,0.0,43.92269767812831,0.0,6.28,160,7,1,0,0,0,0.0,6.28,6.28,0.15049327406244248,0.4011430518217788,-1.5947472669435372e-05,-0.02043308392053014,-1.1108067456726719e-08,9.827500793058757
1.704,0,4,1,0.0,43.92269767812831,0.0,6.28,160,7,1,0,0,0,0.0,6.28,6.28,0.14948847406755744,0.40114290315093026,-1.5948087616603213e-05,-0.020201283248832393,-9.959503696761793e-09,9.768301473126174
1.712,0,4,1,0.0,43.92269767812831,0.0,6.28,160,7,1,0,0,0,0.0,6.28,6.28,0.1484836740732228,0.4011427544800837,-1.5949013068150206e-05,-0.019951935963846527,-8.670518198701491e-09,9.754115193502003
1.72,0,4,1,0.0,43.92269767812831,0.0,6.28,160,7,1,0,0,0,0.0,6.28,6.28,0.14747887407943758,0.40114260580924815,-1.5950235222883524e-05,-0.019690378910312206,-7.435322954307867e-09,9.781592626028106
1.728,0,4,1,0.0,43.92269767812831,0.0,6.28,160,7,1,0,0,0,0.0,6.28,6.28,0.1464740740861926,0.4011424571384329,-1.595173585491362e-05,-0.019245780041409782,-6.200325342161202e-09,9.845114050435313
1.736,0,4,1,0.0,43.92269767812831,0.0,6.28,160,7,1,0,0,0,0.0,6.28,6.28,0.14546927409347143,0.40114230846764687,-1.595349258542468e-05,-0.01874553747695697,-4.904735191554438e-09,9.823125359054142
1.744,0,4,1,0.0,43.92269767812831,0.0,6.28,160,7,1,0,0,0,0.0,6.28,6.28,0.1444644741012515,0.40114215979689916,-1.5955479216423277e-05,-0.018334207674007313,-3.623165843051751e-09,9.810522024790417
1.752,0,4,1,0.0,43.92269767812831,0.0,6.28,160,7,1,0,0,0,0.0,6.28,6.28,0.1434596741095055,0.4011420111261986,-1.5957666121441463e-05,-0.01776044288998061,-2.33178533929854e-09,9.797328931985044
1.76,0,4,1,0.0,43.92269767812831,0.0,6.28,160,7,1,0,0,0,0.0,6.28,6.28,0.14245487411820265,0.401141862455554,-1.5960020687301457e-05,-0.017137944449586183,-1.0293712197314939e-09,9.803838557607056
1.768,0,4,1,0.0,43.92269767812831,0.0,6.28,160,7,1,0,0,0,0.0,6.28,6.28,0.14145007412731025,0.401141713784974,-1.596250780050261e-05,-0.016444114425394556,2.812370031126279e-10,9.823333891874423
1.776,0,4,1,0.0,43.92269767812831,0.0,6.28,160,7,1,0,0,0,0.0,6.28,6.28,0.14044527413679533,0.401141565114467,-1.5965090370839014e-05,-0.015714774288841774,1.5878299786953536e-09,9.815678421834996
1.784,0,4,1,0.0,43.92269767812831,0.0,6.28,160,7,1,0,0,0,0.0,6.28,6.28,0.13944047414662583,0.40114141644404144,-1.596772988460629e-05,-0.014734026764338194,2.8935395100928097e-09,9.761669433490217
1.792,0,4,1,0.9548412538723549,44.87753893200066,0.9548412538723549,6.23130309605251,160,7,1,1,1,1,0.0595,6.28,6.1718030960525105,0.13843567415677224,0.40114126777370523,-1.597038697880547e-05,-0.014023095798857497,4.174379879071787e-09,9.837840158792861
1.8,0,4,1,0.0,44.87753893200066,-0.9548412538723549,6.280954841253872,160,7,1,0,1,-1,0.0005000000000000004,6.28,6.28,0.1374395287486372,0.40114111155910176,-1.5968082425106556e-05,-0.15003710414956373,9.914175137209523e-05,9.780394332018608
1.808,0,4,1,0.0,44.87753893200066,0.0,6.28,160,7,1,0,1,0,0.005,6.28,6.275,0.13643472965659365,0.4011412989609271,-1.597102417056316e-05,0.1207273571651173,-0.005353342009050651,9.810835808778766
1.816,0,4,1,0.0,44.87753893200066,0.0,6.28,160,7,1,0,1,0,0.005,6.28,6.275,0.135430329531998,0.4011414803443111,-1.597369365117715e-05,-0.018969194316604203,9.232091917426404e-05,9.771426799417078
1.824,0,4,1,0.0,44.87753893200066,0.0,6.28,160,7,1,0,1,0,0.005,6.28,6.275,0.134425929501292,0.4011416733735782,-1.5976286788871308e-05,-0.011701542039901846,-0.0001824128024631962,9.821531639178069
1.832,0,4,1,0.0,44.87753893200066,0.0,6.28,160,7,1,0,1,0,0.005,6.28,6.275,0.1334215294953211,0.4011418786549871,-1.5978764131710857e-05,-0.01073180042118674,-0.00019291027294559074,9.775080001664598
1.84,0,4,1,0.0,44.87753893200066,0.0,6.28,160,7,1,0,1,0,0.005,6.28,6.275,0.13241712950752058,0.4011420966926028,-1.598108817558834e-05,-0.009617541318219354,-0.00019991927908660794,9.770197109685219
1.848,0,4,1,0.0,44.87753893200066,0.0,6.28,160,7,1,0,1,0,0.005,6.28,6.275,0.131412729533166,0.40114232790701376,-1.598322406424872e-05,-0.008446087499189792,-0.000206916218207512,9.799829671080207
1.856,0,4,1,0.0,44.87753893200066,0.0,6.28,160,7,1,0,1,0,0.005,6.28,6.275,0.130408329568919,0.40114257264745967,-1.598513996151421e-05,-0.0073085861097283294,-0.00021279350340722811,9.806780240921224
1.864,0,4,1,0.0,44.87753893200066,0.0,6.28,160,7,1,0,1,0,0.005,6.28,6.275,0.1294039296124818,0.40114283120261524,-1.5986807426610766e-05,-0.006116300436105951,-0.00021745357396842327,9.823263867376019
1.872,0,4,1,0.0,44.87753893200066,0.0,6.28,160,7,1,0,1,0,0.005,6.28,6.275,0.12839952966233173,0.40114310381006263,-1.5988201773998317e-05,-0.004900009144043967,-0.00022155704528071748,9.810351391019609
1.8800000000000001,0,4,1,0.0,44.87753893200066,0.0,6.28,160,7,1,0,1,0,0.005,6.28,6.275,0.1273951297175182,0.40114339066452315,-1.5989302401922187e-05,-0.0036623822920390137,-0.00022494212568590003,9.795609630325474
1.8880000000000001,0,4,1,0.0,44.87753893200066,0.0,6.28,160,7,1,0,1,0,0.005,6.28,6.275,0.12639072977750784,0.4011436919249458,-1.599009307655906e-05,-0.002404371673501946,-0.00022689503332529518,9.806996796052857
1.8960000000000001,0,4,1,0.0,44.87753893200066,0.0,6.28,160,7,1,0,1,0,0.005,6.28,6.275,0.1253863298420673,0.4011440077205634,-1.5990562162008365e-05,-0.0011534121496498415,-0.00022789751214062853,9.83478050113463
1.9040000000000001,0,4,1,0.0,44.87753893200066,0.0,6.28,160,7,1,0,1,0,0.005,6.28,6.275,0.12438192991117482,0.4011443381560296,-1.5990702789171057e-05,0.00010575589270485491,-0.00022927266140192654,9.859674239987784
1.9120000000000001,0,4,1,0.0,44.87753893200066,0.0,6.28,160,7,1,0,1,0,0.005,6.28,6.275,0.12337752998495428,0.4011446833157507,-1.5990512957616068e-05,0.0013606566615747158,-0.00023193955065740386,9.807308111881088
1.92,0,4,1,0.0,44.87753893200066,0.0,6.28,160,7,1,0,1,0,0.005,6.28,6.275,0.12237313006362599,0.4011450432675158,-1.5989995567542575e-05,0.0026285239285474193,-0.00023118596278186594,9.83740682678783
1.928,0,4,1,0.0,44.87753893200066,0.0,6.28,160,7,1,0,1,0,0.005,6.28,6.275,0.12136873014747047,0.4011454180655254,-1.5989158380068716e-05,0.0038631456309284047,-0.000233877308241048,9.848069608162668
1.936,0,4,1,0.0,44.87753893200066,0.0,6.28,160,7,1,0,1,0,0.005,6.28,6.275,0.12036433023680208,0.4011458077529039,-1.5988013905383555e-05,0.005085935861489191,-0.00023291085029707932,9.810221266529581
1.944,0,4,1,0.0,44.87753893200066,0.0,6.28,160,7,1,0,1,0,0.005,6.28,6.275,0.11935993033195,0.4011462123637766,-1.5986579220151828e-05,0.006292906020476637,-0.00023650353863164766,9.831520960756768
1.952,0,4,1,0.0,44.87753893200066,0.0,6.28,160,7,1,0,1,0,0.005,6.28,6.275,0.11835553043324484,0.4011466319249783,-1.5984875716600067e-05,0.007472834175691074,-0.0002339749293362266,9.834778842925386
1.96,0,4,1,0.0,44.87753893200066,0.0,6.28,160,7,1,0,1,0,0.005,6.28,6.275,0.11735113054100953,0.40114706645745385,-1.598292878661478e-05,0.008665568915588397,-0.00023486451853587737,9.812494943373451
1.968,0,4,1,0.0,44.87753893200066,0.0,6.28,160,7,1,0,1,0,0.005,6.28,6.275,0.11634673065555308,0.40114751597740206,-1.5980767445931965e-05,0.009781568114056192,-0.00023505981842413597,9.874601264540962
1.976,0,4,1,0.0,44.87753893200066,0.0,6.28,160,7,1,0,1,0,0.005,6.28,6.275,0.115342330777167,0.40114798049720646,-1.5978423903672406e-05,0.010968576877361687,-0.00023589749328022292,9.816790890751541
1.984,0,4,1,0.0,44.87753893200066,0.0,6.28,160,7,1,0,1,0,0.005,6.28,6.275,0.11433793090612333,0.40114846002619053,-1.597593308381301e-05,0.011948889382199639,-0.00023464266544124122,9.818446346411054
1.992,0,4,1,0.0,44.87753893200066,0.0,6.28,160,7,1,0,1,0,0.005,6.28,6.275,0.113333531042674,0.40114895457122807,-1.5973332105720384e-05,0.012871892591158484,-0.00023561793138325086,9.830083657383637
2.0,0,4,1,0.0,44.87753893200066,0.0,6.28,160,7,1,0,1,0,0.005,6.28,6.275,0.11232913118705114,0.40114946413723546,-1.59706597315859e-05,0.013829634191962663,-0.0002369837707835372,9.818294193857136
2.008,0,4,1,0.0,44.87753893200066,0.0,6.28,160,7,1,0,1,0,0.005,6.28,6.275,0.1113247313394682,0.4011499887275678,-1.596795578927973e-05,0.014655008711096531,-0.0002355270384196349,9.820164897648013
2.016,0,4,1,0.0,44.87753893200066,0.0,6.28,160,7,1,0,1,0,0.005,6.28,6.275,0.11032033150012152,0.4011505283443363,-1.5965260578766627e-05,0.015551233264166832,-0.0002355917406767905,9.864912306206554
2.024,0,4,1,0.0,44.87753893200066,0.0,6.28,160,7,1,0,1,0,0.005,6.28,6.275,0.10931593166919241,0.4011510829886628,-1.596261427136425e-05,0.016393566793841127,-0.0002346348054430812,9.836933055635031
2.032,0,4,1,0.0,44.87753893200066,0.0,6.28,160,7,1,0,1,0,0.005,6.28,6.275,0.10831153184684929,0.4011516526608828,-1.5960056310923565e-05,0.017141570895893864,-0.00023640512354501268,9.799359062407905
2.04,0,4,1,0.0,44.87753893200066,0.0,6.28,160,7,1,0,1,0,0.005,6.28,6.275,0.1073071320332502,0.40115223736070804,-1.5957624825722883e-05,0.017862106990484985,-0.00023610839781917442,9.773498337498333
2.048,0,4,1,0.0,44.87753893200066,0.0,6.28,160,7,1,0,1,0,0.005,6.28,6.275,0.10630273222854522,0.40115283708735555,-1.5955356059702344e-05,0.01853367356158201,-0.0002350897274125642,9.818429423364476
2.056,0,4,1,0.0,44.87753893200066,0.0,6.28,160,7,1,0,1,0,0.005,6.28,6.275,0.10529833243287913,0.4011534518396516,-1.5953283831936227e-05,0.018944193363205863,-0.00023537435408765335,9.768522057386559
2.064,0,4,1,0.0,44.87753893200066,0.0,6.28,160,7,1,0,1,0,0.005,6.28,6.275,0.10429393264639367,0.40115408161611393,-1.5951439032119846e-05,0.019397660752857197,-0.0002365833342383058,9.872202403813569
2.072,0,4,1,0.0,44.87753893200066,0.0,6.28,160,7,1,0,1,0,0.005,6.28,6.275,0.10328953286923001,0.40115472641501804,-1.594984915984088e-05,0.01987022724988528,-0.0002354788731956463,9.82274592230608
2.08,0,4,1,0.0,44.87753893200066,0.0,6.28,160,7,1,0,1,0,0.005,6.28,6.275,0.10228513310153085,0.40115538623445035,-1.59485379142444e-05,0.020015443388611564,-0.0002360528740459222,9.773105341475167
2.088,0,4,1,0.0,44.87753893200066,0.0,6.28,160,7,1,0,1,0,0.005,6.28,6.275,0.1012807333434424,0.4011560610723517,-1.5947524840619412e-05,0.020296530756921543,-0.00023525575602802626,9.790204021402186
2.096,0,4,1,0.0,44.87753893200066,0.0,6.28,160,7,1,0,1,0,0.005,6.28,6.275,0.10027633359511606,0.4011567509265521,-1.594682503853681e-05,0.0204742675609577,-0.0002365862048040556,9.821494681936906
2.104,0,4,1,0.0,44.87753893200066,0.0,6.28,160,7,1,0,1,0,0.005,6.28,6.275,0.09927193385670982,0.4011574557947999,-1.5946448936697902e-05,0.020599789922261583,-0.00023573631547240076,9.783182876043673
2.112,0,4,1,0.0,44.87753893200066,0.0,6.28,160,7,1,0,1,0,0.005,6.28,6.275,0.09826753412838936,0.40115817567478557,-1.594640213727072e-05,0.020666483212791083,-0.00023621702385261118,9.830271838411898
2.12,0,4,1,0.0,44.87753893200066,0.0,6.28,160,7,1,0,1,0,0.005,6.28,6.275,0.09726313441032884,0.4011589105641627,-1.5946685332172278e-05,0.02052812429500081,-0.0002350815270648213,9.852065441901352
2.128,0,4,1,0.0,44.87753893200066,0.0,6.28,160,7,1,0,1,0,0.005,6.28,6.275,0.09625873470271132,0.40115966046056484,-1.5947294292745218e-05,0.020388807826035346,-0.0002358025888387093,9.829479874485843
2.136,0,4,1,0.0,44.87753893200066,0.0,6.28,160,7,1,0,1,0,0.005,6.28,6.275,0.09525433500572882,0.4011604253616212,-1.5948219932566954e-05,0.020272417135590814,-0.00023573396568587598,9.819743082110126
2.144,0,4,1,0.0,44.87753893200066,0.0,6.28,160,7,1,0,1,0,0.005,6.28,6.275,0.09424993531958226,0.40116120526496973,-1.594944844308943e-05,0.01981556883397708,-0.0002365182368491367,9.734481115952693
2.152,0,4,1,0.0,44.87753893200066,0.0,6.28,160,7,1,0,1,0,0.005,6.28,6.275,0.0932455356444808,0.4011620001682697,-1.5950961499399882e-05,0.019562654886574115,-0.0002348059799863772,9.808077665552922
2.16,0,4,1,0.0,44.87753893200066,0.0,6.28,160,7,1,0,1,0,0.005,6.28,6.275,0.09224113598064117,0.4011628100692121,-1.595273653344151e-05,0.01902819130868453,-0.00023695556813868997,9.859352422246774
2.168,0,4,1,0.0,44.87753893200066,0.0,6.28,160,7,1,0,1,0,0.005,6.28,6.275,0.09123673632828659,0.40116363496553065,-1.5954747070593203e-05,0.01862574607658654,-0.00023652687786692347,9.839553191712662
2.176,0,4,1,0.0,44.87753893200066,0.0,6.28,160,7,1,0,1,0,0.005,6.28,6.275,0.09023233668764574,0.4011644748550105,-1.5956963124386797e-05,0.017902605588219822,-0.00023534076006349213,9.786789611541304
2.184,0,4,1,0.0,44.87753893200066,0.0,6.28,160,7,1,0,1,0,0.005,6.28,6.275,0.08922793705895124,0.40116532973549773,-1.5959351643720504e-05,0.01739786111237455,-0.00023503559588666047,9.81047511773782
2.192,0,4,1,0.0,44.87753893200066,0.0,6.28,160,7,1,0,1,0,0.005,6.28,6.275,0.08822353744243844,0.40116619960490724,-1.5961877005777128e-05,0.016637092062723343,-0.00023548565944264127,9.87902932213755
2.2,0,4,1,0.0,44.87753893200066,0.0,6.28,160,7,1,0,1,0,0.005,6.28,6.275,0.08721913783834388,0.40116708446123117,-1.5964501547220677e-05,0.01576759722603905,-0.0002340849649967884,9.77616255389544
2.208,0,4,1,0.0,44.87753893200066,0.0,6.28,160,7,1,0,1,0,0.005,6.28,6.275,0.08621473824690394,0.4011679843025459,-1.59671861257836e-05,0.014981466254259352,-0.00023546572241376064,9.794303741784752
2.216,0,4,1,0.0,44.87753893200066,0.0,6.28,160,7,1,0,1,0,0.005,6.28,6.275,0.08521033866835348,0.40116889912701975,-1.5969890704159093e-05,0.014168324049931043,-0.00023460512333873515,9.768817705284434
2.224,0,4,1,0.0,44.87753893200066,0.0,6.28,160,7,1,0,1,0,0.005,6.28,6.275,0.08420593910292469,0.401169828932919,-1.5972574947021798e-05,0.01321182296063962,-0.0002350901666025372,9.86007824041536
2.232,0,4,1,0.9548412538723549,45.83238018587301,0.9548412538723549,6.23130309605251,160,7,1,0,1,0,0.005,6.23630309605251,6.2263030960525105,0.08320153955084603,0.40117077371861476,-1.5975198822518882e-05,0.012196016446467816,-0.00023488409359405033,9.787460500986501
2.24,0,4,1,0.9548412538723549,46.787221439745366,0.0,6.2322579373063824,160,7,1,0,1,0,0.005,6.237257937306382,6.2272579373063826,0.08220453051674005,0.4011717267792321,-1.598101861065987e-05,-0.10605248862211245,-0.00024105835004513803,9.756393812572634
