Time,SetPointAngle,SensorAngleRow,SensorAngleWidth,Angle,IntegralAngle,DeltaAngle,BaseSpeed,SetPointError,SensorErrorRow,SensorErrorWidth,Error,IntegralError,DeltaError,DeltaSpeed,LeftSpeed,RightSpeed,X,Y,Z,Roll,Pitch,Yaw
0.032,0,4,1,33.00310069207643,33.00310069207643,33.00310069207643,4.596841864704102,160,9,1,-21,-21,-21,-1.2495,3.3473418647041013,5.846341864704102,0.5905869999999971,-0.20385500000000298,-6.397186062773348e-05,3.2026350603759603e-07,-2.6722238550840633e-07,9.77936469763784
0.064,0,4,1,38.078882361565,71.08198305364144,5.0757816694885705,4.370980100252261,160,9,1,-20,-41,1,-1.2005000000000001,3.170480100252261,5.571480100252261,0.5891432517725355,-0.20138121448907614,-3.8799720454518044e-05,3.365285906506099,-0.06819599767373144,9.676973223406835
0.096,0,4,1,33.82616175818528,104.90814481182672,-4.252720603379721,4.592944632694116,160,9,1,-14,-55,6,-0.9480000000000001,3.644944632694116,5.540944632694116,0.5876738368765598,-0.19908011839384224,-6.153486325719167e-05,0.15413232614533479,0.09305681709080495,9.749826853735465
0.128,0,4,1,30.87681307906041,135.7849578908871,-2.9493486791248706,4.739108694726105,160,9,1,-10,-65,4,-0.8069999999999999,3.932108694726105,5.5461086947261045,0.5860272842386545,-0.19663465372007205,-7.225925618681295e-05,0.23803176998828848,0.06690570237551248,9.847754176602555
0.16,0,4,1,29.10473162741869,164.8896895183058,-1.7720814516417178,4.826535500080707,160,9,1,-7,-72,3,-0.6965,4.130035500080707,5.523035500080708,0.5842819007346922,-0.19414524085768314,-7.04592817720312e-05,-0.1308946543213603,0.061047062572468724,9.846030728396483
0.192,0,4,1,30.87681307906041,195.7665025973662,1.7720814516417178,4.734387264595338,160,9,1,-6,-78,1,-0.6855000000000001,4.048887264595338,5.419887264595339,0.5824612379512779,-0.1916444333796951,-7.500617061602724e-05,-0.04470010586371998,0.06426979750500042,9.795112701174094
0.224,0,4,1,32.58570735391442,228.35220995128063,1.7088942748540141,4.649005738029425,160,9,1,-6,-84,0,-0.72,3.929005738029425,5.369005738029425,0.5806337584799398,-0.18922386845546962,-7.809021353303615e-05,-0.03968709419949459,0.06083269265507358,9.817803280713566
0.256,0,4,1,32.16439051359856,260.51660046487916,-0.4213168403158605,4.672201791160388,160,9,1,-7,-91,-1,-0.8095,3.8627017911603883,5.481701791160388,0.5788010026097237,-0.18687728435350892,-7.955420020690565e-05,-0.039944105244015114,0.057577368098355196,9.791409984764428
0.28800000000000003,0,4,1,33.00310069207643,293.5197011569556,0.8387101784778679,4.629006255217701,160,9,1,-4,-95,3,-0.6615000000000001,3.9675062552177005,5.290506255217701,0.576921328514427,-0.1845493975056953,-8.157936906914333e-05,0.0233457871133244,0.05912065282283585,9.78952884960186
0.32,0,4,1,33.00310069207643,326.522801849032,0.0,4.629844965396178,160,9,1,-5,-100,-1,-0.7545,3.8753449653961782,5.384344965396179,0.5750185072072576,-0.18227853988800888,-8.30044110009566e-05,-0.03366559565859634,0.06734009899847568,9.776473565341234
0.352,0,4,1,33.41658139531293,359.939383244345,0.41348070323650177,4.608757449531117,160,9,1,-4,-104,1,-0.7155,3.893257449531117,5.3242574495311175,0.5730824795838617,-0.1800354502206547,-8.420526965600278e-05,-0.0010183713012925034,0.05850528765968541,9.859946005937234
0.384,0,4,1,33.82616175818528,393.76554500253025,0.40958036287234734,4.588282331727863,160,9,1,-4,-108,0,-0.74,3.848282331727863,5.328282331727864,0.5711183039603573,-0.17783607772226892,-8.309200374466592e-05,-0.014735267094444756,0.06551214887594234,9.805812139272204
0.41600000000000004,0,4,1,34.231855438892175,427.9974004414224,0.4056936807068965,4.568001534374684,160,9,1,-4,-112,0,-0.76,3.808001534374684,5.328001534374684,0.569128211082227,-0.1756781104191687,-8.213583101359008e-05,-0.013390344257557798,0.06333960621190116,9.878061925728128
0.448,0,4,1,34.633677396549515,462.63107783797193,0.4018219576573401,4.5479143082148665,160,9,1,-4,-116,0,-0.78,3.7679143082148663,5.327914308214867,0.5671115332216307,-0.17356282800791328,-8.131388155910128e-05,-0.012736880266477688,0.06556579332726471,9.752413244508782
0.48,0,4,1,34.633677396549515,497.26475523452143,0.0,4.548316130172524,160,9,1,-4,-120,0,-0.8,3.7483161301725243,5.348316130172524,0.5650679116657438,-0.1714913685423466,-8.061814002494755e-05,-0.012122521182028207,0.06731636646805665,9.735575741597978
0.512,0,4,1,35.42577211490818,532.6905273494297,0.792094718358662,4.5079192995362325,160,9,1,-3,-123,1,-0.7605000000000001,3.7474192995362325,5.268419299536233,0.5629878487393121,-0.1694557973236584,-8.004223677357536e-05,0.0008996049409584749,0.0687786549965613,9.744448890799497
0.544,0,4,1,35.81608074915566,568.5066080985853,0.3903086342474822,4.48880565390797,160,9,1,-2,-125,1,-0.7205,3.76830565390797,5.20930565390797,0.5608902443159343,-0.16747602524103863,-7.948903285549466e-05,-0.02486176822020722,0.07086910898930604,9.851936349826394
0.5760000000000001,0,4,1,36.20258929000894,604.7091973885942,0.3865085408532778,4.4694840269587,160,9,1,-3,-128,-1,-0.7945,3.6749840269586995,5.2639840269587,0.5587684213887583,-0.16554081656798705,-7.895028448144485e-05,-0.011727615244293613,0.06685909808453683,9.813911573297789
0.608,0,4,1,36.58531829969341,641.2945156882877,0.3827290096844749,4.450351356005645,160,9,1,-2,-130,1,-0.7455,3.704851356005645,5.195851356005645,0.5566244835403141,-0.1636480883446428,-7.860510961302421e-05,-0.011022416504745834,0.06447137927240676,9.845231096759665
0.64,0,4,1,37.71104767638987,679.0055633646775,1.1257293766964551,4.39332188680381,160,9,1,0,-130,2,-0.641,3.75232188680381,5.03432188680381,0.5544564761037885,-0.16180217407620312,-7.824079613530724e-05,-0.01141724342998128,0.06927890980958923,9.802174051944524
0.672,0,4,1,38.73251859515071,717.7380819598283,1.0214709187608406,4.342352599323704,160,9,1,-1,-131,-1,-0.7095,3.632852599323704,5.051852599323705,0.5522867366308545,-0.16001648940367857,-7.777006566570856e-05,-0.035806752101817906,0.06514266204049396,9.789070249932779
0.704,0,4,1,38.078882361565,755.8169643213932,-0.6536362335857078,4.3767095181553355,160,9,1,-2,-133,-1,-0.7695,3.6072095181553356,5.146209518155335,0.550116989003439,-0.1582821510018509,-7.746692755903478e-05,-0.031211947193849423,0.058629132502916535,9.826530555186972
0.736,0,4,1,39.0938588862295,794.9108232076228,1.0149765246644975,4.324292079163861,160,9,1,-1,-134,1,-0.7155000000000001,3.608792079163861,5.0397920791638615,0.5479022258334485,-0.15656873698916646,-7.72892018729085e-05,0.022546900129037994,0.06175769699211239,9.793175566784127
0.768,0,4,1,38.443053501836616,833.3538767094594,-0.650805384392882,4.3584981302925625,160,9,1,-3,-137,-2,-0.8440000000000001,3.514498130292562,5.202498130292563,0.5456850164942656,-0.15491432303638564,-7.706860806463815e-05,-0.0320573163425223,0.06688206973820447,9.8242275814987
0.8,0,4,1,39.0938588862295,872.447735595689,0.650805384392882,4.324656250304132,160,9,1,-2,-139,1,-0.7905000000000001,3.534156250304132,5.115156250304132,0.5434228970336985,-0.15328248687940563,-7.707866848225518e-05,0.023117510800983412,0.0614838383899232,9.871662470094703
0.8320000000000001,0,4,1,38.80358657089566,911.2513221665846,-0.2902723153338371,4.340110943770551,160,9,1,-2,-141,0,-0.8049999999999999,3.535110943770551,5.1451109437705504,0.5411476352701876,-0.1517068611761663,-7.70460451400834e-05,-0.020132285308534576,0.07096143501340486,9.842056677593217
0.864,0,4,1,39.0938588862295,950.345181052814,0.2902723153338371,4.325016783373192,160,9,1,-2,-143,0,-0.815,3.510016783373192,5.140016783373191,0.5388361788305218,-0.15016664997847687,-7.707396445398064e-05,0.010822660890135965,0.06621466744787276,9.817954944532651
0.896,0,4,1,38.078882361565,988.424063414379,-1.0149765246644975,4.377070858446414,160,9,1,-3,-146,-1,-0.8845,3.492570858446414,5.261570858446414,0.5365050014232031,-0.14867413032441112,-7.715241616335772e-05,-0.008301871153392728,0.06794793622903067,9.798092483448276
0.928,0,4,1,38.443053501836616,1026.8671169162155,0.36417114027161546,4.357483153767897,160,9,1,0,-146,3,-0.7165,3.6409831537678974,5.073983153767897,0.5341178034894777,-0.1472071967639832,-7.735922462608416e-05,0.034443926260761044,0.06739162269182052,9.803163287962295
0.96,0,4,1,38.078882361565,1064.9459992777806,-0.36417114027161546,4.376420053062022,160,9,1,-1,-147,-1,-0.7895,3.586920053062022,5.165920053062022,0.5317136030444606,-0.1457955636373881,-7.733374019296309e-05,-0.012436965795981724,0.07323053657244527,9.804918619431152
0.992,0,4,1,36.964289289465206,1101.9102885672457,-1.1145930720997939,4.43290012859884,160,9,1,-3,-150,-2,-0.909,3.5239001285988403,5.34190012859884,0.5292763638389755,-0.14441668451085382,-7.743178955435699e-05,0.012806424689384352,0.061538018093440575,9.81465468922822
1.024,0,4,1,36.48601207024965,1138.3963006374954,-0.4782772192155562,4.456177673706733,160,9,1,-2,-152,1,-0.8555,3.600677673706733,5.3116776737067335,0.5267823912233744,-0.14306389075057963,-7.770820113029223e-05,0.03732371798219683,0.06644581806368804,9.865747873370516
1.056,0,4,1,35.70669140060289,1174.1029920380984,-0.7793206696467578,4.4954447506395026,160,9,1,-2,-154,0,-0.87,3.6254447506395024,5.365444750639503,0.5242480199031709,-0.14175636168010253,-7.789951008072699e-05,0.015625705929131567,0.07560036410366275,9.76516752720953
1.088,0,4,1,34.91183021660998,1209.0148222547084,-0.7948611839929143,4.535203350353494,160,9,1,-2,-156,0,-0.88,3.655203350353494,5.415203350353494,0.5216662590851413,-0.1404872027258512,-7.811736332178493e-05,0.0256925343222167,0.07226246218016326,9.856079947994923
1.12,0,4,1,33.690067525979785,1242.7048897806883,-1.221762690630193,4.5967183863916405,160,9,1,-2,-158,0,-0.89,3.7067183863916404,5.48671838639164,0.5190370141668197,-0.13925855365799347,-7.834935178828613e-05,0.026143605226630867,0.0739748337430291,9.833287031529238
1.1520000000000001,0,4,1,32.0053832080835,1274.7102729887717,-1.6846843178962843,4.681415523913722,160,9,1,-2,-160,0,-0.9,3.7814155239137217,5.581415523913722,0.5163777034222522,-0.13808026274138815,-7.859048889378474e-05,0.007876101166473762,0.07575810379288589,9.846057706128606
1.184,0,4,1,30.256437163529263,1304.966710152301,-1.7489460445542377,4.768927087868091,160,9,1,-2,-162,0,-0.91,3.858927087868091,5.678927087868091,0.5136607078832697,-0.13694557634572335,-7.88380469674086e-05,0.036608693086606366,0.08020908030123891,9.841549234363315
1.216,0,4,1,28.442928624363343,1333.4096387766642,-1.8135085391659196,4.8596670773209985,160,9,1,-1,-163,1,-0.8605000000000002,3.9991670773209984,5.7201670773209985,0.5108672041933987,-0.1358516283712855,-7.909706487025346e-05,0.05638783149606539,0.08344808650914715,9.81415791004074
1.248,0,4,1,26.800834946954605,1360.2104737236189,-1.642093677408738,4.941600346329678,160,9,1,0,-163,1,-0.8105000000000001,4.131100346329678,5.752100346329678,0.5079925218861345,-0.13479996960279736,-7.925936362132568e-05,0.061553361072210676,0.08539575261829364,9.802037012413276
1.28,0,4,1,24.887411710924507,1385.0978854345433,-1.9134232360300985,5.037542837689805,160,9,1,0,-163,0,-0.8150000000000001,4.222542837689804,5.852542837689805,0.5050441513416325,-0.13379160654854447,-7.930180762001811e-05,0.055553104459464035,0.08428949554763325,9.79360176165624
1.312,0,4,1,23.41211416930267,1408.509999603846,-1.4752975416218383,5.110869589076488,160,9,1,1,-162,1,-0.7555000000000001,4.3553695890764885,5.866369589076488,0.5020184611800556,-0.13282340033890555,-7.930085597968907e-05,0.061330417024119316,0.08227362377015097,9.80929465070671
1.344,0,4,1,21.90317808183915,1430.413177685685,-1.5089360874635176,5.186350031995507,160,9,1,2,-160,1,-0.6955000000000001,4.490850031995507,5.881850031995507,0.4989262045703783,-0.13190132919541442,-7.91094228731852e-05,0.0502899188419666,0.0839707902622825,9.770101374513875
1.3760000000000001,0,4,1,20.361603275386152,1450.7747809610712,-1.5415748064529993,5.263461411037145,160,9,1,2,-158,0,-0.6900000000000001,4.573461411037145,5.9534614110371455,0.4957682116336087,-0.13102745803677668,-7.870636409058711e-05,0.05025126456695976,0.08575401865226004,9.756533221229637
1.408,0,4,1,19.316352819504157,1470.0911337805753,-1.0452504558819946,5.315227609480675,160,9,1,3,-155,1,-0.6205,4.694727609480675,5.935727609480675,0.4925482874290277,-0.1301942557850602,-7.82007121890322e-05,0.049397340523164766,0.07815253951365557,9.811594825942707
1.44,0,4,1,17.72323661688633,1487.8143703974617,-1.5931162026178285,5.395431285358302,160,9,1,3,-152,0,-0.61,4.785431285358301,6.005431285358302,0.4892791378815718,-0.12940051012166193,-7.746490084048312e-05,0.038384116809629734,0.07422726209617102,9.842690669139055
1.472,0,4,1,16.645038214675964,1504.4594086121376,-1.078198402210365,5.448826287668413,160,9,1,4,-148,1,-0.5355000000000001,4.913326287668413,5.984326287668413,0.48594823130623976,-0.12864372922071848,-7.663738197328206e-05,0.05163029221439376,0.07399532471075708,9.808484019243343
1.504,0,4,1,15.554571270074414,1520.013979882212,-1.09046694460155,5.503361903440881,160,9,1,4,-144,0,-0.52,4.983361903440882,6.023361903440881,0.48256920333105735,-0.1279274560784916,-7.560947151968866e-05,0.038386805012150624,0.07463410668970727,9.810235438461675
1.536,0,4,1,14.452428251092973,1534.4664081333049,-1.1021430189814403,5.558480730464333,160,9,1,4,-140,0,-0.5,5.058480730464333,6.058480730464333,0.4791463938875027,-0.12724700020664953,-7.454425917430112e-05,0.03584835045354294,0.06956102020599983,9.808235382029427
1.568,0,4,1,13.897176315015338,1548.3635844483201,-0.5552519360776351,5.5856964361853105,160,9,1,5,-135,1,-0.42050000000000004,5.165196436185311,6.00619643618531,0.47567963677109554,-0.1266020345500494,-7.346442680531383e-05,0.0365090968191677,0.0690837980697832,9.816527137246258
1.6,0,4,1,12.778733188406045,1561.1423176367261,-1.118443126609293,5.642181783706307,160,9,1,5,-130,0,-0.4,5.2421817837063065,6.042181783706307,0.4721746070994357,-0.12599264907450441,-7.22933280274847e-05,0.031450870295547634,0.06737276125437486,9.799562333927897
1.6320000000000001,0,4,1,12.215719134130879,1573.358036770857,-0.5630140542751665,5.669777057347731,160,9,1,5,-125,0,-0.375,5.294777057347731,6.044777057347731,0.46862789261222154,-0.12541051904890121,-7.118345859409743e-05,0.03628007223154156,0.05968307413311214,9.77837424389166
1.6640000000000001,0,4,1,11.650299437537637,1585.0083362083947,-0.5654196965932421,5.698050447819711,160,9,1,5,-120,0,-0.35,5.348050447819712,6.048050447819711,0.4650580235299999,-0.12485769434956501,-7.016556462251765e-05,0.018371020185585955,0.05839264083050198,9.828161119517267
1.696,0,4,1,11.08256946302967,1596.0909056714243,-0.5677299745079676,5.726439256823024,160,9,1,5,-115,0,-0.32500000000000007,5.401439256823024,6.051439256823024,0.46146489260300666,-0.12433251920866258,-6.926245529666544e-05,0.018916858384502754,0.056329626273508474,9.806819163152426
1.728,0,4,1,10.512627169921368,1606.6035328413457,-0.5699422931083014,5.75493858379704,160,9,1,5,-110,0,-0.30000000000000004,5.45493858379704,6.05493858379704,0.45784872003223376,-0.12383335443361003,-6.848859480435877e-05,0.019199150241912287,0.05377160049725476,9.857193699726297
1.76,0,4,1,9.36650995701213,1615.9700427983578,-1.1461172129092372,5.812820619362303,160,9,1,4,-106,-1,-0.3345,5.478320619362303,6.147320619362303,0.4542097416348315,-0.12335850043479339,-6.785069084528153e-05,0.019221689698206795,0.050873108459156796,9.834249414962903
1.792,0,4,1,9.36650995701213,1625.33655275537,0.0,5.811674502149394,160,9,1,5,-101,1,-0.2505,5.561174502149394,6.062174502149394,0.4505288107007458,-0.12290385676477687,-6.741987538586187e-05,0.03821019770085745,0.04812955435463848,9.791526850848793
1.824,0,4,1,8.212780189285867,1633.5493329446558,-1.1537297677262632,5.870514720303434,160,9,1,4,-97,-1,-0.2895,5.5810147203034335,6.160014720303434,0.44684486813744045,-0.12247762730718699,-6.703706545326676e-05,-3.628545680212396e-05,0.05066301347664784,9.817124911673222
1.856,0,4,1,8.212780189285867,1641.7621131339417,0.0,5.869360990535707,160,9,1,4,-93,0,-0.265,5.6043609905357075,6.134360990535707,0.4431190105833092,-0.12206815304884706,-6.683515816853502e-05,0.03912024959122383,0.042462412574627656,9.803408602711203
1.8880000000000001,0,4,1,7.6333305872312645,1649.395443721173,-0.5794496020546029,5.898912920240491,160,9,1,4,-89,0,-0.245,5.653912920240491,6.143912920240491,0.43939004286545474,-0.12168349663613878,-6.673297848395869e-05,0.0007352769641109402,0.04545481598106999,9.777672317798144
1.92,0,4,1,7.0523060078411755,1656.4477497290143,-0.581024579390089,5.927965724187332,160,9,1,4,-85,0,-0.22499999999999998,5.702965724187332,6.1529657241873315,0.4356389507470704,-0.12131956084340462,-6.665778168228609e-05,0.019857467177697753,0.04196683430819317,9.815019587440776
1.952,0,4,1,6.469819985173149,1662.9175697141875,-0.5824860226680268,5.957091486764011,160,9,1,4,-81,0,-0.20500000000000002,5.7520914867640105,6.162091486764011,0.43186641323221925,-0.12097482317511449,-6.653127793466995e-05,0.01957153752546756,0.0396581329120212,9.807012372595736
1.984,0,4,1,6.469819985173149,1669.3873896993607,0.0,5.956509000741343,160,9,1,4,-77,0,-0.185,5.771509000741343,6.141509000741342,0.42806786436104344,-0.12064723158950436,-6.637138062668031e-05,0.024726970213403882,0.03701390095882299,9.818205513249142
2.016,0,4,1,6.469819985173149,1675.857209684534,0.0,5.956509000741343,160,9,1,4,-73,0,-0.16499999999999998,5.791509000741343,6.121509000741343,0.4242683021100243,-0.12033649071512613,-6.62132460421648e-05,0.0005224237192569457,0.033746494608696914,9.813548698334188
2.048,0,4,1,6.469819985173149,1682.3270296697071,0.0,5.956509000741343,160,9,1,4,-69,0,-0.14500000000000002,5.811509000741342,6.101509000741343,0.42046756979657074,-0.12004083193128272,-6.604051916588374e-05,0.000845414758371412,0.030971174761113614,9.743696290657782
2.08,0,4,1,5.300926516525713,1687.627956186233,-1.1688934686474353,6.016122567642362,160,9,1,3,-66,-1,-0.1845,5.831622567642362,6.200622567642362,0.41666585492052477,-0.11975852220728565,-6.585773477473487e-05,0.0006882489812919535,0.02859874024099945,9.803521107925027
2.112,0,4,1,5.300926516525713,1692.9288827027588,0.0,6.014953674173714,160,9,1,3,-63,0,-0.16499999999999998,5.849953674173714,6.179953674173714,0.4128252030932681,-0.11948515887961804,-6.57212758369604e-05,0.04561620331678887,0.02580284547242339,9.786212859018597
2.144,0,4,1,5.300926516525713,1698.2298092192846,0.0,6.014953674173714,160,9,1,3,-60,0,-0.14999999999999997,5.864953674173714,6.164953674173715,0.40898420147485653,-0.11922751946822024,-6.555309683808908e-05,0.006977402331327813,0.028955119268725085,9.76003476080295
2.176,0,4,1,4.714754518704886,1702.9445637379895,-0.5861719978208271,6.044848446062576,160,9,1,3,-57,0,-0.135,5.909848446062576,6.179848446062576,0.4051422938353447,-0.11898380226678096,-6.542521924777188e-05,0.006708729363316829,0.026515173822035554,9.789723460826576
2.208,0,4,1,4.714754518704886,1707.6593182566944,0.0,6.044262274064756,160,9,1,3,-54,0,-0.12,5.9242622740647555,6.164262274064756,0.40128052502886646,-0.11875153446136663,-6.529207628330237e-05,0.025324528058865484,0.02440653111242341,9.81077057710466
2.24,0,4,1,4.714754518704886,1712.3740727753993,0.0,6.044262274064756,160,9,1,3,-51,0,-0.10499999999999998,5.939262274064756,6.149262274064755,0.39741848374104616,-0.11853063673200838,-6.517676197753154e-05,0.005812530874738593,0.022533880525117695,9.808041334128479
2.2720000000000002,0,4,1,4.714754518704886,1717.0888272941042,0.0,6.044262274064756,160,9,1,3,-48,0,-0.08999999999999997,5.954262274064756,6.134262274064755,0.3935559046557694,-0.11831973840875197,-6.506542195630974e-05,0.005218463314878559,0.0204521839385903,9.792013100614827
2.3040000000000003,0,4,1,4.127591702511717,1721.2164189966159,-0.5871628161931692,6.074207577690607,160,9,1,2,-46,-1,-0.1345,5.939707577690607,6.208707577690607,0.3896928824042824,-0.11811749088405794,-6.495630287882762e-05,0.003915215631944551,0.018476284390324504,9.783189483276509
2.336,0,4,1,4.127591702511717,1725.3440106991275,0.0,6.073620414874414,160,9,1,2,-44,0,-0.12,5.953620414874414,6.193620414874414,0.38581031726225423,-0.11792160594878615,-6.488142884578108e-05,0.024905120195357237,0.016614268484650415,9.782166816006752
2.368,0,4,1,3.5395591685500816,1728.8835698676776,-0.5880325339616355,6.103610074106458,160,9,1,2,-42,0,-0.10999999999999999,5.993610074106457,6.213610074106458,0.38192753883086183,-0.11773744181693493,-6.480486474314678e-05,0.007640673378378358,0.02030332587495727,9.781466719383713
2.4,0,4,1,3.5395591685500816,1732.4231290362277,0.0,6.103022041572496,160,9,1,2,-40,0,-0.1,6.003022041572496,6.2030220415724955,0.3780251065495527,-0.11756279897674607,-6.471643844526732e-05,0.02699082841627718,0.018357354042010464,9.8189645479433
2.432,0,4,1,3.5395591685500816,1735.9626882047778,0.0,6.103022041572496,160,9,1,2,-38,0,-0.09,6.013022041572496,6.193022041572496,0.3741226392775332,-0.11739770455541247,-6.465892801067047e-05,0.0074458245459711695,0.017175582445934083,9.788810285327022
2.464,0,4,1,3.5395591685500816,1739.502247373328,0.0,6.103022041572496,160,9,1,2,-36,0,-0.07999999999999999,6.023022041572496,6.183022041572496,0.37021982714782437,-0.11724121677083232,-6.460621669795996e-05,0.006967416520513124,0.015937512731995247,9.856273107717003
2.496,0,4,1,3.5395591685500816,1743.041806541878,0.0,6.103022041572496,160,9,1,2,-34,0,-0.07,6.0330220415724956,6.173022041572496,0.36631672618367683,-0.1170924057331893,-6.455626762677177e-05,0.005710806066860845,0.01463874204932545,9.827482588200274
2.528,0,4,1,3.5395591685500816,1746.5813657104281,0.0,6.103022041572496,160,9,1,2,-32,0,-0.06,6.043022041572496,6.1630220415724954,0.3624133847845704,-0.11695034253754899,-6.450706452191916e-05,0.003982244791937481,0.01346777462766036,9.802002486430709
2.56,0,4,1,3.5395591685500816,1750.1209248789783,0.0,6.103022041572496,160,9,1,2,-30,0,-0.04999999999999999,6.053022041572496,6.153022041572496,0.35850984494588195,-0.11681410333348372,-6.4457068645574e-05,0.0020557490587173773,0.012223094388766464,9.85149291326308
2.592,0,4,1,2.950779109006353,1753.0717039879846,-0.5887800595437285,6.133049824609226,160,9,1,1,-29,-1,-0.09949999999999999,6.033549824609226,6.232549824609226,0.3546061434941444,-0.11668277162468112,-6.440547956180868e-05,-3.846883739605547e-05,0.010962770834266493,9.818191893978936
2.624,0,4,1,2.950779109006353,1756.022483096991,0.0,6.132461044549682,160,9,1,1,-28,0,-0.09000000000000001,6.0424610445496825,6.222461044549682,0.3506830813899821,-0.11655481021598285,-6.437562585596447e-05,0.02053319544775536,0.009676269410488098,9.797980529946017
2.656,0,4,1,2.361374658175717,1758.3838577551667,-0.589404450830636,6.162520671542045,160,9,1,1,-27,0,-0.085,6.077520671542045,6.247520671542045,0.3467600974507263,-0.11643574657754142,-6.434366113662951e-05,0.0029135473805156063,0.014188620426887627,9.819616457758789
2.688,0,4,1,2.361374658175717,1760.7452324133424,0.0,6.161931267091214,160,9,1,1,-26,0,-0.08,6.081931267091214,6.241931267091214,0.3428176403892236,-0.11632415709492891,-6.431090079224953e-05,0.027125390203334848,0.012997549873010508,9.833355102962487
2.72,0,4,1,2.361374658175717,1763.106607071518,0.0,6.161931267091214,160,9,1,1,-25,0,-0.075,6.086931267091214,6.236931267091214,0.3388753495702028,-0.1162201937623584,-6.42787951697088e-05,0.012620240967446178,0.012338552315901898,9.794061095661803
2.7520000000000002,0,4,1,2.361374658175717,1765.4679817296937,0.0,6.161931267091214,160,9,1,2,-23,1,-0.010499999999999999,6.151431267091214,6.1724312670912145,0.3349328805576025,-0.11612336033820383,-6.424442581622926e-05,0.012623380408674955,0.011679311141622026,9.788750820598963
2.7840000000000003,0,4,1,2.361374658175717,1767.8293563878694,0.0,6.161931267091214,160,9,1,1,-22,-1,-0.0645,6.097431267091214,6.226431267091214,0.3309902948196241,-0.11603312641006455,-6.421482963673945e-05,0.011366954083303009,0.01109317083465799,9.839716222655253
2.816,0,4,1,2.361374658175717,1770.1907310460451,0.0,6.161931267091214,160,9,1,1,-21,0,-0.05499999999999999,6.106931267091214,6.216931267091214,0.327047683268624,-0.1159432784449887,-6.420706872789853e-05,0.009573639240571878,0.00489429869049096,9.76985049323453
2.848,0,4,1,1.7714697400340056,1771.9622007860792,-0.5899049181417115,6.192016417916442,160,9,1,1,-20,0,-0.05,6.142016417916442,6.2420164179164415,0.32310494920692046,-0.11585904882847016,-6.419593839119934e-05,0.007099445484601104,0.009809596327817338,9.804140949984973
2.88,0,4,1,1.7714697400340056,1773.7336705261132,0.0,6.1914265129983,160,9,1,1,-19,0,-0.045,6.1464265129983,6.2364265129983,0.31914286870213593,-0.1157791676873741,-6.417778951551753e-05,0.02679975137191196,0.008781413459042705,9.79170750701438
2.912,0,4,1,1.7714697400340056,1775.5051402661472,0.0,6.1914265129983,160,9,1,1,-18,0,-0.039999999999999994,6.1514265129983,6.2314265129983,0.31518108190995076,-0.11570361154227375,-6.415956461040644e-05,0.008046652084850996,0.008248810285208314,9.80565819069202
2.944,0,4,1,1.7714697400340056,1777.2766100061813,0.0,6.1914265129983,160,9,1,1,-17,0,-0.035,6.1564265129983,6.2264265129983,0.3112192248085111,-0.11563191395147186,-6.414159295061936e-05,0.008296986024092012,0.0076075188297986185,9.827809641719426
2.976,0,4,1,1.7714697400340056,1779.0480797462153,0.0,6.1914265129983,160,9,1,1,-16,0,-0.03,6.1614265129982995,6.2214265129983,0.3072573086318348,-0.11556361573271406,-6.412407324156433e-05,0.007678238867420827,0.0069524715891051666,9.837028576992383
3.008,0,4,1,1.7714697400340056,1780.8195494862493,0.0,6.1914265129983,160,9,1,1,-15,0,-0.024999999999999994,6.166426512998299,6.2164265129983,0.3032953433773974,-0.11549825871822744,-6.410701636196114e-05,0.006552870680536325,0.006325635094327361,9.813180695352592
3.04,0,4,1,1.7714697400340056,1782.5910192262834,0.0,6.1914265129983,160,9,1,1,-14,0,-0.020000000000000004,6.1714265129983,6.211426512998299,0.2993333379848779,-0.11543538654827981,-6.409031307602273e-05,0.005047950055885287,0.005729473201380221,9.791439993220871
3.072,0,4,1,1.7714697400340056,1784.3624889663174,0.0,6.1914265129983,160,9,1,1,-13,0,-0.015,6.1764265129983,6.206426512998299,0.2953713005269998,-0.11537454510094271,-6.4073823453515e-05,0.0032296970681455943,0.0050924926961073225,9.860133481398387
3.104,0,4,1,1.7714697400340056,1786.1339587063515,0.0,6.1914265129983,160,9,1,1,-12,0,-0.009999999999999995,6.1814265129983,6.2014265129982995,0.2914092383926621,-0.11531528258879661,-6.405746965951371e-05,0.0012667159130189073,0.0044292750999228,9.744951015078957
3.136,0,4,1,1.7714697400340056,1787.9054284463855,0.0,6.1914265129983,160,9,1,0,-12,-1,-0.0645,6.1269265129983,6.2559265129982995,0.28744715845995744,-0.11525714941461757,-6.404131242198317e-05,-0.0008077192497284755,0.0037752407410117485,9.76300369061083
3.168,0,4,1,1.181188913326966,1789.0866173597124,-0.5902808267070396,6.221530835160358,160,9,1,0,-12,0,-0.06,6.161530835160359,6.28,0.28348506308827637,-0.11519969355229077,-6.403349786496954e-05,-0.002829726983879828,0.0030961927843597198,9.789194104447384
3.2,0,4,1,1.7714697400340056,1790.8580870997464,0.5902808267070396,6.190836232171593,160,9,1,1,-11,1,-0.0004999999999999978,6.190336232171593,6.191336232171593,0.27950409433773177,-0.11514804260631785,-6.402773866168686e-05,0.01736930048668705,0.008178274490319515,9.804518846869893
3.232,0,4,1,1.181188913326966,1792.0392760130733,-0.5902808267070396,6.221530835160358,160,9,1,0,-11,-1,-0.0595,6.162030835160358,6.28,0.27554221888393376,-0.11510222125389839,-6.401699024725926e-05,-0.021621508553074424,0.007532146296857599,9.83272520752032
3.2640000000000002,0,4,1,1.7714697400340056,1793.8107457531073,0.5902808267070396,6.190836232171593,160,9,1,1,-10,1,0.0045,6.195336232171593,6.186336232171593,0.2715610245275153,-0.11505598066666956,-6.401794620431236e-05,0.018194258419369988,0.001770463354870528,9.78342397971085
3.2960000000000003,0,4,1,1.181188913326966,1794.9919346664342,-0.5902808267070396,6.221530835160358,160,9,1,0,-10,-1,-0.0545,6.167030835160358,6.276030835160358,0.2675990939924377,-0.11501550126795902,-6.40112831522318e-05,-0.0211375182139329,0.007310097046407703,9.815538189793207
3.3280000000000003,0,4,1,1.7714697400340056,1796.7634044064682,0.5902808267070396,6.190836232171593,160,9,1,1,-9,1,0.009500000000000005,6.200336232171593,6.181336232171593,0.26361752039709635,-0.11497410379031765,-6.401507911608928e-05,0.01933767945663603,0.001121155157018764,9.814677264764853
3.36,0,4,1,1.181188913326966,1797.944593319795,-0.5902808267070396,6.221530835160358,160,9,1,0,-9,-1,-0.049499999999999995,6.172030835160358,6.271030835160358,0.25965555142837166,-0.11493799428124969,-6.40099642048031e-05,-0.020730353828661494,0.0067790917139485644,9.787715071862133
3.392,0,4,1,1.181188913326966,1799.125782233122,0.0,6.220940554333652,160,9,1,0,-9,0,-0.045,6.175940554333652,6.2659405543336515,0.255673943897574,-0.1149004951942147,-6.401372066798527e-05,0.020016978784756355,0.0005486564875846528,9.772465652989318
3.424,0,4,1,1.181188913326966,1800.3069711464489,0.0,6.220940554333652,160,9,1,1,-8,1,0.014500000000000002,6.2354405543336515,6.206440554333652,0.25169266916566546,-0.11486761791902612,-6.401539074062101e-05,0.0028893720521892766,0.006208367006725988,9.751249830474412
3.456,0,4,1,1.181188913326966,1801.4881600597757,0.0,6.220940554333652,160,9,1,0,-8,-1,-0.0445,6.176440554333651,6.265440554333652,0.24771137710226687,-0.11483892191678768,-6.400877212344065e-05,0.005321675968961653,0.005708711793394195,9.827939407896912
3.488,0,4,1,1.181188913326966,1802.6693489731026,0.0,6.220940554333652,160,9,1,1,-7,1,0.0195,6.240440554333651,6.201440554333652,0.2437300886347607,-0.11480855325551202,-6.400929472626625e-05,0.0071048091921152405,6.52164811760886e-06,9.834665003015727
3.52,0,4,1,1.181188913326966,1803.8505378864295,0.0,6.220940554333652,160,9,1,0,-7,-1,-0.0395,6.181440554333651,6.260440554333652,0.23974878033434138,-0.11478229458622784,-6.400126196964145e-05,0.008432486825642196,0.005602464313717801,9.795245203114082
3.552,0,4,1,0.5906572146464071,1804.441195101076,-0.5905316986805589,6.25105767096636,160,9,1,0,-7,0,-0.035,6.21605767096636,6.28,0.23576748037485848,-0.11475389244368343,-6.400092236069806e-05,0.009366469896381447,-0.000544921645851386,9.800874800651219
3.584,0,4,1,1.181188913326966,1805.6223840144028,0.5905316986805589,6.220350022634971,160,9,1,1,-6,1,0.024500000000000004,6.244850022634971,6.195850022634971,0.23176881800952945,-0.11472904575322979,-6.399211145679227e-05,0.02992927660204291,0.0050629875338415705,9.803910283134902
3.616,0,4,1,1.181188913326966,1806.8035729277296,0.0,6.220940554333652,160,9,1,0,-6,-1,-0.034499999999999996,6.186440554333651,6.255440554333652,0.22778786062516668,-0.11470723664648767,-6.39873127142275e-05,-0.004821521926710164,0.004285118215679744,9.834544827542663
3.648,0,4,1,0.5906572146464071,1807.394230142376,-0.5905316986805589,6.25105767096636,160,9,1,0,-6,0,-0.03,6.22105767096636,6.28,0.22380653432378525,-0.11468284812332101,-6.399006882580084e-05,0.01163722777948996,-0.0011673335706712342,9.832757279935212
3.68,0,4,1,0.5906572146464071,1807.9848873570224,0.0,6.25046713926768,160,9,1,0,-6,0,-0.03,6.220467139267679,6.28,0.21980625168291812,-0.11466157317778768,-6.398418712204139e-05,0.031596046309948014,0.004405358862160932,9.79173261203444
3.712,0,4,1,1.181188913326966,1809.1660762703493,0.5905316986805589,6.220350022634971,160,9,1,1,-5,1,0.029500000000000002,6.249850022634971,6.190850022634971,0.2158061425636055,-0.1146430674919685,-6.398015846650722e-05,0.0139338124723203,0.003902568665956354,9.816733467703004
3.744,0,4,1,0.5906572146464071,1809.7567334849957,-0.5905316986805589,6.25105767096636,160,9,1,0,-5,-1,-0.029500000000000002,6.2215576709663605,6.28,0.2118251562648294,-0.1146274063008456,-6.398412999703701e-05,-0.008151668717541895,0.0038527819433705306,9.837558040650402
3.7760000000000002,0,4,1,0.5906572146464071,1810.3473906996421,0.0,6.25046713926768,160,9,1,0,-5,0,-0.025,6.225467139267679,6.27546713926768,0.20782470201073766,-0.11460862055730378,-6.398433370013827e-05,0.02922998401846553,-0.0018739174352737158,9.823152273257012
3.8080000000000003,0,4,1,1.181188913326966,1811.528579612969,0.5905316986805589,6.220350022634971,160,9,1,1,-4,1,0.0345,6.2548500226349715,6.185850022634971,0.20382443351539137,-0.1145925740306648,-6.398530788288836e-05,0.008816944984808391,0.003706925402220456,9.793332313006003
3.84,0,4,1,0.5906572146464071,1812.1192368276154,-0.5905316986805589,6.25105767096636,160,9,1,0,-4,-1,-0.0245,6.22655767096636,6.27555767096636,0.19984343773958158,-0.11457892034008339,-6.398828265422388e-05,-0.01500356949077604,0.003262318104338787,9.808772362183195
3.872,0,4,1,0.5906572146464071,1812.7098940422618,0.0,6.25046713926768,160,9,1,0,-4,0,-0.02,6.23046713926768,6.270467139267679,0.1958427981692061,-0.11456166761599934,-6.398871267401622e-05,0.021173237271447775,-0.0025113242168024333,9.815445978334692
3.904,0,4,1,0.5906572146464071,1813.3005512569082,0.0,6.25046713926768,160,9,1,0,-4,0,-0.02,6.23046713926768,6.270467139267679,0.1918425259720358,-0.11454672210065045,-6.398811163071602e-05,-0.0003355504869976729,0.003111843230675338,9.80568799293794
3.936,0,4,1,0.5906572146464071,1813.8912084715546,0.0,6.25046713926768,160,9,1,0,-4,0,-0.02,6.23046713926768,6.270467139267679,0.18784224735729768,-0.11453366794112688,-6.398681448969816e-05,-0.0018980234204678884,0.0026379166224431688,9.79163344737495
3.968,0,4,1,0.5906572146464071,1814.481865686201,0.0,6.25046713926768,160,9,1,0,-4,0,-0.02,6.23046713926768,6.270467139267679,0.18384196302882558,-0.11452251543438789,-6.398494996207559e-05,-0.0037042247578023546,0.0025984761713231364,9.765664109282481
4.0,0,4,1,1.181188913326966,1815.6630545995279,0.5905316986805589,6.220350022634971,160,9,1,1,-3,1,0.0395,6.259850022634971,6.180850022634971,0.1798416738494219,-0.11451326411912209,-6.398278934560166e-05,-0.005302627136602473,0.0025678347596644795,9.77881025987692
4.032,0,4,1,0.5906572146464071,1816.2537118141743,-0.5905316986805589,6.25105767096636,160,9,1,0,-3,-1,-0.0195,6.23155767096636,6.27055767096636,0.1758606639221965,-0.11450596227457834,-6.397118497644336e-05,-0.029162457461332565,0.002546176135312416,9.815624302689566
4.064,0,4,1,0.5906572146464071,1816.8443690288207,0.0,6.25046713926768,160,9,1,0,-3,0,-0.015,6.23546713926768,6.265467139267679,0.1718600024524367,-0.11449458553498894,-6.396943297091659e-05,0.008236744757896786,-0.003257118305079646,9.809949847004285
4.096,0,4,1,0.5906572146464071,1817.435026243467,0.0,6.25046713926768,160,9,1,0,-3,0,-0.015,6.23546713926768,6.265467139267679,0.16785971377610306,-0.11448503882332853,-6.396875322437108e-05,-0.011319073715129586,0.002447372919361457,9.807816484936463
4.128,0,4,1,1.181188913326966,1818.616215156794,0.5905316986805589,6.220350022634971,160,9,1,1,-2,1,0.0445,6.264850022634971,6.175850022634971,0.16385942270520626,-0.11447690031895931,-6.396958707213969e-05,-0.01032491745996735,0.0019777806766297715,9.78762407831043
4.16,0,4,1,0.5906572146464071,1819.2068723714403,-0.5905316986805589,6.25105767096636,160,9,1,0,-2,-1,-0.014499999999999999,6.23655767096636,6.26555767096636,0.1598784082067786,-0.11447024406343768,-6.396063743047825e-05,-0.031832278860652416,0.0019852877484502506,9.824467967968111
4.192,0,4,1,0.5906572146464071,1819.7975295860867,0.0,6.25046713926768,160,9,1,0,-2,0,-0.01,6.24046713926768,6.260467139267679,0.1558777459945132,-0.11445904655373745,-6.39658471178993e-05,0.008454410262710862,-0.0038634273595512117,9.813755534019792
4.224,0,4,1,0.5906572146464071,1820.3881868007331,0.0,6.25046713926768,160,9,1,0,-2,0,-0.01,6.24046713926768,6.260467139267679,0.15187745818987003,-0.11444922918467448,-6.39710497513657e-05,-0.008493559623146867,0.001830331515180721,9.79347678097427
4.256,0,4,1,0.5906572146464071,1820.9788440153795,0.0,6.25046713926768,160,9,1,0,-2,0,-0.01,6.24046713926768,6.260467139267679,0.14787716924661207,-0.1144403770829694,-6.397526726182982e-05,-0.004944314253789947,0.0013384869417982,9.816690585398673
4.288,0,4,1,0.5906572146464071,1821.569501230026,0.0,6.25046713926768,160,9,1,0,-2,0,-0.01,6.24046713926768,6.260467139267679,0.14387687887671405,-0.11443250529140331,-6.397737597727861e-05,-0.0015010249121156626,0.0013036293297781535,9.83926353450004
4.32,0,4,1,0.5906572146464071,1822.1601584446723,0.0,6.25046713926768,160,9,1,0,-2,0,-0.01,6.24046713926768,6.260467139267679,0.1398765869826114,-0.11442561852847336,-6.397678544793964e-05,0.0020334500906862393,0.0012629625122926426,9.856379597850383
4.352,0,4,1,0.5906572146464071,1822.7508156593187,0.0,6.25046713926768,160,9,1,0,-2,0,-0.01,6.24046713926768,6.260467139267679,0.13587629359434109,-0.11441971415226598,-6.397353810694804e-05,0.005464513981941619,0.0012428050618855716,9.79111538394756
4.384,0,4,1,0.5906572146464071,1823.3414728739651,0.0,6.25046713926768,160,9,1,0,-2,0,-0.01,6.24046713926768,6.260467139267679,0.13187599882864356,-0.11441478475893227,-6.39682824234121e-05,0.008498997934862437,0.001226473353670896,9.809000220888189
4.416,0,4,1,0.5906572146464071,1823.9321300886115,0.0,6.25046713926768,160,9,1,0,-2,0,-0.01,6.24046713926768,6.260467139267679,0.12787570285707123,-0.11441082030863049,-6.39621169443369e-05,0.011159943246009966,0.0012247640562836357,9.849805899324029
4.448,0,4,1,0.5906572146464071,1824.522787303258,0.0,6.25046713926768,160,9,1,0,-2,0,-0.01,6.24046713926768,6.260467139267679,0.12387540588288143,-0.11440780976720459,-6.395633550329398e-05,0.013087243400304096,0.0012283074819503753,9.836969633457489
4.48,0,4,1,0.5906572146464071,1825.1134445179043,0.0,6.25046713926768,160,9,1,1,-1,1,0.0495,6.28,6.2009671392676795,0.1198751081255833,-0.11440574229327247,-6.395212943036133e-05,0.014202076485726661,0.0012446924844389728,9.71254719233805
4.5120000000000005,0,4,1,0.5906572146464071,1825.7041017325507,0.0,6.25046713926768,160,9,1,0,-1,-1,-0.0095,6.2409671392676795,6.25996713926768,0.11588120373652681,-0.1144045785986231,-6.39519179280075e-05,0.006949965370003361,0.001241709113678922,9.882056163185133
4.5440000000000005,0,4,1,0.5906572146464071,1826.2947589471971,0.0,6.25046713926768,160,9,1,0,-1,0,-0.005,6.24546713926768,6.2554671392676795,0.1118809061386634,-0.11439945489775477,-6.395281228688786e-05,0.01894185904445032,-0.0034942003213836144,9.81668161507101
4.5760000000000005,0,4,1,0.5906572146464071,1826.8854161618435,0.0,6.25046713926768,160,9,1,0,-1,0,-0.005,6.24546713926768,6.2554671392676795,0.10788060802108734,-0.11439520383738147,-6.395568268819513e-05,0.011444417059105422,0.0012025882847147764,9.798487031650712
4.6080000000000005,0,4,1,0.5906572146464071,1827.47607337649,0.0,6.25046713926768,160,9,1,0,-1,0,-0.005,6.24546713926768,6.2554671392676795,0.10388031031968004,-0.11439141162516928,-6.395981228450413e-05,0.009502472251160887,0.0007673610444062373,9.848682155088746
4.64,0,4,1,0.5906572146464071,1828.0667305911363,0.0,6.25046713926768,160,9,1,0,-1,0,-0.005,6.24546713926768,6.2554671392676795,0.09988001275108033,-0.114388094447396,-6.396406130106981e-05,0.00694481969839271,0.0007447243747862209,9.784240418288299
4.672,0,4,1,0.5906572146464071,1828.6573878057827,0.0,6.25046713926768,160,9,1,0,-1,0,-0.005,6.24546713926768,6.2554671392676795,0.09587971512107257,-0.11438526219264081,-6.396733329856394e-05,0.0040533248424156265,0.0007246295103563699,9.774524693253102
4.704,0,4,1,0.5906572146464071,1829.2480450204291,0.0,6.25046713926768,160,9,1,0,-1,0,-0.005,6.24546713926768,6.2554671392676795,0.09187941731086614,-0.11438291971596883,-6.396879045244067e-05,0.0008876785143279238,0.0006995646609961377,9.857073060729087
4.736,0,4,1,0.5906572146464071,1829.8387022350755,0.0,6.25046713926768,160,9,1,0,-1,0,-0.005,6.24546713926768,6.2554671392676795,0.08787911926241741,-0.11438106811317982,-6.396802641707271e-05,-0.002329139285342387,0.0006823560745465523,9.835868088319186
4.768,0,4,1,0.5906572146464071,1830.429359449722,0.0,6.25046713926768,160,9,1,0,-1,0,-0.005,6.24546713926768,6.2554671392676795,0.08387882096449556,-0.11437970587887751,-6.396515032070643e-05,-0.005438108635978634,0.0006674446946158807,9.846878565892844
4.8,0,4,1,0.5906572146464071,1831.0200166643683,0.0,6.25046713926768,160,9,1,0,-1,0,-0.005,6.24546713926768,6.2554671392676795,0.07987852244036726,-0.11437882989521476,-6.39607574719394e-05,-0.00815049665217021,0.0006612216478541356,9.841923560375744
4.832,0,4,1,1.181188913326966,1832.2012055776952,0.5905316986805589,6.220350022634971,160,9,1,1,0,1,0.0545,6.274850022634971,6.165850022634971,0.07587822373738762,-0.11437843622783908,-6.395579029257539e-05,-0.0104246934060367,0.000666368712419703,9.801710862092124
4.864,0,4,1,0.5906572146464071,1832.7918627923416,-0.5905316986805589,6.25105767096636,160,9,1,0,0,-1,-0.0045,6.24655767096636,6.25555767096636,0.07189720190316952,-0.11437855481682933,-6.393979158147815e-05,-0.03472482262872109,0.0006731939946422537,9.795505125102054
4.896,0,4,1,0.5906572146464071,1833.382520006988,0.0,6.25046713926768,160,9,1,0,0,0,0.0,6.25046713926768,6.25046713926768,0.06789652425487087,-0.11437321761579008,-6.393717443538803e-05,0.0036153328794744704,-0.005129732016004458,9.807631355904169
4.928,0,4,1,0.5906572146464071,1833.9731772216344,0.0,6.25046713926768,160,9,1,0,0,0,0.0,6.25046713926768,6.25046713926768,0.06389622505421515,-0.11436831267521179,-6.3942589524104e-05,-0.014748697909281449,0.0005431551091047276,9.802179867783945
4.96,0,4,1,0.5906572146464071,1834.5638344362808,0.0,6.25046713926768,160,9,1,0,0,0,0.0,6.25046713926768,6.25046713926768,0.05989592770564943,-0.11436341584290756,-6.395005030265626e-05,-0.01225993796286535,6.666286365549686e-05,9.883674910901227
4.992,0,4,1,0.5906572146464071,1835.1544916509272,0.0,6.25046713926768,160,9,1,0,0,0,0.0,6.25046713926768,6.25046713926768,0.05589563160301895,-0.11435854745435649,-6.395791541826887e-05,-0.009504869472862273,2.376954863436478e-05,9.826448534378839
5.024,0,4,1,0.5906572146464071,1835.7451488655736,0.0,6.25046713926768,160,9,1,0,0,0,0.0,6.25046713926768,6.25046713926768,0.05189533626879256,-0.11435371896012823,-6.396454513149692e-05,-0.006128970844512428,-1.955462566550415e-05,9.840181023698443
5.056,0,4,1,0.5906572146464071,1836.33580608022,0.0,6.25046713926768,160,9,1,0,0,0,0.0,6.25046713926768,6.25046713926768,0.04789504133920564,-0.11434893488257923,-6.396859584407479e-05,-0.0023835774792808225,-5.6890800575499013e-05,9.789884166127303
5.088,0,4,1,0.5906572146464071,1836.9264632948664,0.0,6.25046713926768,160,9,1,0,0,0,0.0,6.25046713926768,6.25046713926768,0.043894746552241036,-0.11434419470925011,-6.396928896574249e-05,0.0015000786090306729,-8.614989176160171e-05,9.787237588427947
5.12,0,4,1,0.5906572146464071,1837.5171205095128,0.0,6.25046713926768,160,9,1,0,0,0,0.0,6.25046713926768,6.25046713926768,0.0398944517313361,-0.1143394945715835,-6.396657271360261e-05,0.005274639238441637,-0.00010534006626281769,9.847093971377571
5.152,0,4,1,0.5906572146464071,1838.1077777241592,0.0,6.25046713926768,160,9,1,0,0,0,0.0,6.25046713926768,6.25046713926768,0.035894156767764356,-0.11433482864621108,-6.396113012636408e-05,0.008704072869747276,-0.00011508672919907732,9.805953690404056
5.184,0,4,1,0.5906572146464071,1838.6984349388056,0.0,6.25046713926768,160,9,1,0,0,0,0.0,6.25046713926768,6.25046713926768,0.03189386160384042,-0.1143301902576598,-6.39542246823957e-05,0.011666420618973281,-0.00011666939937554173,9.815210348497557
5.216,0,4,1,0.5906572146464071,1839.289092153452,0.0,6.25046713926768,160,9,1,0,0,0,0.0,6.25046713926768,6.25046713926768,0.027893566218309695,-0.11432557269150619,-6.39474148472572e-05,0.0139252840196891,-0.00011217910919821531,9.841975349388909
5.248,0,4,1,0.5906572146464071,1839.8797493680984,0.0,6.25046713926768,160,9,1,0,0,0,0.0,6.25046713926768,6.25046713926768,0.02389327061452817,-0.11432096974693806,-6.394220120913875e-05,0.015266453463053943,-0.00010156811532768924,9.861808242679817
5.28,0,4,1,0.5906572146464071,1840.4704065827448,0.0,6.25046713926768,160,9,1,0,0,0,0.0,6.25046713926768,6.25046713926768,0.019892974880164553,-0.11431637609766265,-6.39390303821593e-05,0.015161500150472604,-8.837539018620583e-05,9.863860145316822
5.312,0,4,1,0.5906572146464071,1841.0610637973912,0.0,6.25046713926768,160,9,1,0,0,0,0.0,6.25046713926768,6.25046713926768,0.015892678892431816,-0.11431178732459249,-6.394228632897181e-05,0.01403560991017189,-7.360416275092066e-05,9.76207460512815
5.344,0,4,1,0.5906572146464071,1841.6517210120376,0.0,6.25046713926768,160,9,1,0,0,0,0.0,6.25046713926768,6.25046713926768,0.011892382765439184,-0.1143072001367563,-6.394747467404309e-05,0.012063694702728727,-5.970571516107584e-05,9.791098928586482
5.376,0,4,1,0.5906572146464071,1842.242378226684,0.0,6.25046713926768,160,9,1,0,0,0,0.0,6.25046713926768,6.25046713926768,0.007892086531074444,-0.1143026121745947,-6.395337188155881e-05,0.009266873571790842,-4.632161447056319e-05,9.832535303733563
5.408,0,4,1,0.5906572146464071,1842.8330354413304,0.0,6.25046713926768,160,9,1,0,0,0,0.0,6.25046713926768,6.25046713926768,0.0038917902181688072,-0.11429802191910039,-6.395857888214299e-05,0.0060634010518811335,-3.430788003424149e-05,9.811512077229308
5.44,0,4,1,0.5906572146464071,1843.4236926559768,0.0,6.25046713926768,160,9,1,0,0,0,0.0,6.25046713926768,6.25046713926768,-0.0001085061491003896,-0.11429342854171234,-6.396185224467714e-05,0.0024534796385809908,-2.4050501509489717e-05,9.793931797290012
5.472,0,4,1,0.5906572146464071,1844.0143498706232,0.0,6.25046713926768,160,9,1,0,0,0,0.0,6.25046713926768,6.25046713926768,-0.004108802551647376,-0.11428883174722332,-6.396240200126115e-05,-0.001291122865533797,-1.553325434031864e-05,9.805648897003323
5.5040000000000004,0,4,1,0.5906572146464071,1844.6050070852696,0.0,6.25046713926768,160,9,1,0,0,0,0.0,6.25046713926768,6.25046713926768,-0.008109098974981051,-0.1142842316244871,-6.396008073434982e-05,-0.0049831886045808155,-9.062822082501372e-06,9.8552943473167
5.5360000000000005,0,4,1,0.5906572146464071,1845.195664299916,0.0,6.25046713926768,160,9,1,0,0,0,0.0,6.25046713926768,6.25046713926768,-0.012109395408173584,-0.1142796285143727,-6.395541997485099e-05,-0.00836680505159166,-4.1582773511720825e-06,9.829473528796399
5.5680000000000005,0,4,1,0.5906572146464071,1845.7863215145624,0.0,6.25046713926768,160,9,1,0,0,0,0.0,6.25046713926768,6.25046713926768,-0.0161096918427643,-0.11427502290000172,-6.394950579571672e-05,-0.011262389667702504,-7.527673986103462e-07,9.850974360133787
5.6000000000000005,0,4,1,0.5906572146464071,1846.3769787292088,0.0,6.25046713926768,160,9,1,0,0,0,0.0,6.25046713926768,6.25046713926768,-0.020109988271983664,-0.1142704153209059,-6.394372323755351e-05,-0.013429663372930159,1.4148829581056354e-06,9.833439193246928
5.632,0,4,1,0.5906572146464071,1846.9676359438552,0.0,6.25046713926768,160,9,1,0,0,0,0.0,6.25046713926768,6.25046713926768,-0.02411028469045833,-0.11426580631031112,-6.393942997990655e-05,-0.014877032059687344,2.6382888676999115e-06,9.818845982616724
5.664,0,4,1,0.5906572146464071,1847.5582931585016,0.0,6.25046713926768,160,9,1,0,0,0,0.0,6.25046713926768,6.25046713926768,-0.02811058110503989,-0.11426119637707442,-6.39369915617985e-05,-0.01475743507940239,2.954953208305482e-06,9.849798712295478
5.696,0,4,1,0.5906572146464071,1848.148950373148,0.0,6.25046713926768,160,9,1,0,0,0,0.0,6.25046713926768,6.25046713926768,-0.03211087748715235,-0.11425658588441859,-6.394042319525159e-05,-0.013691359908720176,2.922448829863979e-06,9.777891057948603
5.728,0,4,1,0.5906572146464071,1848.7396075877944,0.0,6.25046713926768,160,9,1,0,0,0,0.0,6.25046713926768,6.25046713926768,-0.0361111738512446,-0.1142519751877193,-6.394571070661784e-05,-0.011857030502656327,2.6594156180248287e-06,9.800116672418314
5.76,0,4,1,0.5906572146464071,1849.3302648024408,0.0,6.25046713926768,160,9,1,0,0,0,0.0,6.25046713926768,6.25046713926768,-0.04011147019863002,-0.11424736453089039,-6.395172577858439e-05,-0.009312012439168732,2.158518805735352e-06,9.83014642376477
5.792,0,4,1,1.181188913326966,1850.5114537157676,0.5905316986805589,6.220350022634971,160,9,1,0,0,0,0.0,6.220350022634971,6.220350022634971,-0.04411176653092575,-0.1142427540805116,-6.395715127460559e-05,-0.006210644278771142,1.5943757159277938e-06,9.8179051046705
5.824,0,4,1,1.181188913326966,1851.6926426290945,0.0,6.220940554333652,160,9,1,0,0,0,0.0,6.220940554333652,6.220940554333652,-0.0480927883905555,-0.1142381661448371,-6.395677800236782e-05,-0.025388773985431424,1.0536754952318176e-06,9.839057958189903
5.856,0,4,1,1.181188913326966,1852.8738315424214,0.0,6.220940554333652,160,9,1,0,0,0,0.0,6.220940554333652,6.220940554333652,-0.052074187635103145,-0.11423357812706958,-6.395700632042499e-05,-0.00611661683750568,5.68536583828113e-07,9.791614221095166
5.888,0,4,1,1.181188913326966,1854.0550204557483,0.0,6.220940554333652,160,9,1,0,0,0,0.0,6.220940554333652,6.220940554333652,-0.056055586901038325,-0.1142289904666848,-6.39577169457891e-05,-0.005960737771068203,1.6664619721461639e-07,9.835372726317328
5.92,0,4,1,1.181188913326966,1855.2362093690751,0.0,6.220940554333652,160,9,1,0,0,0,0.0,6.220940554333652,6.220940554333652,-0.06003698617454628,-0.11422440314036873,-6.395876500287292e-05,-0.005080942984826886,-1.399962741461383e-07,9.767368346744071
5.952,0,4,1,1.181188913326966,1856.417398282402,0.0,6.220940554333652,160,9,1,0,0,0,0.0,6.220940554333652,6.220940554333652,-0.0640183854533482,-0.11421981610729494,-6.395992188440447e-05,-0.003945210720413323,-3.5035964109100066e-07,9.797466258038178
5.984,0,4,1,1.181188913326966,1857.598587195729,0.0,6.220940554333652,160,9,1,0,0,0,0.0,6.220940554333652,6.220940554333652,-0.067999784735634,-0.1142152293177222,-6.396092978031877e-05,-0.0025308608887141533,-4.840099733771048e-07,9.748935075798691
6.016,0,4,1,1.181188913326966,1858.7797761090558,0.0,6.220940554333652,160,9,1,0,0,0,0.0,6.220940554333652,6.220940554333652,-0.0719811840199942,-0.1142106427195841,-6.396156298795266e-05,-0.0009911906467093405,-5.384151645439289e-07,9.800155607221644
6.048,0,4,1,1.181188913326966,1859.9609650223827,0.0,6.220940554333652,160,9,1,0,0,0,0.0,6.220940554333652,6.220940554333652,-0.07596258330538955,-0.11420605626318532,-6.396168156344063e-05,0.0006188319834441812,-5.453240405301335e-07,9.803551421559009
6.08,0,4,1,1.181188913326966,1861.1421539357095,0.0,6.220940554333652,160,9,1,0,0,0,0.0,6.220940554333652,6.220940554333652,-0.0799439825911514,-0.1142014699042338,-6.39612647115699e-05,0.002193103808628255,-5.09583864603954e-07,9.802108336450882
6.112,0,4,1,1.181188913326966,1862.3233428490364,0.0,6.220940554333652,160,9,1,0,0,0,0.0,6.220940554333652,6.220940554333652,-0.08392538187699167,-0.11419688360549622,-6.396041606056106e-05,0.003647908627791977,-4.496168831650175e-07,9.796600779091275
6.144,0,4,1,1.181188913326966,1863.5045317623633,0.0,6.220940554333652,160,9,1,0,0,0,0.0,6.220940554333652,6.220940554333652,-0.0879067811629957,-0.11419229733738097,-6.395933960397053e-05,0.004869236259311926,-3.735463398889707e-07,9.848818145997148
6.176,0,4,1,1.181188913326966,1864.6857206756902,0.0,6.220940554333652,160,9,1,0,0,0,0.0,6.220940554333652,6.220940554333652,-0.09188818044957629,-0.11418771107774481,-6.395829196430974e-05,0.0057962018036281674,-3.0146053294965477e-07,9.848523048959088
6.208,0,4,1,1.181188913326966,1865.866909589017,0.0,6.220940554333652,160,9,1,0,0,0,0.0,6.220940554333652,6.220940554333652,-0.09586957973738522,-0.11418312481118358,-6.395752223306225e-05,0.006376258709297443,-2.246928218828272e-07,9.821484835383067
6.24,0,4,1,1.181188913326966,1867.048098502344,0.0,6.220940554333652,160,9,1,0,0,0,0.0,6.220940554333652,6.220940554333652,-0.09985097902719553,-0.11417853852802748,-6.395721353642282e-05,0.006552564267517278,-1.5795433674650344e-07,9.822263127388604
6.272,0,4,1,1.181188913326966,1868.2292874156708,0.0,6.220940554333652,160,9,1,0,0,0,0.0,6.220940554333652,6.220940554333652,-0.10383237831978231,-0.11417395222321426,-6.395744008667534e-05,0.006349201182732624,-1.0137070652982585e-07,9.786303517427179
6.304,0,4,1,1.181188913326966,1869.4104763289977,0.0,6.220940554333652,160,9,1,0,0,0,0.0,6.220940554333652,6.220940554333652,-0.10781377761582914,-0.114169365895167,-6.395814982864019e-05,0.005863860852672087,-5.5288101327803935e-08,9.78678565422132
6.336,0,4,1,1.181188913326966,1870.5916652423246,0.0,6.220940554333652,160,9,1,0,0,0,0.0,6.220940554333652,6.220940554333652,-0.1117951769158745,-0.11416477954476535,-6.395917676709113e-05,0.004935445344927385,-1.9913797147407304e-08,9.798551932599736
6.368,0,4,1,1.181188913326966,1871.7728541556514,0.0,6.220940554333652,160,9,1,0,0,0,0.0,6.220940554333652,6.220940554333652,-0.11577657622029558,-0.1141601931744555,-6.396028008300719e-05,0.003694646597908114,5.3714522190742365e-09,9.846284133601321
6.4,0,4,1,1.181188913326966,1872.9540430689783,0.0,6.220940554333652,160,9,1,0,0,0,0.0,6.220940554333652,6.220940554333652,-0.11975797552931051,-0.11415560678753216,-6.396120083695944e-05,0.0022797451312986574,2.2103406436807175e-08,9.821169450988096
6.432,0,4,1,1.181188913326966,1874.1352319823052,0.0,6.220940554333652,160,9,1,0,0,0,0.0,6.220940554333652,6.220940554333652,-0.12373937484297683,-0.11415102038758727,-6.396172292314622e-05,0.000710008868179073,3.158119168543675e-08,9.785879259664448
6.464,0,4,1,1.181188913326966,1875.316420895632,0.0,6.220940554333652,160,9,1,0,0,0,0.0,6.220940554333652,6.220940554333652,-0.12772077416117256,-0.1141464339781184,-6.396172393828732e-05,-0.000897933096176283,3.5426864220059914e-08,9.834291242140916
6.496,0,4,1,1.181188913326966,1876.497609808959,0.0,6.220940554333652,160,9,1,0,0,0,0.0,6.220940554333652,6.220940554333652,-0.1317021734835622,-0.11414184756227423,-6.396120399668193e-05,-0.002438799230038246,3.518718413352514e-08,9.826539916376532
6.5280000000000005,0,4,1,1.181188913326966,1877.6787987222858,0.0,6.220940554333652,160,9,1,0,0,0,0.0,6.220940554333652,6.220940554333652,-0.1356835728095662,-0.11413726114271389,-6.396028571779497e-05,-0.0038510584013724983,3.227747859925132e-08,9.80556184749809
6.5600000000000005,0,4,1,0.5906572146464071,1878.2694559369322,-0.5905316986805589,6.25105767096636,160,9,1,-1,-1,-1,-0.0595,6.19155767096636,6.28,-0.13966497213835635,-0.11413267472155382,-6.395918538653657e-05,-0.005043995161140724,2.7902495683242676e-08,9.806333620823299
6.5920000000000005,0,4,1,1.181188913326966,1879.450644850259,0.5905316986805589,6.220350022634971,160,9,1,0,-1,1,-0.0005000000000000004,6.219850022634971,6.220850022634971,-0.1436558676685996,-0.11412806789610613,-6.396011488187837e-05,0.005231366522041807,-1.8218866338632283e-05,9.783179606115754
6.6240000000000006,0,4,1,1.181188913326966,1880.631833763586,0.0,6.220940554333652,160,9,1,0,-1,0,-0.005,6.215940554333652,6.2259405543336515,-0.1476368956136088,-0.11412783959863776,-6.396013617446066e-05,-0.014407794145411625,0.0042941967732599735,9.79722202249681
6.656000000000001,0,4,1,1.181188913326966,1881.8130226769129,0.0,6.220940554333652,160,9,1,0,-1,0,-0.005,6.215940554333652,6.2259405543336515,-0.15161830028069614,-0.11412765647611361,-6.396088891365108e-05,-0.004717152193909293,0.00011083649741996734,9.800813654331455
6.688,0,4,1,0.5906572146464071,1882.4036798915592,-0.5905316986805589,6.25105767096636,160,9,1,0,-1,0,-0.005,6.24605767096636,6.25605767096636,-0.15559970359530773,-0.11412794188985607,-6.396204048274116e-05,-0.005141905774209672,0.0005809747700030664,9.78526476297629
6.72,0,4,1,0.5906572146464071,1882.9943371062056,0.0,6.25046713926768,160,9,1,0,-1,0,-0.005,6.24546713926768,6.2554671392676795,-0.1596003801872123,-0.11412868198308601,-6.396617152501331e-05,0.017710469662210862,0.0006202038847394444,9.84337340060326
6.752,0,4,1,0.5906572146464071,1883.584994320852,0.0,6.25046713926768,160,9,1,0,-1,0,-0.005,6.24546713926768,6.2554671392676795,-0.1636006787910454,-0.11412986690900359,-6.396650098192125e-05,0.002622923914758803,0.0006702755535482141,9.840492347899437
6.784,0,4,1,0.5906572146464071,1884.1756515354984,0.0,6.25046713926768,160,9,1,0,-1,0,-0.005,6.24546713926768,6.2554671392676795,-0.167600976817796,-0.11413149101069457,-6.396323888145997e-05,0.006907424329342698,0.0007060645176670598,9.827527976071067
6.816,0,4,1,0.5968094512291737,1884.7724609867275,0.006152236582766646,6.250153375201959,160,9,1,0,-1,0,-0.005,6.2451533752019595,6.255153375201959,-0.17160127444172116,-0.11413355242603322,-6.395731506487166e-05,0.01035295697732325,0.0007414451948219909,9.76832404131441
6.848,0,4,1,0.0,1884.7724609867275,-0.5968094512291737,6.28059680945123,160,9,1,0,-1,0,-0.005,6.27559680945123,6.28,-0.17560137096227074,-0.11413605188537752,-6.395034212328121e-05,0.01295492430448973,0.0007603458377196916,9.754132373368222
6.88,0,4,1,0.0,1884.7724609867275,0.0,6.28,160,9,1,0,-1,0,-0.005,6.275,6.28,-0.17961915932698594,-0.11413900290967413,-6.393221615442514e-05,0.03599500970681021,0.0007751349037590707,9.781578822200188
6.912,0,4,1,0.5906572146464071,1885.363118201374,0.5906572146464071,6.2498764820530335,160,9,1,0,-1,0,-0.005,6.244876482053034,6.254876482053033,-0.18363675629941792,-0.1141421225235476,-6.39131268166445e-05,0.0175324106948235,0.0005134666228584106,9.845120261529674
6.944,0,4,1,1.181188913326966,1886.5443071147008,0.5905316986805589,6.220350022634971,160,9,1,0,-1,0,-0.005,6.215350022634971,6.225350022634971,-0.1876366759787105,-0.11414543239366497,-6.3934621632988e-05,-0.004939034479697092,0.0005460302169228772,9.823123952477907
6.976,0,4,1,2.361374658175717,1888.9056817728765,1.1801857448487512,6.1607510813463655,160,9,1,0,-1,0,-0.005,6.155751081346366,6.165751081346365,-0.19161769849410867,-0.11414917774786701,-6.395492298128663e-05,-0.01611231474208403,0.0007801801121433245,9.81055322225896
7.008,0,4,1,3.5395591685500816,1892.4452409414266,1.1781845103743644,6.101843857062121,160,9,1,0,-1,0,-0.005,6.0968438570621215,6.106843857062121,-0.19556057803950616,-0.11415333912030298,-6.394055764147484e-05,-0.05254721825915238,0.0007742516950211625,9.797327809804317
7.04,0,4,1,5.300926516525713,1897.7461674579524,1.7613673479756318,6.013192306825739,160,9,1,0,-1,0,-0.005,6.008192306825739,6.018192306825739,-0.19946575616975315,-0.11415791131149759,-6.38407046612971e-05,-0.05206572916697652,0.0007502847516073046,9.803846762292054
7.072,0,4,1,7.6333305872312645,1905.3794980451837,2.332404070705551,5.896001066567731,160,9,1,0,-1,0,-0.005,5.891001066567731,5.901001066567731,-0.20331419857662394,-0.11416286945346227,-6.381800555779749e-05,-0.07057118369012644,0.0007296941118833447,9.823177396636213
7.104,0,4,1,5.826342029555814,1911.2058400747396,-1.8069885576754503,5.990489887079884,160,9,1,7,6,7,0.4115,6.28,5.578989887079884,-0.2070876387669982,-0.11416817520568871,-6.378535870574416e-05,-0.0885701556903475,0.0007044202084045874,9.815578949666206
7.136,0,4,1,11.650299437537637,1922.8561395122772,5.823957407981823,5.691661070715137,160,9,1,-1,5,-8,-0.061,5.630661070715137,5.752661070715137,-0.21088249738518752,-0.11417416722613506,-6.382311894991e-05,0.01115607260011067,0.001044239595520885,9.761630781956368
7.168,0,4,1,13.897176315015338,1936.7533158272925,2.2468768774777015,5.582894307371755,160,9,1,-1,4,0,-0.030000000000000002,5.552894307371755,5.612894307371755,-0.21452523865015816,-0.11414799731173522,-6.378857714483752e-05,-0.18366275954915967,-0.031998484123155084,9.837388819769115
7.2,0,4,1,17.185706144224778,1953.9390219715171,3.2885298292094394,5.417426162959552,160,9,1,-1,3,0,-0.035,5.382426162959552,5.4524261629595525,-0.21809835272381675,-0.11412779344439732,-6.371425928654133e-05,-0.09828673309150124,0.005422554276520612,9.780270156933003
7.232,0,4,1,18.25756307538975,1972.1965850469069,1.071856931164973,5.366049989299348,160,9,1,3,6,4,0.198,5.564049989299348,5.168049989299347,-0.2215655178783315,-0.11411097904405494,-6.374895479644739e-05,-0.12952695092268016,0.0025490376229786327,9.810310836832352
7.264,0,4,1,20.361603275386152,1992.558188322293,2.104040199996401,5.259815796030696,160,9,1,3,9,0,0.195,5.454815796030696,5.064815796030696,-0.22499981290350127,-0.11409787346864177,-6.38720480519283e-05,-0.05617072122676171,0.002756504611621232,9.771244886717463
