Time,SetPointAngle,SensorAngleRow,SensorAngleWidth,Angle,IntegralAngle,DeltaAngle,BaseSpeed,SetPointError,SensorErrorRow,SensorErrorWidth,Error,IntegralError,DeltaError,DeltaSpeed,LeftSpeed,RightSpeed,X,Y,Z,Roll,Pitch,Yaw
0.032,0,4,1,0.5729386976839008,0.5729386976839008,0.5729386976839008,6.250780126418121,160,9,1,0,0,0,0.0,6.250780126418121,6.250780126418121,-0.5615000000000011,0.12999999999999848,-6.397122042420787e-05,-4.3620539166896293e-07,1.0325584285277141e-07,9.779364542073948
0.064,0,4,1,0.5729386976839008,1.1458773953678016,0.0,6.251353065115805,160,9,1,0,0,0,0.0,6.251353065115805,6.251353065115805,-0.5614999959242595,0.12600157878654153,-1.5032419213660206e-05,4.6943589011908635,9.021515168282287e-08,9.554592433803402
0.096,0,4,1,0.5729386976839008,1.7188160930517025,0.0,6.251353065115805,160,9,1,0,0,0,0.0,6.251353065115805,6.251353065115805,-0.5614999933724524,0.12199909069627271,-6.068509646619223e-05,0.3964229122396419,-2.3587025221973604e-06,9.679106133990985
0.128,0,4,1,0.5729386976839008,2.2917547907356033,0.0,6.251353065115805,160,9,1,0,0,0,0.0,6.251353065115805,6.251353065115805,-0.5614999888274883,0.11799791364557673,-7.884821697366068e-05,-0.027246253582430546,1.2680421696206962e-06,9.865954288469318
0.16,0,4,1,0.5729386976839008,2.864693488419504,0.0,6.251353065115805,160,9,1,0,0,0,0.0,6.251353065115805,6.251353065115805,-0.5614999860589146,0.11399721057369464,-7.106540470723337e-05,0.1811730250746257,-2.3464085270540253e-06,9.848324943975282
0.192,0,4,1,0.5729386976839008,3.4376321861034045,0.0,6.251353065115805,160,9,1,0,0,0,0.0,6.251353065115805,6.251353065115805,-0.5614999833847529,0.10999645458306317,-7.074237046115865e-05,0.0804983955091545,-8.324935900807699e-07,9.794576360820194
0.224,0,4,1,0.5729386976839008,4.010570883787305,0.0,6.251353065115805,160,9,1,0,0,0,0.0,6.251353065115805,6.251353065115805,-0.561499978589824,0.10599565295868486,-7.014789177464328e-05,-0.025080262657613882,1.471939890213962e-06,9.816794647929417
0.256,0,4,1,0.5729386976839008,4.583509581471206,0.0,6.251353065115805,160,9,1,0,0,0,0.0,6.251353065115805,6.251353065115805,-0.5614999757008767,0.10199484524825865,-6.847206916706615e-05,-0.02356946709041665,-2.320584592291093e-06,9.791016681969216
0.28800000000000003,0,4,1,0.5729386976839008,5.156448279155106,0.0,6.251353065115805,160,9,1,0,0,0,0.0,6.251353065115805,6.251353065115805,-0.5614999711849447,0.09799402298751864,-6.75720273487293e-05,-0.020306586299063303,1.2186045417533216e-06,9.789380796759591
0.32,0,4,1,0.5729386976839008,5.729386976839007,0.0,6.251353065115805,160,9,1,0,0,0,0.0,6.251353065115805,6.251353065115805,-0.561499966764898,0.09399319199642624,-6.685802075990024e-05,-0.016059476996902064,-3.914459570226271e-07,9.775788661662956
0.352,0,4,1,0.5729386976839008,6.3023256745229075,0.0,6.251353065115805,160,9,1,0,0,0,0.0,6.251353065115805,6.251353065115805,-0.5614999624196391,0.08999235402016356,-6.628871809764673e-05,-0.010767369483708272,-3.168282543230359e-07,9.859675414508013
0.384,0,4,1,0.5729386976839008,6.875264372206808,0.0,6.251353065115805,160,9,1,0,0,0,0.0,6.251353065115805,6.251353065115805,-0.56149995813223,0.0859915104568114,-6.583130338794554e-05,-0.004824415624675249,-2.5449107042313776e-07,9.803544946540184
0.41600000000000004,0,4,1,0.5729386976839008,7.448203069890709,0.0,6.251353065115805,160,9,1,0,0,0,0.0,6.251353065115805,6.251353065115805,-0.5614999538891605,0.08199066242774797,-6.545999783031872e-05,0.0014126421403552556,-2.0695406786927184e-07,9.878231381858383
0.448,0,4,1,0.5729386976839008,8.02114176757461,0.0,6.251353065115805,160,9,1,0,0,0,0.0,6.251353065115805,6.251353065115805,-0.5614999496797174,0.07798981083201534,-6.515544982145516e-05,0.00754536131307758,-1.6958198473578574e-07,9.752579816184165
0.48,0,4,1,0.5729386976839008,8.59408046525851,0.0,6.251353065115805,160,9,1,0,0,0,0.0,6.251353065115805,6.251353065115805,-0.5614999454954813,0.07398895638836174,-6.490394925001176e-05,0.013139399829326508,-1.3956664436043883e-07,9.7357458933072
0.512,0,4,1,0.5729386976839008,9.167019162942411,0.0,6.251353065115805,160,9,1,0,0,0,0.0,6.251353065115805,6.251353065115805,-0.5614999413299209,0.06998809966861172,-6.469638249273144e-05,0.01819826089612556,-1.1536158407514496e-07,9.744616732810345
0.544,0,4,1,0.5729386976839008,9.739957860626312,0.0,6.251353065115805,160,9,1,0,0,0,0.0,6.251353065115805,6.251353065115805,-0.5614999375300416,0.06598724171486843,-6.452651806527349e-05,0.017380167817926652,-4.328685054039381e-07,9.852023515672961
0.5760000000000001,0,4,1,0.5729386976839008,10.312896558310213,0.0,6.251353065115805,160,9,1,0,0,0,0.0,6.251353065115805,6.251353065115805,-0.5614999332855912,0.06198638159129576,-6.441349888288046e-05,0.015546880142656119,3.708160346704109e-07,9.813970244805322
0.608,0,4,1,0.5729386976839008,10.885835255994113,0.0,6.251353065115805,160,9,1,0,0,0,0.0,6.251353065115805,6.251353065115805,-0.5614999290652517,0.05798552029579061,-6.432635256062649e-05,0.0128217936617021,-7.374032959464954e-08,9.845495182982095
0.64,0,4,1,0.5729386976839008,11.458773953678014,0.0,6.251353065115805,160,9,1,0,0,0,0.0,6.251353065115805,6.251353065115805,-0.5614999248643023,0.05398465806117978,-6.425835799609911e-05,0.00930238531346015,-5.8939942818622885e-08,9.802249168595798
0.672,0,4,1,0.5729386976839008,12.031712651361914,0.0,6.251353065115805,160,9,1,0,0,0,0.0,6.251353065115805,6.251353065115805,-0.5614999206791498,0.04998379507352069,-6.420376453452128e-05,0.0052303232222340465,-4.5230881181362415e-08,9.789062557102307
0.704,0,4,1,0.5729386976839008,12.604651349045815,0.0,6.251353065115805,160,9,1,0,0,0,0.0,6.251353065115805,6.251353065115805,-0.5614999165071378,0.04598293148099431,-6.415801950394873e-05,0.0008622833722444098,-3.4163534005266604e-08,9.82678145778942
0.736,0,4,1,0.5729386976839008,13.177590046729716,0.0,6.251353065115805,160,9,1,0,0,0,0.0,6.251353065115805,6.251353065115805,-0.5614999123463649,0.041982067401611915,-6.411796883892297e-05,-0.0035538680104113722,-2.375608633868507e-08,9.793391368295637
0.768,0,4,1,0.5729386976839008,13.750528744413616,0.0,6.251353065115805,160,9,1,0,0,0,0.0,6.251353065115805,6.251353065115805,-0.5614999081955218,0.03798120292998725,-6.408190285629549e-05,-0.007772269625481621,-1.4552747050545664e-08,9.824287980125854
0.8,0,4,1,0.5729386976839008,14.323467442097517,0.0,6.251353065115805,160,9,1,0,0,0,0.0,6.251353065115805,6.251353065115805,-0.5614999040537519,0.03398033814302797,-6.404940150406269e-05,-0.011501471322312157,-6.351123141733136e-09,9.871977774454217
0.8320000000000001,0,4,1,0.5729386976839008,14.896406139781417,0.0,6.251353065115805,160,9,1,0,0,0,0.0,6.251353065115805,6.251353065115805,-0.5614998999205255,0.029979473104265596,-6.402098763598311e-05,-0.0146223483464729,7.077696130812177e-10,9.842115519767626
0.864,0,4,1,0.5729386976839008,15.469344837465318,0.0,6.251353065115805,160,9,1,0,0,0,0.0,6.251353065115805,6.251353065115805,-0.5614998959571403,0.025978607908396446,-6.399561577216661e-05,-0.014537834949079884,-1.4857026936323696e-07,9.818105951555914
0.896,0,4,1,0.5729386976839008,16.04228353514922,0.0,6.251353065115805,160,9,1,0,0,0,0.0,6.251353065115805,6.251353065115805,-0.5614998918442405,0.021977742523943328,-6.398719969961768e-05,-0.013604967349617877,1.6759617806219072e-07,9.798224080269348
0.928,0,4,1,0.5729386976839008,16.615222232833123,0.0,6.251353065115805,160,9,1,0,0,0,0.0,6.251353065115805,6.251353065115805,-0.5614998877401743,0.017976877025329945,-6.398296604867917e-05,-0.011886819848329974,1.5785173763956228e-08,9.803385015849244
0.96,0,4,1,0.5729386976839008,17.188160930517025,0.0,6.251353065115805,160,9,1,0,0,0,0.0,6.251353065115805,6.251353065115805,-0.5614998836443811,0.013976011437419182,-6.398136678018897e-05,-0.009349401381962316,1.8539863186365693e-08,9.804803057179798
0.992,0,4,1,0.5729386976839008,17.761099628200927,0.0,6.251353065115805,160,9,1,0,0,0,0.0,6.251353065115805,6.251353065115805,-0.5614998795563522,0.009975145779893594,-6.398075772200834e-05,-0.006292347043943592,2.0090037223185775e-08,9.814869773602567
1.024,0,4,1,0.5729386976839008,18.33403832588483,0.0,6.251353065115805,160,9,1,0,0,0,0.0,6.251353065115805,6.251353065115805,-0.5614998754755621,0.005974280068604623,-6.397966594335128e-05,-0.002930417297552435,2.0699427223857215e-08,9.86603045030845
1.056,0,4,1,0.5729386976839008,18.906977023568732,0.0,6.251353065115805,160,9,1,0,0,0,0.0,6.251353065115805,6.251353065115805,-0.561499871401413,0.00197341431643082,-6.397705539699233e-05,0.0006447527505966881,2.0312756840759682e-08,9.765209830602496
1.088,0,4,1,0.5729386976839008,19.479915721252635,0.0,6.251353065115805,160,9,1,0,0,0,0.0,6.251353065115805,6.251353065115805,-0.5614998673332017,-0.0020274514663671164,-6.397250598277719e-05,0.004160800579459361,1.895872110955244e-08,9.856226633443397
1.12,0,4,1,0.5729386976839008,20.052854418936537,0.0,6.251353065115805,160,9,1,0,0,0,0.0,6.251353065115805,6.251353065115805,-0.5614998632701032,-0.0060283172721212796,-6.396626064321918e-05,0.007473178589204976,1.6782397475087167e-08,9.833423546768968
1.1520000000000001,0,4,1,0.5729386976839008,20.62579311662044,0.0,6.251353065115805,160,9,1,0,0,0,0.0,6.251353065115805,6.251353065115805,-0.5614998592111715,-0.010029183095771754,-6.395912681666192e-05,0.010293397838668129,1.3813648552595458e-08,9.846191491727799
1.184,0,4,1,0.5729386976839008,21.19873181430434,0.0,6.251353065115805,160,9,1,0,0,0,0.0,6.251353065115805,6.251353065115805,-0.5614998551553542,-0.014030048934654926,-6.395225337150513e-05,0.012517845185311249,1.0299460664737242e-08,9.841687481776214
1.216,0,4,1,0.5729386976839008,21.771670511988244,0.0,6.251353065115805,160,9,1,0,0,0,0.0,6.251353065115805,6.251353065115805,-0.5614998511015168,-0.018030914787945218,-6.394683383248445e-05,0.014049142370488873,6.214416665558888e-09,9.814308353818856
1.248,0,4,1,0.5729386976839008,22.344609209672146,0.0,6.251353065115805,160,9,1,0,0,0,0.0,6.251353065115805,6.251353065115805,-0.5614998470484771,-0.022031780655837614,-6.394380440480352e-05,0.014685183847156964,1.827046049103493e-09,9.80208939519153
1.28,0,4,1,0.5729386976839008,22.91754790735605,0.0,6.251353065115805,160,9,1,0,0,0,0.0,6.251353065115805,6.251353065115805,-0.5614998429950445,-0.02603264653871316,-6.394360677339402e-05,0.014437149144541413,-2.6997589066981453e-09,9.793632597598302
1.312,0,4,1,0.5729386976839008,23.49048660503995,0.0,6.251353065115805,160,9,1,0,0,0,0.0,6.251353065115805,6.251353065115805,-0.5614998389400606,-0.030033512436559547,-6.394607063447098e-05,0.013386497733255174,-7.219688705294885e-09,9.809402722566919
1.344,0,4,1,0.5729386976839008,24.063425302723854,0.0,6.251353065115805,160,9,1,0,0,0,0.0,6.251353065115805,6.251353065115805,-0.5614998348824445,-0.03403437834880567,-6.395044291833754e-05,0.011393264541477507,-1.1402193299633478e-08,9.770080110330115
1.3760000000000001,0,4,1,0.5729386976839008,24.636364000407756,0.0,6.251353065115805,160,9,1,0,0,0,0.0,6.251353065115805,6.251353065115805,-0.5614998308212309,-0.038035244274536736,-6.39555562837648e-05,0.008865978352593597,-1.5257197056472155e-08,9.75650512034151
1.408,0,4,1,0.5729386976839008,25.20930269809166,0.0,6.251353065115805,160,9,1,0,0,0,0.0,6.251353065115805,6.251353065115805,-0.5614998267556081,-0.04203611021287934,-6.396009681045728e-05,0.005753787713860478,-1.8643442351344137e-08,9.811661628157896
1.44,0,4,1,0.5729386976839008,25.78224139577556,0.0,6.251353065115805,160,9,1,0,0,0,0.0,6.251353065115805,6.251353065115805,-0.5614998226849496,-0.04603697616328019,-6.396290756304109e-05,0.002310134623158008,-2.1252435741467228e-08,9.842628569856688
1.472,0,4,1,0.5729386976839008,26.355180093459463,0.0,6.251353065115805,160,9,1,0,0,0,0.0,6.251353065115805,6.251353065115805,-0.5614998186088376,-0.050037842125477884,-6.39632563334356e-05,-0.0012723450902655746,-2.287200034305554e-08,9.808562550780488
1.504,0,4,1,0.5729386976839008,26.928118791143365,0.0,6.251353065115805,160,9,1,0,0,0,0.0,6.251353065115805,6.251353065115805,-0.5614998145270799,-0.054038708099147854,-6.396100434624685e-05,-0.004766990250919346,-2.3765126718457805e-08,9.810210509002268
1.536,0,4,1,0.5729386976839008,27.501057488827268,0.0,6.251353065115805,160,9,1,0,0,0,0.0,6.251353065115805,6.251353065115805,-0.5614998104397165,-0.05803957408339129,-6.395663606089882e-05,-0.008019764203681654,-2.382295117672588e-08,9.808353615321078
1.568,0,4,1,0.5729386976839008,28.07399618651117,0.0,6.251353065115805,160,9,1,0,0,0,0.0,6.251353065115805,6.251353065115805,-0.5614998063470175,-0.0620404400763371,-6.395114291530418e-05,-0.010754514393594412,-2.2849976952065438e-08,9.81666323424154
1.6,0,4,1,0.5729386976839008,28.646934884195073,0.0,6.251353065115805,160,9,1,0,0,0,0.0,6.251353065115805,6.251353065115805,-0.5614998022494713,-0.06604130607508737,-6.394578825271759e-05,-0.012873547645740295,-2.079115672848156e-08,9.799616155155698
1.6320000000000001,0,4,1,0.5729386976839008,29.219873581878975,0.0,6.251353065115805,160,9,1,0,0,0,0.0,6.251353065115805,6.251353065115805,-0.5614997981477644,-0.07004217207607305,-6.394180864032276e-05,-0.014175130442948974,-1.8158823071295753e-08,9.778550704579157
1.6640000000000001,0,4,1,0.5729386976839008,29.792812279562877,0.0,6.251353065115805,160,9,1,0,0,0,0.0,6.251353065115805,6.251353065115805,-0.5614997940544274,-0.07404303809031222,-6.393957219394571e-05,-0.014176609763179799,-2.5809526122028426e-08,9.828362867795445
1.696,0,4,1,0.5729386976839008,30.36575097724678,0.0,6.251353065115805,160,9,1,0,0,0,0.0,6.251353065115805,6.251353065115805,-0.561499789947397,-0.07804390408107674,-6.394224874720425e-05,-0.013313710737066881,6.358319560057303e-10,9.807033114503302
1.728,0,4,1,0.5729386976839008,30.938689674930682,0.0,6.251353065115805,160,9,1,0,0,0,0.0,6.251353065115805,6.251353065115805,-0.5614997858392111,-0.08204477006506922,-6.394678000988009e-05,-0.011717039320482008,-6.170695489878977e-09,9.857419516871012
1.76,0,4,1,0.5729386976839008,31.511628372614584,0.0,6.251353065115805,160,9,1,0,0,0,0.0,6.251353065115805,6.251353065115805,-0.5614997817309785,-0.08604563604159726,-6.395217405829635e-05,-0.009299912189720682,-1.4925490880910955e-09,9.834475745847147
1.792,0,4,1,0.5729386976839008,32.08456707029848,0.0,6.251353065115805,160,9,1,0,0,0,0.0,6.251353065115805,6.251353065115805,-0.5614997776238215,-0.09004650201032746,-6.395722433868815e-05,-0.0063791047445484325,3.226243774217935e-09,9.791815929689662
1.824,0,4,1,0.5729386976839008,32.657505767982386,0.0,6.251353065115805,160,9,1,0,0,0,0.0,6.251353065115805,6.251353065115805,-0.5614997735188288,-0.09404736797092758,-6.39607926571726e-05,-0.0031462909881666726,7.825117100289027e-09,9.81726500431335
1.856,0,4,1,0.5729386976839008,33.23044446566629,0.0,6.251353065115805,160,9,1,0,0,0,0.0,6.251353065115805,6.251353065115805,-0.5614997694170097,-0.09804823392296692,-6.396207945535796e-05,0.00033020638830373806,1.2162467509430853e-08,9.80365836117856
1.8880000000000001,0,4,1,0.5729386976839008,33.80338316335019,0.0,6.251353065115805,160,9,1,0,0,0,0.0,6.251353065115805,6.251353065115805,-0.5614997653192502,-0.10204909986613794,-6.39608139240827e-05,0.00378164048318452,1.603971774430497e-08,9.777845505976403
1.92,0,4,1,0.5729386976839008,34.37632186103409,0.0,6.251353065115805,160,9,1,0,0,0,0.0,6.251353065115805,6.251353065115805,-0.5614997612262791,-0.10604996580068307,-6.395731931870333e-05,0.007038828681628804,1.915766237437867e-08,9.815111388906034
1.952,0,4,1,0.5729386976839008,34.949260558717995,0.0,6.251353065115805,160,9,1,0,0,0,0.0,6.251353065115805,6.251353065115805,-0.5614997571386365,-0.11005083172778747,-6.395243819474518e-05,0.00981546819349088,2.176986911486545e-08,9.807017545664523
1.984,0,4,1,0.5729386976839008,35.5221992564019,0.0,6.251353065115805,160,9,1,0,0,0,0.0,6.251353065115805,6.251353065115805,-0.561499753056653,-0.11405169764970208,-6.394733521272386e-05,0.012097230380758715,2.3397930206787606e-08,9.818218685696463
2.016,0,4,1,0.5729386976839008,36.0951379540858,0.0,6.251353065115805,160,9,1,0,0,0,0.0,6.251353065115805,6.251353065115805,-0.5614997489804358,-0.11805256356948833,-6.394322395846148e-05,0.013618571478991776,2.406751264270988e-08,9.813583936004516
2.048,0,4,1,0.5729386976839008,36.6680766517697,0.0,6.251353065115805,160,9,1,0,0,0,0.0,6.251353065115805,6.251353065115805,-0.5614997449098644,-0.12205342949046094,-6.394108208921181e-05,0.014207339518486602,2.3693975063163017e-08,9.743707715525684
2.08,0,4,1,0.5729386976839008,37.241015349453605,0.0,6.251353065115805,160,9,1,0,0,0,0.0,6.251353065115805,6.251353065115805,-0.5614997408445956,-0.1260542954155542,-6.394142185477299e-05,0.014018362417570599,2.2678732660748377e-08,9.803531359085943
2.112,0,4,1,0.5729386976839008,37.81395404713751,0.0,6.251353065115805,160,9,1,0,0,0,0.0,6.251353065115805,6.251353065115805,-0.5614997367840772,-0.130055161346874,-6.394417000614959e-05,0.013170647205486679,2.0479781360487285e-08,9.786304061838477
2.144,0,4,1,0.5729386976839008,38.38689274482141,0.0,6.251353065115805,160,9,1,0,0,0,0.0,6.251353065115805,6.251353065115805,-0.561499732727568,-0.13405602728560229,-6.394868536542878e-05,0.011365961608613983,1.7586421446218073e-08,9.760032990580255
2.176,0,4,1,0.5729386976839008,38.95983144250531,0.0,6.251353065115805,160,9,1,0,0,0,0.0,6.251353065115805,6.251353065115805,-0.5614997286741688,-0.13805689323224354,-6.395390994131007e-05,0.008862197632732513,1.4018129218010165e-08,9.789786637867525
2.208,0,4,1,0.5729386976839008,39.532770140189214,0.0,6.251353065115805,160,9,1,0,0,0,0.0,6.251353065115805,6.251353065115805,-0.561499724622856,-0.14205775918703528,-6.395861804876606e-05,0.005868824913089215,9.838905511897771e-09,9.81080196347831
2.24,0,4,1,0.5729386976839008,40.10570883787312,0.0,6.251353065115805,160,9,1,0,0,0,0.0,6.251353065115805,6.251353065115805,-0.5614997205725244,-0.14605862515026913,-6.396170484014412e-05,0.002554488730910421,5.2747956646447425e-09,9.808081268355146
2.2720000000000002,0,4,1,0.5729386976839008,40.67864753555702,0.0,6.251353065115805,160,9,1,0,0,0,0.0,6.251353065115805,6.251353065115805,-0.5614997165220277,-0.1500594911223305,-6.396244637078656e-05,-0.0009431712571755846,4.894754492815634e-10,9.792037089559088
2.3040000000000003,0,4,1,0.5729386976839008,41.25158623324092,0.0,6.251353065115805,160,9,1,0,0,0,0.0,6.251353065115805,6.251353065115805,-0.5614997124702271,-0.15406035710342536,-6.396067002219057e-05,-0.004378889934158853,-4.28622014802365e-09,9.783207615895341
2.336,0,4,1,0.5729386976839008,41.824524930924824,0.0,6.251353065115805,160,9,1,0,0,0,0.0,6.251353065115805,6.251353065115805,-0.5614997084160344,-0.1580612230931389,-6.395679519724182e-05,-0.007534510771937298,-8.929206538843122e-09,9.782224014614146
2.368,0,4,1,0.5729386976839008,42.397463628608726,0.0,6.251353065115805,160,9,1,0,0,0,0.0,6.251353065115805,6.251353065115805,-0.5614997043584563,-0.16206208909007325,-6.395173471362633e-05,-0.010263577711029998,-1.3160340171519107e-08,9.781478101827625
2.4,0,4,1,0.5729386976839008,42.97040232629263,0.0,6.251353065115805,160,9,1,0,0,0,0.0,6.251353065115805,6.251353065115805,-0.5614997002966344,-0.16606295509178687,-6.394668010120501e-05,-0.012382536707923154,-1.680492460290689e-08,9.818976425289684
2.432,0,4,1,0.5729386976839008,43.54334102397653,0.0,6.251353065115805,160,9,1,0,0,0,0.0,6.251353065115805,6.251353065115805,-0.5614996962298786,-0.1700638210951125,-6.394282131667699e-05,-0.013680901308294423,-1.9913618291111324e-08,9.788842945567373
2.464,0,4,1,0.5729386976839008,44.11627972166043,0.0,6.251353065115805,160,9,1,0,0,0,0.0,6.251353065115805,6.251353065115805,-0.5614996921576958,-0.17406468709674575,-6.394106682232337e-05,-0.014276851834501903,-2.226858843830141e-08,9.856276961065475
2.496,0,4,1,0.5729386976839008,44.689218419344336,0.0,6.251353065115805,160,9,1,0,0,0,0.0,6.251353065115805,6.251353065115805,-0.5614996880798081,-0.17806555309386363,-6.394182988260673e-05,-0.014113037516320764,-2.3613500553119137e-08,9.827482459543667
2.528,0,4,1,0.5729386976839008,45.26215711702824,0.0,6.251353065115805,160,9,1,0,0,0,0.0,6.251353065115805,6.251353065115805,-0.5614996839961655,-0.18206641908451812,-6.394493136082334e-05,-0.012849684412337121,-2.419278479399799e-08,9.802000274272862
2.56,0,4,1,0.5729386976839008,45.83509581471214,0.0,6.251353065115805,160,9,1,0,0,0,0.0,6.251353065115805,6.251353065115805,-0.5614996799069464,-0.18606728506766484,-6.394964187994567e-05,-0.01101186622085691,-2.366450961154981e-08,9.851490680111421
2.592,0,4,1,0.5729386976839008,46.40803451239604,0.0,6.251353065115805,160,9,1,0,0,0,0.0,6.251353065115805,6.251353065115805,-0.5614996758125499,-0.19006815104287086,-6.395485343504634e-05,-0.008396050418614881,-2.215208742981647e-08,9.818191391981536
2.624,0,4,1,0.5729386976839008,46.980973210079945,0.0,6.251353065115805,160,9,1,0,0,0,0.0,6.251353065115805,6.251353065115805,-0.5614996717135807,-0.1940690170099019,-6.395934008049213e-05,-0.005325901165682354,-1.9779157136301946e-08,9.798008724969023
2.656,0,4,1,0.5729386976839008,47.55391190776385,0.0,6.251353065115805,160,9,1,0,0,0,0.0,6.251353065115805,6.251353065115805,-0.5614996676108248,-0.19806988296843972,-6.39620463628119e-05,-0.0019389208402717257,-1.6744019582713504e-08,9.819622987732462
2.688,0,4,1,0.5729386976839008,48.12685060544775,0.0,6.251353065115805,160,9,1,0,0,0,0.0,6.251353065115805,6.251353065115805,-0.5614996635052166,-0.20207074891810003,-6.39623356430228e-05,0.001549771567670343,-1.2963264279986175e-08,9.83338006512622
2.72,0,4,1,0.5729386976839008,48.69978930313165,0.0,6.251353065115805,160,9,1,0,0,0,0.0,6.251353065115805,6.251353065115805,-0.5614996593978034,-0.2060716148587502,-6.396013988422752e-05,0.00496009213926888,-8.676074154175455e-09,9.794076401406695
2.7520000000000002,0,4,1,0.5729386976839008,49.272728000815555,0.0,6.251353065115805,160,9,1,0,0,0,0.0,6.251353065115805,6.251353065115805,-0.5614996552897029,-0.2100724807909558,-6.395597567013418e-05,0.008090525618166568,-4.10097755191454e-09,9.788761243756793
2.7840000000000003,0,4,1,1.7183580016555007,50.99108600247106,1.1454193039715999,6.192936680613254,160,9,1,0,0,0,0.0,6.192936680613254,6.192936680613254,-0.5614996511820598,-0.21407334671630243,-6.395082267664741e-05,0.01069687201234489,6.472046755689026e-10,9.839726478327494
2.816,0,4,1,2.862405226111651,53.85349122858271,1.1440472244561504,6.135735691469962,160,9,1,0,0,0,0.0,6.135735691469962,6.135735691469962,-0.5614996471143688,-0.21803682709321126,-6.396035273582498e-05,-0.03135013646336342,5.36122466082407e-09,9.769882900161893
2.848,0,4,1,4.573921259900898,58.42741248848361,1.7115160337892465,6.049592420971166,160,9,1,0,0,0,0.0,6.049592420971166,6.049592420971166,-0.5614996430868434,-0.2219636987193693,-6.396105588013339e-05,-0.04351983107838848,9.80596487998657e-09,9.804131391680617
2.88,0,4,1,6.842773412630916,65.27018590111453,2.2688521527300187,5.9355924772157245,160,9,1,0,0,0,0.0,5.9355924772157245,5.9355924772157245,-0.5614996391193092,-0.22583543915975687,-6.387926634415786e-05,-0.08492649408304329,1.3898375211407263e-08,9.791611443149726
2.912,0,4,1,9.648045316098152,74.91823121721268,2.8052719034672355,5.794792462291626,160,9,1,0,0,0,0.0,5.794792462291626,5.794792462291626,-0.5614996367340155,-0.22963421995024275,-6.373435174952986e-05,-0.09925843848125694,-1.450157662996397e-06,9.805441491375971
2.944,0,4,1,12.95276451337554,87.87099573058822,3.3047191972773877,5.629057055133946,160,9,1,0,0,0,0.0,5.629057055133946,5.629057055133946,-0.5614996329626539,-0.23334288979096937,-6.371411293250306e-05,-0.11353404226082311,1.4714313382711994e-06,9.82743348941354
2.976,0,4,1,16.699244233993618,104.57023996458184,3.746479720618078,5.441291308579701,160,9,1,0,0,0,0.0,5.441291308579701,5.441291308579701,-0.5614996293098314,-0.23694548923854553,-6.368330880883455e-05,-0.12729903215674274,1.373579842731494e-08,9.836771523937333
3.008,0,4,1,20.304473709960448,124.87471367454229,3.60522947596683,5.261171085026011,160,9,1,0,0,0,0.0,5.261171085026011,5.261171085026011,-0.561499625786765,-0.24042791880142275,-6.36454166854962e-05,-0.1389241783940832,1.4290426276823274e-08,9.812911487078836
3.04,0,4,1,24.22774531795417,149.10245899249645,3.9232716079937227,5.064689462494298,160,9,1,-1,-1,-1,-0.0595,5.0051894624942985,5.124189462494298,-0.5614996223869209,-0.24379507092698474,-6.36177841513326e-05,-0.13247672154159004,1.4108285617297327e-08,9.791182132518106
3.072,0,4,1,27.474431626277134,176.57689061877358,3.246686308322964,4.903031732377821,160,9,1,-3,-4,-2,-0.17900000000000002,4.724031732377821,5.082031732377821,-0.5614996728712137,-0.2470364765420317,-6.358629804096953e-05,-0.14057111874067804,0.00011275737331126183,9.859881200228271
3.104,0,4,1,30.5406048496815,207.11749546845508,3.066173223404366,4.749903584292521,160,9,1,-4,-8,-1,-0.24450000000000002,4.50540358429252,4.994403584292521,-0.5614951909082148,-0.2501744486402175,-6.358062668642035e-05,-0.11930223668469506,0.004983994799013303,9.744724876163046
3.136,0,4,1,33.82208521749396,240.93958068594904,3.2814803678124562,4.58561425875749,160,9,1,-5,-13,-1,-0.3195,4.26611425875749,4.905114258757489,-0.5614774443715312,-0.2532145185190431,-6.359781968947285e-05,-0.11321139865679028,0.014069040224221554,9.762798167364826
3.168,0,4,1,36.50144112050633,277.44102180645535,2.6793559030123717,4.452248588071671,160,9,1,-6,-19,-1,-0.3995,4.052748588071672,4.851748588071671,-0.5614427054877599,-0.2561495182820816,-6.36545719501589e-05,-0.11955656534071839,0.01860040702624753,9.788975489394685
3.2,0,4,1,39.00747255212105,316.4484943585764,2.5060314316147227,4.327120340962333,160,9,1,-7,-26,-1,-0.48450000000000004,3.8426203409623327,4.811620340962333,-0.5613867808739412,-0.25899914079855224,-6.380915951772516e-05,-0.09856890867905946,0.02357967348790134,9.804275735846021
3.232,0,4,1,41.34777721969367,357.7962715782701,2.3403046675726173,4.210270834347745,160,9,1,-8,-34,-1,-0.5745,3.635770834347745,4.784770834347745,-0.5613056059514538,-0.2617684586974644,-6.408665102173444e-05,-0.09304350363990048,0.028432877033891975,9.83247216074206
3.2640000000000002,0,4,1,43.22853025996593,401.024801838236,1.8807530402722605,4.116692733961432,160,9,1,-8,-42,0,-0.61,3.5066927339614318,4.726692733961432,-0.5611951444509959,-0.26446243745745757,-6.452886793543652e-05,-0.08645237319058234,0.03385323294550118,9.783153406934867
3.2960000000000003,0,4,1,44.421274434392245,445.44607627262826,1.1927441744263163,4.057743534105962,160,9,1,-8,-50,0,-0.65,3.4077435341059616,4.707743534105962,-0.561050835388328,-0.2670952770500813,-6.515236154221865e-05,-0.0704071633138109,0.0389194875663796,9.815264676303583
3.3280000000000003,0,4,1,45.85509739626673,491.301173668895,1.4338229618744833,3.985811307224789,160,9,1,-8,-58,0,-0.69,3.295811307224789,4.675811307224789,-0.5608710052547081,-0.26968845264452,-6.597095501701886e-05,-0.04833763827703947,0.04062508439206842,9.814433333409108
3.36,0,4,1,46.68468431789629,537.9858579867913,0.8295869216295628,3.944936197183556,160,9,1,-9,-67,-1,-0.7895,3.155436197183556,4.734436197183556,-0.5606552709175132,-0.27223295622734794,-6.694440480964174e-05,-0.05484451595714993,0.04327760858340633,9.787489485781933
3.392,0,4,1,47.489552921999156,585.4754109087904,0.8048686041028645,3.9047174852959396,160,9,1,-8,-75,1,-0.7705000000000001,3.1342174852959395,4.675217485295939,-0.5604010562931441,-0.27474890148944286,-6.814771388176204e-05,-0.03281163681912804,0.04528258120751894,9.772204600029289
3.424,0,4,1,48.270487923183566,633.745898831974,0.7809350011844103,3.8656946688396374,160,9,1,-8,-83,0,-0.8150000000000001,3.0506946688396375,4.680694668839638,-0.5601033387343927,-0.2772344669324166,-6.943396010681245e-05,-0.03218521009100175,0.05167876635535792,9.751117856042978
3.456,0,4,1,48.77819770716159,682.5240965391356,0.5077097839780222,3.8405824048579427,160,9,1,-8,-91,0,-0.855,2.9855824048579427,4.695582404857943,-0.5597645489335168,-0.2796895469402019,-7.084499251515906e-05,-0.030088856959293742,0.05038869371054681,9.827761271342228
3.488,0,4,1,49.028263666485145,731.5523602056207,0.2500659593235568,3.828336750716419,160,9,1,-9,-100,-1,-0.9544999999999999,2.873836750716419,4.7828367507164185,-0.5593819836849494,-0.2821217871220765,-7.235932026400903e-05,-0.019854340679593543,0.05395745403289159,9.834525517289059
3.52,0,4,1,50.0502284248328,781.6025886304535,1.0219647583476572,3.7764666140000123,160,9,1,-8,-108,1,-0.9355000000000001,2.840966614000012,4.711966614000012,-0.5589528236842701,-0.28453882851696144,-7.405774479089279e-05,-0.009496946695358563,0.056001780426639974,9.795013553097744
3.552,0,4,1,50.527540151656176,832.1301287821096,0.4773117268233733,3.7531456806903676,160,9,1,-8,-116,0,-0.98,2.7731456806903676,4.733145680690368,-0.5584767630862545,-0.2869125772888643,-7.57040430237263e-05,-0.03393137531200662,0.06357055161750601,9.800873185013577
3.584,0,4,1,50.99538680407546,883.1255155861851,0.4678466524192828,3.729762813143808,160,9,1,-8,-124,0,-1.02,2.709762813143808,4.749762813143808,-0.5579530508388305,-0.28926108394785277,-7.743791243087529e-05,-0.013829168638826288,0.06166541204645095,9.803786207252049
3.616,0,4,1,51.74005609794695,934.8655716841321,0.744669293871489,3.6922525258087813,160,9,1,-7,-131,1,-1.0005000000000002,2.691752525808781,4.692752525808782,-0.557380236805063,-0.291582842053573,-7.921549831702533e-05,-0.012323619882115458,0.06454050001517342,9.834425794905997
3.648,0,4,1,52.18853714273665,987.0541088268687,0.44848104478970185,3.670124661818378,160,9,1,-7,-138,0,-1.04,2.630124661818378,4.710124661818378,-0.5567599431531072,-0.293867159490203,-7.979402919915286e-05,-0.021716738980483243,0.06661918859348566,9.83387192969279
3.68,0,4,1,52.47573738554823,1039.529846212417,0.2872002428115792,3.655925930479777,160,9,1,-8,-146,-1,-1.1344999999999998,2.5214259304797775,4.790425930479777,-0.5560919813487567,-0.2961231792174753,-8.042712638299011e-05,-0.01197635122329831,0.0652623706971693,9.791630398578393
3.712,0,4,1,52.91416450904766,1092.4440107214646,0.43842712349943014,3.6338533474241177,160,9,1,-7,-153,1,-1.1105,2.5233533474241177,4.744353347424118,-0.555373508924704,-0.29835454427215624,-8.117978827979801e-05,-0.0064545333574682635,0.06742779132929218,9.81654840047981
3.744,0,4,1,53.343891584033095,1145.7879023054977,0.4297270749854363,3.6123756937233598,160,9,1,-7,-160,0,-1.1500000000000001,2.4623756937233594,4.76237569372336,-0.5546023692144039,-0.3005531379936143,-8.188718416331231e-05,-0.011820183257348823,0.07296808815019072,9.837504814327186
3.7760000000000002,0,4,1,53.84181456019167,1199.6297168656895,0.49792297615857706,3.5874113490142583,160,9,1,-7,-167,0,-1.185,2.4024113490142582,4.772411349014258,-0.5537808925653604,-0.30271879257921264,-8.263492686364123e-05,-0.011427820115051094,0.071530760025078,9.823043616510043
3.8080000000000003,0,4,1,54.46232220802562,1254.0920390737151,0.6205076478339464,3.556263381950885,160,9,1,-6,-173,1,-1.1605,2.395763381950885,4.716763381950885,-0.5529111459554529,-0.30484242713572834,-8.340942679680753e-05,-0.018687780339888035,0.0735331311653451,9.793214845157129
3.84,0,4,1,54.86580694308437,1308.9578460167995,0.40348473505875404,3.536306168110723,160,9,1,-5,-178,1,-1.1355000000000002,2.400806168110723,4.671806168110723,-0.5520097477246042,-0.3068823683404129,-8.41167960905654e-05,-0.060360717050747206,0.0772802752895708,9.808728569796422
3.872,0,4,1,55.26137471723438,1364.2192207340338,0.39556777415000965,3.516535696364131,160,9,1,-4,-182,1,-1.1055000000000001,2.411035696364131,4.622035696364131,-0.5510637228485346,-0.3088699170860778,-8.475383244936109e-05,-0.0262676096643774,0.07675973708684719,9.815412505253265
3.904,0,4,1,55.45625059223089,1419.6754713262646,0.19487587499650516,3.5069925945134592,160,9,1,-4,-186,0,-1.1300000000000001,2.3769925945134593,4.636992594513459,-0.5500673287541602,-0.31082077972160166,-8.530789881295957e-05,-0.00838570579094259,0.07551519051169282,9.805662700611917
3.936,0,4,1,55.64921965924494,1475.3246909855095,0.19296906701405447,3.4973460479707392,160,9,1,-4,-190,0,-1.1500000000000001,2.3473460479707393,4.647346047970739,-0.5490219851594788,-0.31273726387168704,-8.585897525104427e-05,-0.005468691939809501,0.07365648146775221,9.791531888868633
3.968,0,4,1,55.56101069119639,1530.8857016767058,-0.08820896804855494,3.5020376744082293,160,9,1,-3,-193,1,-1.1105,2.3915376744082293,4.612537674408229,-0.5479275358690862,-0.31461766767739074,-8.639425772887822e-05,-0.005155528675753606,0.07506978163070732,9.765572191863582
4.0,0,4,1,55.369199619742986,1586.254901296449,-0.19181107145340093,3.5117318300843046,160,9,1,-4,-197,-1,-1.1895,2.322231830084305,4.701231830084304,-0.5467778434609749,-0.31647107236701083,-8.682184408339254e-05,0.007181809646549916,0.07561893766403817,9.778806189739173
4.032,0,4,1,55.091057238888915,1641.3459585353378,-0.27814238085407084,3.5257252804364083,160,9,1,-4,-201,0,-1.205,2.3207252804364082,4.730725280436408,-0.5455773437002551,-0.31829370202969365,-8.733531709152059e-05,0.0034069589002527997,0.07385996820464272,9.815445399479962
4.064,0,4,1,54.619727799698865,1695.9656863350367,-0.47132943919005044,3.549484939454247,160,9,1,-4,-205,0,-1.2249999999999999,2.324484939454247,4.774484939454247,-0.5443193626220721,-0.3200871364689332,-8.783678448439497e-05,0.010245267893790403,0.07882712536021541,9.809839060679673
4.096,0,4,1,54.22392228210534,1750.189608617142,-0.3958055175935229,3.5691996914123267,160,9,1,-4,-209,0,-1.2449999999999999,2.3241996914123266,4.814199691412327,-0.5430003426654656,-0.32185383312824467,-8.835048936475971e-05,0.01607850195629948,0.0800823997564528,9.807690207332607
4.128,0,4,1,53.61564818416412,1803.8052568013063,-0.6082740979412193,3.5998258648897354,160,9,1,-5,-214,-1,-1.3245,2.2753258648897354,4.9243258648897354,-0.5416214476805495,-0.3235889522116512,-8.888489874748703e-05,0.013677584454377752,0.08116544537674295,9.787484138364254
4.16,0,4,1,52.70933308003393,1856.5145898813403,-0.9063151041301936,3.645439661102434,160,9,1,-5,-219,0,-1.345,2.300439661102434,4.9904396611024335,-0.5401800426621862,-0.3252923708760087,-8.955520292424496e-05,0.01748007005630301,0.08369455361889636,9.824225880425757
4.192,0,4,1,52.06260267041578,1908.577192551756,-0.6467304096181508,3.6775165968888293,160,9,1,-5,-224,0,-1.37,2.307516596888829,5.04751659688883,-0.538664602921695,-0.32696868014881014,-9.028306295750035e-05,0.03077410126704116,0.0886185711540353,9.813554132486654
4.224,0,4,1,51.39658521147221,1959.9737777632283,-0.6660174589435712,3.710836756885333,160,9,1,-5,-229,0,-1.395,2.315836756885333,5.105836756885333,-0.5371328222698448,-0.32854426888364435,-9.108479227895247e-05,-0.05800409482340291,0.09984307721926472,9.793243698056031
4.256,0,4,1,50.00391995224035,2009.9776977154686,-1.3926652592318547,3.7811966676472144,160,9,1,-13,-242,-8,-1.896,1.8851966676472145,5.677196667647214,-0.5359473618037723,-0.3296793832027834,-9.196018858141815e-05,-0.5416915283129533,0.08828644703074875,9.816459137054943
4.288,0,4,1,48.270487923183566,2058.248185638652,-1.733432029056786,3.8682090358698784,160,9,1,-26,-268,-13,-2.6985,1.1697090358698783,6.28,-0.5354095466389521,-0.3302182634055041,-9.368405608457982e-05,-0.8583490672903716,-0.02317594549875009,9.838437309666727
4.32,0,4,1,47.22396124038548,2105.4721468790376,-1.0465266827980884,3.919848464663524,160,9,1,-34,-302,-8,-3.246,0.6738484646635241,6.28,-0.5350752966121193,-0.3305518972684741,-9.58601362133684e-05,-0.28234715456143555,0.0153585533720269,9.855902615879476
4.352,0,4,1,46.974934010881974,2152.4470808899196,-0.2490272295035041,3.931502326685405,160,9,1,-37,-339,-3,-3.5585,0.373002326685405,6.28,-0.5347654948641337,-0.33085216747945007,-9.687832185810083e-05,-0.04065674788543789,0.024440435314531394,9.792212146611341
4.384,0,4,1,48.52561519717446,2200.972696087094,1.5506811862924863,3.8521685589549843,160,9,1,-16,-355,21,-2.4805,1.3716685589549842,6.28,-0.5334178293207382,-0.3322548365659616,-9.657359770312048e-05,1.4658316042720436,-0.1056036803132928,9.810437557304097
4.416,0,4,1,48.239700296102136,2249.212396383196,-0.2859149010723243,3.8683009000959654,160,9,1,-3,-358,13,-1.8815,1.9868009000959654,5.749800900095965,-0.5316877145977298,-0.33379595276071305,-9.564750102628375e-05,0.3781909491933688,0.14378514823688196,9.850164320946012
4.448,0,4,1,46.12330271407542,2295.3356990972716,-2.116397582026714,3.9759512618782558,160,9,1,4,-354,7,-1.5385,2.437451261878256,5.514451261878255,-0.5298072046668145,-0.33526327433899783,-9.546692301050895e-05,0.07772397950650065,0.16052187556802297,9.835983372202168
4.48,0,4,1,45.00000000000001,2340.3356990972716,-1.1233027140754146,4.031123302714075,160,9,1,1,-353,-3,-1.7285000000000001,2.302623302714075,5.7596233027140755,-0.5282353332499007,-0.33635004289589393,-9.623250278379542e-05,-0.46063491412766744,0.148320170590952,9.711409762347563
4.5120000000000005,0,4,1,44.421274434392245,2384.756973531664,-0.5787255656077619,4.059515003845996,160,9,1,-12,-365,-13,-2.4835,1.576015003845996,6.28,-0.5274282855768445,-0.3369244755909237,-9.807671994821292e-05,-0.8985826816635526,-0.0160575255073257,9.88100994894558
4.5440000000000005,0,4,1,43.83086067209259,2428.5878342037563,-0.5904137622996544,4.0890473801576706,160,9,1,-22,-387,-10,-3.08,1.0090473801576705,6.28,-0.5268836899267687,-0.3373257721650245,-0.00010067913502551096,-0.3070161662832886,0.0013153028135775731,9.815958224072588
4.5760000000000005,0,4,1,43.53119928561418,2472.1190334893704,-0.29966138647841234,4.10373969710577,160,9,1,-28,-415,-6,-3.5020000000000007,0.6017396971057689,6.28,-0.5265359875884698,-0.33758522316958234,-0.00010226118087906799,-0.2376061731229028,0.013435560949473208,9.799470215147156
4.6080000000000005,0,4,1,42.901094066796446,2515.0201275561667,-0.6301052188177323,4.135575401878995,160,9,1,-32,-447,-4,-3.8529999999999998,0.28257540187899544,6.28,-0.5263196990673227,-0.33773081531517374,-0.00010234575954482482,-0.17016685805382029,0.02904675898292635,9.850108840789757
4.64,0,4,1,41.98721249581667,2557.007340051983,-0.9138815709797754,4.181553256780146,160,9,1,-8,-455,24,-2.5669999999999997,1.614553256780146,6.28,-0.5248086948128781,-0.3388994235149578,-0.0001010074332615258,1.596553385315528,-0.1236945596530681,9.785783136111188
4.672,0,4,1,40.36453657309736,2597.3718766250804,-1.62267592271931,4.263395847267851,160,9,1,7,-448,15,-1.8225000000000002,2.4408958472678504,6.085895847267851,-0.5227993194461965,-0.34021201191322625,-9.919170624760054e-05,0.49203377056337244,0.13830962173166153,9.774733794711231
4.704,0,4,1,38.65980825409008,2636.0316848791704,-1.7047283190072804,4.348714315614503,160,9,1,16,-432,9,-1.3195000000000001,3.0292143156145026,5.668214315614502,-0.5205035822698768,-0.34151648500726745,-9.850328530336926e-05,0.24555534737981063,0.15200638811910006,9.855704908260462
4.736,0,4,1,37.59627114721198,2673.6279560263824,-1.0635371068781012,4.40124997974628,160,9,1,15,-417,-1,-1.3395,3.0617499797462795,5.74074997974628,-0.5184257514335001,-0.3425485353141996,-9.874790090102017e-05,-0.3075757038059067,0.16063058017210333,9.834706325203923
4.768,0,4,1,36.50144112050633,2710.1293971468886,-1.094830026705651,4.456022774001389,160,9,1,0,-417,-15,-2.1525,2.3035227740013893,6.28,-0.5171721586260685,-0.34317769805842707,-9.97882213970222e-05,-0.8985363382859198,-0.006492311978915799,9.846109580287562
4.8,0,4,1,35.753887254436755,2745.8832844013255,-0.7475538660695733,4.493053191144233,160,9,1,-11,-428,-11,-2.7395000000000005,1.7535531911442321,6.28,-0.5162466909679386,-0.34366934534916416,-0.00010161650168799378,-0.34468409468324956,-0.016202382928405597,9.841189808176127
4.832,0,4,1,35.37475184387608,2781.2580362452018,-0.37913541056067146,4.511641543216757,160,9,1,-20,-448,-9,-3.2805000000000004,1.2311415432167565,6.28,-0.5155531207572238,-0.34405392710341165,-0.00010251235175347435,-0.2484026208360715,-0.0001930176616689017,9.802633548487828
4.864,0,4,1,34.99202019855866,2816.2500564437605,-0.38273164531742054,4.530781721717385,160,9,1,-23,-471,-3,-3.5185,1.0122817217173847,6.28,-0.5148563531855147,-0.34442808706897615,-0.00010199707784877554,-0.0025883451958174197,0.02888878866762148,9.796874957495037
4.896,0,4,1,33.424811182603804,2849.674867626364,-1.5672090159548588,4.6103266498857645,160,9,1,-3,-474,20,-2.43,2.1803266498857643,6.28,-0.5129724971031218,-0.3454946450008416,-0.00010014646201747697,1.3296429019664031,-0.09301588957449118,9.809043036571776
4.928,0,4,1,32.61924307119282,2882.294110697557,-0.8055681114109845,4.64984341455177,160,9,1,11,-463,14,-1.702,2.9478434145517705,6.28,-0.5106305358569816,-0.34661083141601523,-9.794436794247421e-05,0.43312393436726937,0.14362764443329762,9.802289597108919
4.96,0,4,1,31.38319105635903,2913.677301753916,-1.2360520148337883,4.712076499196883,160,9,1,21,-442,10,-1.115,3.5970764991968824,5.827076499196883,-0.5079764037112452,-0.3477024196587308,-9.686735255293698e-05,0.27796545787135546,0.14387708123526954,9.882336464725917
4.992,0,4,1,30.5406048496815,2944.2179066035974,-0.8425862066775309,4.753812343722602,160,9,1,26,-416,5,-0.7575000000000001,3.996312343722602,5.511312343722603,-0.5051892893817133,-0.3487087380753499,-9.658135539292352e-05,0.09736410527094556,0.13600767159723534,9.825460862148427
5.024,0,4,1,29.24882633654698,2973.4667329401445,-1.2917785131345205,4.818850461685785,160,9,1,20,-396,-6,-1.007,3.8118504616857853,5.825850461685785,-0.5027517631761494,-0.349491879299221,-9.642939780252907e-05,-0.39439520892417224,0.11505268131280516,9.839877866717703
5.056,0,4,1,28.369046293278583,3001.835779233423,-0.8797800432683971,4.86242746537934,160,9,1,6,-390,-14,-1.7129999999999999,3.1494274653793397,6.28,-0.5009728203879392,-0.3500916491862005,-9.675375789648666e-05,-0.6688252333842053,-0.030611702549887668,9.789482286804757
5.088,0,4,1,27.02158159117705,3028.8573608246,-1.347464702101533,4.93026838514325,160,9,1,-6,-396,-12,-2.334,2.5962683851432495,6.28,-0.4995306295229672,-0.3506181555923385,-9.753824980682224e-05,-0.33348634143420786,-0.030431047604856248,9.786853889939247
5.12,0,4,1,26.104854009099288,3054.9622148336994,-0.9167275820777618,4.975674027127114,160,9,1,-14,-410,-8,-2.786,2.1896740271271136,6.28,-0.49819667570126247,-0.3511107784803148,-9.749679689818706e-05,-0.11071221076326307,0.01176483145450342,9.847893868696312
5.152,0,4,1,25.641005824305285,3080.603220658005,-0.4638481847940028,4.99841355696953,160,9,1,1,-409,15,-1.9275,3.07091355696953,6.28,-0.495802003434746,-0.3520581373093628,-9.629660284527809e-05,1.11816017284002,-0.07509602638097625,9.807197207006375
5.184,0,4,1,24.702430227771313,3105.3056508857762,-0.9385755965339726,5.045817064207968,160,9,1,12,-397,11,-1.3355,3.7103170642079686,6.28,-0.4930521939041568,-0.35297643491960906,-9.428913973928178e-05,0.3249934542966206,0.1414697710774832,9.815753285421625
5.216,0,4,1,24.22774531795417,3129.5333962037303,-0.4746849098171424,5.069087419012109,160,9,1,20,-377,8,-0.849,4.220087419012109,5.918087419012109,-0.49004559931815433,-0.35384011076610694,-9.271455367821854e-05,0.23006204972720762,0.131587278968924,9.841338420751137
5.248,0,4,1,23.26770481005697,3152.801101013787,-0.960040507897201,5.117574800005049,160,9,1,23,-354,3,-0.6064999999999999,4.51107480000505,5.724074800005049,-0.4869414066148091,-0.35461963980989,-9.143460842505648e-05,0.07421113516491558,0.11852714794714164,9.861338625632223
5.28,0,4,1,22.782405730481685,3175.5835067442686,-0.4852990795752845,5.141365012555491,160,9,1,25,-329,2,-0.386,4.755365012555491,5.527365012555491,-0.4837800029373499,-0.35534134514266635,-9.019373710844776e-05,0.043177479494749246,0.08495485368964159,9.863697667155549
5.312,0,4,1,21.80140948635181,3197.3849162306205,-0.980996244129873,5.19091052192654,160,9,1,24,-305,-1,-0.32949999999999996,4.8614105219265396,5.52041052192654,-0.48058378169119137,-0.35601745892710845,-8.863232348763073e-05,0.024760540574943334,0.06856804164498763,9.762289304290661
5.344,0,4,1,20.80679101271124,3218.1917072433316,-0.9946184736405712,5.2406550678380786,160,9,1,23,-282,-1,-0.2644999999999998,4.976155067838079,5.5051550678380785,-0.4773492261186248,-0.35667128857445707,-8.685465429369467e-05,0.03301032969888848,0.048087808299486126,9.791241160206743
5.376,0,4,1,20.304473709960448,3238.496180953292,-0.502317302750793,5.265278631804729,160,9,1,21,-261,-2,-0.2639999999999999,5.001278631804729,5.529278631804729,-0.47407609642728993,-0.35730744270895526,-8.48520172844168e-05,0.03391003941316369,0.04448236291941639,9.832687344923182
5.408,0,4,1,19.290046219188728,3257.7862271724807,-1.0144274907717197,5.316512116531335,160,9,1,19,-242,-2,-0.2689999999999999,5.047512116531335,5.585512116531335,-0.47078434423137105,-0.35792917625317944,-8.281051199520925e-05,0.01559464465439037,0.03828566680865852,9.8114905669468
5.44,0,4,1,18.262889942194125,3276.049117114675,-1.027156276994603,5.367882659167289,160,9,1,17,-225,-2,-0.2839999999999999,5.083882659167289,5.651882659167288,-0.4674571721889168,-0.3585392653777959,-8.081724698712558e-05,0.032276437288869246,0.038822339812700425,9.793820633043184
5.472,0,4,1,17.744671625056924,3293.793788739732,-0.518218317137201,5.3932846370642915,160,9,1,16,-209,-1,-0.2494999999999999,5.143784637064291,5.642784637064292,-0.4640947016436183,-0.3591365728523456,-7.894745803215843e-05,0.031892324642516144,0.039475287621583185,9.805461438835355
5.5040000000000004,0,4,1,16.699244233993618,3310.493032973726,-1.0454273910633063,5.446083215691383,160,9,1,14,-195,-2,-0.2839999999999999,5.162083215691383,5.730083215691383,-0.4607099884027821,-0.3597153587974016,-7.717303936077662e-05,0.01868611099495174,0.04277322262199424,9.855129200066527
5.5360000000000005,0,4,1,16.17215901578257,3326.6651919895085,-0.5270852182110488,5.471919134429083,160,9,1,13,-182,-1,-0.2645,5.207419134429083,5.736419134429083,-0.45729030217937094,-0.3602818278725359,-7.562676123802105e-05,0.03205969977333719,0.038016771194769566,9.829192703800006
5.5680000000000005,0,4,1,14.574216198038746,3341.2394081875473,-1.5979428177438226,5.552887132915807,160,9,1,11,-171,-2,-0.31399999999999995,5.238887132915807,5.866887132915807,-0.45384733143956235,-0.36082874288745037,-7.425118399867654e-05,0.019788925496223103,0.04235694616334686,9.850745917446334
5.6000000000000005,0,4,1,14.574216198038746,3355.813624385586,0.0,5.551289190098063,160,9,1,11,-160,0,-0.25,5.301289190098063,5.801289190098063,-0.4503511163305317,-0.36136190689170483,-7.311491865982268e-05,0.0496206169537849,0.039812336944454116,9.833154058324123
5.632,0,4,1,13.495733280795811,3369.309357666382,-1.078482917242935,5.606291818877453,160,9,1,10,-150,-1,-0.2545,5.3517918188774525,5.860791818877453,-0.44684990755691684,-0.36186852595598507,-7.199513065627404e-05,0.0012805796723926793,0.04488153792889339,9.81877616102421
5.664,0,4,1,12.95276451337554,3382.262122179757,-0.5429687674202714,5.632904743098644,160,9,1,9,-141,-1,-0.25949999999999995,5.373404743098644,5.892404743098644,-0.4433083639205676,-0.36235910843866986,-7.089880991813236e-05,0.03753210335989019,0.038308401002372656,9.849734202412133
5.696,0,4,1,12.407418527400745,3394.669540707158,-0.5453459859747944,5.660174419615938,160,9,1,8,-133,-1,-0.2695,5.390674419615938,5.929674419615938,-0.4397447153545853,-0.3628304971362321,-6.992219748051462e-05,0.019955725354150453,0.03802198480607459,9.777737668453844
5.728,0,4,1,11.309932474020227,3405.979473181178,-1.0974860533805177,5.715600862352369,160,9,1,7,-126,-1,-0.2845,5.43110086235237,6.000100862352369,-0.4361588760368627,-0.3632821912190758,-6.908571215824728e-05,0.02059880763371844,0.03786450982366596,9.799937986612886
5.76,0,4,1,10.757967088390043,3416.737440269568,-0.5519653856301847,5.742653610966128,160,9,1,7,-119,0,-0.24499999999999994,5.497653610966128,5.987653610966128,-0.4325332491884422,-0.3637153513660698,-6.839512042188314e-05,0.03838693775403809,0.037668659874806804,9.829954860747947
5.792,0,4,1,10.757967088390043,3427.4954073579584,0.0,5.742101645580498,160,9,1,7,-112,0,-0.21000000000000002,5.532101645580498,5.952101645580498,-0.42888654279725896,-0.36412621089525127,-6.782450972763442e-05,0.020337795349788808,0.03836838203588314,9.817738103434314
5.824,0,4,1,9.648045316098152,3437.1434526740563,-1.1099217722918908,5.798707655967385,160,9,1,6,-106,-1,-0.2345,5.564207655967385,6.033207655967384,-0.425236968552202,-0.3645162835643666,-6.736467687867669e-05,0.003231999709677008,0.03458502572763022,9.83891908340266
5.856,0,4,1,9.648045316098152,3446.7914979901543,0.0,5.797597734195093,160,9,1,6,-100,0,-0.19999999999999996,5.597597734195093,5.997597734195093,-0.42154835989489514,-0.36489259838758165,-6.701143186773131e-05,0.03963587027497756,0.03084055310298631,9.791468399214269
5.888,0,4,1,9.090276920822312,3455.8817749109767,-0.5577683952758399,5.8260439223541605,160,9,1,5,-95,-1,-0.22950000000000004,5.596543922354161,6.05554392235416,-0.41785794962370887,-0.36524905671027236,-6.674024300906342e-05,0.002774412047805045,0.03293627835414231,9.835258535120424
5.92,0,4,1,8.530765609948096,3464.4125405209247,-0.5595113108742158,5.85402123081347,160,9,1,5,-90,0,-0.2,5.65402123081347,6.05402123081347,-0.4141467981509627,-0.36559061024891976,-6.655188092005541e-05,0.021904077361876724,0.029341116508132113,9.767252854609717
5.952,0,4,1,8.530765609948096,3472.9433061308728,0.0,5.8534617195025955,160,9,1,5,-85,0,-0.175,5.678461719502596,6.028461719502595,-0.410414056272149,-0.3659146099897154,-6.63813574622394e-05,0.02296208600116826,0.03141548511816397,9.797409789395845
5.984,0,4,1,7.406912128495223,3480.350218259368,-1.1238534814528736,5.910778247056692,160,9,1,4,-81,-1,-0.20950000000000002,5.701278247056692,6.120278247056692,-0.40668036111605294,-0.3662221364015211,-6.623853087851447e-05,0.002809117067669217,0.028770122393059868,9.748879723898236
6.016,0,4,1,7.406912128495223,3487.757130387863,0.0,5.909654393575239,160,9,1,4,-77,0,-0.185,5.724654393575239,6.094654393575238,-0.40290895181264913,-0.36651832269662193,-6.614436350408856e-05,0.045940181120298115,0.025949586682844503,9.800044999642095
6.048,0,4,1,6.842773412630916,3494.599903800494,-0.5641387158643063,5.9384254680843185,160,9,1,4,-73,0,-0.16499999999999998,5.7734254680843184,6.1034254680843185,-0.39913694941391126,-0.3667968189899234,-6.60205624526608e-05,0.008397193428582526,0.02922268079705418,9.803544771992739
6.08,0,4,1,6.277298489597548,3500.877202290091,-0.565474923033368,5.966700550443156,160,9,1,3,-70,-1,-0.20450000000000002,5.762200550443156,6.171200550443157,-0.39534552147781327,-0.3670612424030115,-6.591199415778397e-05,0.02632284163901807,0.026619531115474274,9.802049947070596
6.112,0,4,1,6.277298489597548,3507.1545007796885,0.0,5.966135075520123,160,9,1,4,-66,1,-0.1255,5.840635075520123,6.091635075520123,-0.39153507914481744,-0.3673131721464677,-6.584725603972323e-05,0.02559815367308336,0.02467090778712771,9.79651943367934
6.144,0,4,1,5.710593137499568,3512.865093917188,-0.5667053520979799,5.995037048477119,160,9,1,3,-63,-1,-0.16949999999999998,5.825537048477119,6.164537048477119,-0.38772396452601,-0.3675476478462676,-6.573087612681862e-05,0.006113162289121392,0.027870142038858906,9.84884247183494
6.176,0,4,1,5.142764557884225,3518.007858475072,-0.5678285796153437,6.023429600685404,160,9,1,3,-60,0,-0.14999999999999997,5.873429600685403,6.173429600685404,-0.3838937566086536,-0.36777304675769035,-6.564743351326896e-05,0.02451452458837433,0.020776284297736012,9.848461734165951
6.208,0,4,1,5.142764557884225,3523.1506230329564,0.0,6.022861772105789,160,9,1,3,-57,0,-0.135,5.887861772105789,6.157861772105789,-0.3800445965586871,-0.36798507059132923,-6.554563189276746e-05,0.024149218159743555,0.02439020631121466,9.821470995774392
6.24,0,4,1,5.142764557884225,3528.2933875908407,0.0,6.022861772105789,160,9,1,3,-54,0,-0.12,5.902861772105789,6.142861772105789,-0.37619513699926405,-0.36818438784008023,-6.544992616707226e-05,0.005466023211024699,0.022482374406801356,9.822240185447889
6.272,0,4,1,4.573921259900898,3532.8673088507417,-0.5688432979833271,6.051872780302938,160,9,1,3,-51,0,-0.10499999999999998,5.946872780302938,6.156872780302939,-0.37234512596497016,-0.3683723861062668,-6.534585677565354e-05,0.004833432807534214,0.02089992594030436,9.786297075591948
6.304,0,4,1,4.573921259900898,3537.4412301106427,0.0,6.051303937004955,160,9,1,3,-48,0,-0.08999999999999997,5.961303937004955,6.141303937004955,-0.36847611173644657,-0.3685512940180225,-6.52303019930741e-05,0.025493066343759162,0.019232003588704964,9.786769394498698
6.336,0,4,1,4.004172940709389,3541.445403051352,-0.5697483191915085,6.080361101283722,160,9,1,2,-46,-1,-0.1345,5.945861101283722,6.214861101283722,-0.36460708265083724,-0.3687215287037638,-6.510374060552694e-05,0.006995687817286243,0.01760570125649227,9.798549092652424
6.368,0,4,1,3.4336303624506144,3544.8790334138025,-0.5705425782587747,6.108889024455728,160,9,1,2,-44,0,-0.12,5.988889024455728,6.228889024455728,-0.3607191235011034,-0.36888523594937855,-6.500558661396219e-05,0.025611945129083272,0.015902087013646392,9.84622985056738
6.4,0,4,1,3.4336303624506144,3548.312663776253,0.0,6.108318481877469,160,9,1,2,-42,0,-0.10999999999999999,5.998318481877469,6.2183184818774695,-0.35681242440624583,-0.3690379864545906,-6.49050812499899e-05,0.025611420298384008,0.019875567699757516,9.821141353505567
6.432,0,4,1,3.4336303624506144,3551.7462941387034,0.0,6.108318481877469,160,9,1,3,-39,1,-0.04049999999999999,6.067818481877469,6.148818481877469,-0.3529056858640101,-0.3691802976169142,-6.482379814431484e-05,0.007015647428639159,0.018286975044249122,9.785846030545216
6.464,0,4,1,3.4336303624506144,3555.179924501154,0.0,6.108318481877469,160,9,1,2,-37,-1,-0.0895,6.018818481877469,6.197818481877469,-0.34899865851691286,-0.3693131115469755,-6.471553834997389e-05,0.006473818197694638,0.01697858123537791,9.834304773648213
6.496,0,4,1,2.862405226111651,3558.0423297272655,-0.5712251363389633,6.137450963830757,160,9,1,2,-35,0,-0.07500000000000001,6.062450963830757,6.212450963830757,-0.34509151095720403,-0.36944305088325397,-6.464421216332943e-05,0.005257603023833833,0.010120213971035052,9.826497384810773
6.5280000000000005,0,4,1,2.862405226111651,3560.904734953377,0.0,6.136879738694418,160,9,1,2,-33,0,-0.065,6.071879738694418,6.201879738694418,-0.34116548040417827,-0.3695659452684818,-6.456769881454417e-05,0.025538261500366703,0.014350482138128489,9.80554330983312
6.5600000000000005,0,4,1,2.862405226111651,3563.7671401794887,0.0,6.136879738694418,160,9,1,2,-31,0,-0.05499999999999999,6.081879738694418,6.191879738694418,-0.3372396212853353,-0.36968247513155406,-6.449419437079204e-05,0.00862946228104573,0.012811248870464574,9.806321521435944
6.5920000000000005,0,4,1,2.862405226111651,3566.6295454056003,0.0,6.136879738694418,160,9,1,2,-29,0,-0.044999999999999984,6.091879738694418,6.181879738694418,-0.33331360590771103,-0.36979356056534246,-6.442314781866972e-05,0.009221305292860632,0.011555345267300683,9.783166377589149
6.6240000000000006,0,4,1,2.862405226111651,3569.491950631712,0.0,6.136879738694418,160,9,1,2,-27,0,-0.035,6.101879738694418,6.171879738694418,-0.3293874661655115,-0.3699001126228048,-6.436065550411568e-05,0.008952577167246352,0.010291256549348928,9.797210185458399
6.656000000000001,0,4,1,2.2906100426385936,3571.7825606743504,-0.5717951834730575,6.166041293051543,160,9,1,1,-26,-1,-0.0845,6.081541293051543,6.250541293051543,-0.3254612304944393,-0.3700030398213464,-6.430276880524041e-05,0.008070837055946462,0.00903546727420444,9.80080423287492
6.688,0,4,1,2.2906100426385936,3574.073170716989,0.0,6.16546949786807,160,9,1,1,-25,0,-0.075,6.09046949786807,6.24046949786807,-0.3215162505874291,-0.3701037022651263,-6.426122613980081e-05,0.028674578120192355,0.007762038121064774,9.785223258745683
6.72,0,4,1,2.2906100426385936,3576.3637807596274,0.0,6.16546949786807,160,9,1,1,-24,0,-0.06999999999999999,6.09546949786807,6.2354694978680705,-0.31757143171108315,-0.3701967291102748,-6.421959754251277e-05,0.010334889553748788,0.012183317836462551,9.843362460939781
6.752,0,4,1,2.2906100426385936,3578.654390802266,0.0,6.16546949786807,160,9,1,1,-23,0,-0.065,6.10046949786807,6.230469497868071,-0.3136264516001819,-0.37028300006163317,-6.419293275028957e-05,0.010260982700930508,0.011066860123185333,9.8404649548263
6.784,0,4,1,2.2906100426385936,3580.9450008449044,0.0,6.16546949786807,160,9,1,2,-21,1,-0.0004999999999999909,6.1649694978680705,6.16596949786807,-0.3096813375204533,-0.3703629774183642,-6.417377032471791e-05,0.009244772020560506,0.010317736349525864,9.827511894573666
6.816,0,4,1,2.2906100426385936,3583.235610887543,0.0,6.16546949786807,160,9,1,1,-20,-1,-0.0545,6.11096949786807,6.21996949786807,-0.3057361413438539,-0.37043716413640626,-6.41445768125512e-05,0.0075399672344869054,0.009670069862845805,9.768331044962364
6.848,0,4,1,1.7183580016555007,3584.953968889198,-0.5722520409830929,6.194654351958208,160,9,1,1,-19,0,-0.045,6.149654351958208,6.239654351958208,-0.30179094049683786,-0.3705118066329191,-6.41343791753339e-05,0.005498917877149609,0.003331221228290554,9.754119805118842
6.88,0,4,1,1.7183580016555007,3586.6723268908536,0.0,6.1940820999172255,160,9,1,1,-18,0,-0.039999999999999994,6.154082099917225,6.2340820999172255,-0.2978269791159902,-0.37058198635344675,-6.411915200662047e-05,0.025037963945679583,0.008257711304918256,9.781604294337438
6.912,0,4,1,1.7183580016555007,3588.390684892509,0.0,6.1940820999172255,160,9,1,1,-17,0,-0.035,6.159082099917225,6.229082099917226,-0.29386331837544266,-0.3706482258833989,-6.410503179148444e-05,0.007211146796015012,0.0072838478993364625,9.845131653706645
6.944,0,4,1,1.7183580016555007,3590.1090428941643,0.0,6.1940820999172255,160,9,1,1,-16,0,-0.03,6.164082099917225,6.224082099917226,-0.28989960405370496,-0.3707109974643699,-6.409189803128698e-05,0.00788511078251397,0.00663948019661981,9.823141577764154
6.976,0,4,1,1.7183580016555007,3591.8274008958197,0.0,6.1940820999172255,160,9,1,1,-15,0,-0.024999999999999994,6.169082099917225,6.219082099917226,-0.2859358458391878,-0.3707707690501581,-6.407960241520266e-05,0.007792178773392404,0.0060319481652176404,9.810537367187887
7.008,0,4,1,1.1457628381751443,3592.9731637339946,-0.5725951634803563,6.223284453254723,160,9,1,0,-15,-1,-0.0795,6.143784453254723,6.28,-0.28197205214444854,-0.37082800837199503,-6.406792812747517e-05,0.007189085226092267,0.005432961169988588,9.79734365380848
7.04,0,4,1,1.7183580016555007,3594.69152173565,0.5725951634803563,6.193509504753745,160,9,1,1,-14,1,-0.015500000000000003,6.178009504753745,6.2090095047537455,-0.2779968231704312,-0.37088332401779955,-6.406209103407626e-05,0.01957226551047739,0.004832700759899213,9.803836269608178
7.072,0,4,1,1.1457628381751443,3595.837284573825,-0.5725951634803563,6.223284453254723,160,9,1,0,-14,-1,-0.07450000000000001,6.148784453254724,6.28,-0.2740332775293303,-0.37093217848056503,-6.405233120886956e-05,-0.004690677727435133,0.008843310298486623,9.823357126895132
7.104,0,4,1,1.7183580016555007,3597.5556425754803,0.5725951634803563,6.193509504753745,160,9,1,1,-13,1,-0.010499999999999999,6.183009504753745,6.204009504753746,-0.270056345019754,-0.37097999354241157,-6.40496291468718e-05,0.020577807059086822,0.0036930809615975265,9.815671888676604
7.136,0,4,1,1.7183580016555007,3599.2740005771357,0.0,6.1940820999172255,160,9,1,1,-12,0,-0.009999999999999995,6.184082099917226,6.204082099917225,-0.2660927154867929,-0.3710215701620558,-6.404324880229621e-05,-0.00805989653962232,0.008410879509680266,9.76168889243028
7.168,0,4,1,1.1457628381751443,3600.4197634153106,-0.5725951634803563,6.223284453254723,160,9,1,0,-12,-1,-0.0645,6.158784453254723,6.28,-0.2621287165174283,-0.3710624424883128,-6.403713948177625e-05,0.002614486495278396,0.0030377773580614205,9.83784927451082
7.2,0,4,1,1.1457628381751443,3601.5655262534856,0.0,6.222711858091243,160,9,1,1,-11,1,-0.0004999999999999978,6.222211858091243,6.2232118580912426,-0.2581485070889927,-0.37110281993399585,-6.40375039472306e-05,0.018453735093428646,0.0028772852439603496,9.780518572907345
