TimeStep,SetPointAngle,Angle,BaseSpeed,SetPointError,Error,DeltaError,DeltaSpeed,LeftSpeed,RightSpeed,X,Y,Z,Roll,Pitch,Yaw
0.016,0,0.0,6.28,160,1,1,0.0595,6.28,6.2205,0.260682,0.40099999999999775,-4.672302181400398e-05,4.790472423893914,1.7065856936779231,9.839331013000553
0.032,0,0.0,6.28,160,1,0,0.060000000000000005,6.28,6.220000000000001,0.25977027244570605,0.4010000043328946,-3.406464018402243e-05,0.11989852107941384,-1.2841851234722929e-05,9.780799527602888
0.048,0,0.9548412538723549,6.23130309605251,160,1,0,0.065,6.28,6.16630309605251,0.2580257842082893,0.4010000402241584,-2.5932093212705995e-05,7.88913359601792,0.0012232241945447002,9.747380488130018
0.064,0,0.9548412538723549,6.2322579373063824,160,1,0,0.07,6.28,6.162257937306382,0.25603433879840176,0.4010008816964044,-2.2420951260326144e-05,0.023803209194364138,-0.004393700361712731,9.822825813471336
0.08,0,0.9548412538723549,6.2322579373063824,160,1,0,0.07500000000000001,6.28,6.157257937306382,0.2540435547211269,0.4010030756149692,-2.019549034177129e-05,0.0291863470313464,-0.005316227169929004,9.830411124188373
0.096,0,0.0,6.280954841253872,160,0,-1,0.0205,6.28,6.260454841253872,0.25205358077971757,0.4010066375318125,-1.8744453574295536e-05,0.006166134025459369,-0.005404021312153366,9.802065434872427
0.112,0,0.0,6.28,160,0,0,0.025,6.28,6.255,0.2500471050842031,0.40101130823288544,-1.7751814798691937e-05,0.05419708520474638,-0.0029870971332483136,9.814951825375697
0.128,0,0.0,6.28,160,0,0,0.025,6.28,6.255,0.24804150485187929,0.40101614682232434,-1.7038199686151764e-05,-0.032955514000305906,-0.0007661498220275229,9.78985177925127
0.14400000000000002,0,0.9548412538723549,6.23130309605251,160,0,0,0.025,6.256303096052511,6.20630309605251,0.24603590913540818,0.40102122366630655,-1.6399756685554767e-05,-0.0378824091667129,-0.0009526092706905603,9.790136142454443
0.16,0,0.9548412538723549,6.2322579373063824,160,0,0,0.025,6.257257937306383,6.207257937306382,0.24404189574342525,0.40102660027006,-1.620061663943316e-05,-0.08115849520644192,-0.0016362846204554722,9.773669826980514
0.176,0,0.9548412538723549,6.2322579373063824,160,0,0,0.025,6.257257937306383,6.207257937306382,0.24204758050472353,0.4010325489646647,-1.609617931909446e-05,-0.03204920537598554,-0.0022485669654157712,9.859514482012454
0.192,0,0.9548412538723549,6.2322579373063824,160,0,0,0.025,6.257257937306383,6.207257937306382,0.24005326756880396,0.4010390673157678,-1.6037990032996552e-05,-0.03006991356268705,-0.002228136609697799,9.803449333305936
0.20800000000000002,0,0.0,6.280954841253872,160,-1,-1,-0.0345,6.246454841253872,6.28,0.23805895691826784,0.40104615415800726,-1.6008718479143882e-05,-0.026368799702993342,-0.0022245797975210535,9.878180627641411
0.224,0,0.0,6.28,160,-1,0,-0.035,6.245,6.28,0.23605473854600784,0.4010536096152425,-1.6005675224152124e-05,0.01828197480773774,-0.00029306467497019513,9.75262140410792
0.24,0,0.0,6.28,160,-1,0,-0.04,6.24,6.28,0.23405075054406813,0.4010606019722383,-1.6007555740478116e-05,-0.014913663048493498,0.001786442931823967,9.735782971584076
0.256,0,0.0,6.28,160,-1,0,-0.045000000000000005,6.235,6.28,0.2320475609504136,0.4010671268405066,-1.600881006514482e-05,-0.010980280451848585,0.0018547384515790499,9.744677462289003
0.272,0,0.9548412538723549,6.23130309605251,160,0,1,0.0095,6.2408030960525105,6.22180309605251,0.23004516976119316,0.4010731408844302,-1.600652619780478e-05,-0.004696044790148212,0.002035663635807939,9.852093148084181
0.28800000000000003,0,0.9548412538723549,6.2322579373063824,160,0,0,0.005,6.237257937306382,6.2272579373063826,0.2280511603078342,0.40107879016926506,-1.600023144212974e-05,-0.029656914575490165,0.0005246459636098587,9.814058304659223
0.304,0,0.0,6.280954841253872,160,-1,-1,-0.0545,6.226454841253872,6.28,0.22605684657325112,0.40108466993067027,-1.5991466553970726e-05,0.008894219073544849,-0.0007724716782614981,9.845535142023147
0.32,0,0.9548412538723549,6.23130309605251,160,0,1,0.0045,6.235803096052511,6.22680309605251,0.22405582274420696,0.4010904994968448,-1.597640195235249e-05,0.03975237629317372,0.001053005703716985,9.80225581113455
0.336,0,0.0,6.280954841253872,160,-1,-1,-0.0595,6.221454841253872,6.28,0.2220618125589801,0.4010958621380851,-1.596093508090049e-05,-0.009574581562326065,0.0009522804000726714,9.789105916739873
0.352,0,0.9548412538723549,6.23130309605251,160,0,1,-0.0005000000000000004,6.230803096052511,6.23180309605251,0.2200615871599865,0.4011011481413433,-1.5937852463107638e-05,0.04755880367241645,0.001200008352170515,9.826738500653256
0.368,0,0.9548412538723549,6.2322579373063824,160,0,0,-0.005,6.2272579373063826,6.237257937306382,0.2180675755885365,0.4011059060669782,-1.5918218344634222e-05,0.0024078286178392636,0.0012893707446924728,9.793408278755766
0.384,0,0.9548412538723549,6.2322579373063824,160,0,0,-0.005,6.2272579373063826,6.237257937306382,0.21607325883485876,0.40111064559597653,-1.5898166506610883e-05,0.031140480234294863,0.0001984457987921311,9.824245810260996
0.4,0,0.9548412538723549,6.2322579373063824,160,0,0,-0.005,6.2272579373063826,6.237257937306382,0.21407894181457107,0.4011152773050473,-1.587905036819215e-05,0.03277229342931404,0.0004258713562943612,9.871927745045152
0.41600000000000004,0,0.9548412538723549,6.2322579373063824,160,0,0,-0.005,6.2272579373063826,6.237257937306382,0.2120846255003612,0.4011197979920222,-1.584971556162218e-05,0.033973558006840376,0.00043982505344042014,9.842157701942629
0.432,0,0.9548412538723549,6.2322579373063824,160,0,0,-0.005,6.2272579373063826,6.237257937306382,0.21009030774462165,0.4011242070813481,-1.5862663391940507e-05,0.03319723113191708,0.00043709328563531434,9.817853122962534
0.448,0,0.9548412538723549,6.2322579373063824,160,0,0,-0.005,6.2272579373063826,6.237257937306382,0.20809598978349858,0.4011285028086124,-1.587620277352167e-05,0.031949847268333796,0.0004476533900444614,9.798195919452876
0.464,0,0.9548412538723549,6.2322579373063824,160,0,0,-0.005,6.2272579373063826,6.237257937306382,0.20610167160252996,0.4011326844399296,-1.589064761520903e-05,0.0303071138801467,0.00044845932638592714,9.80334630639086
0.48,0,0.9548412538723549,6.2322579373063824,160,0,0,-0.005,6.2272579373063826,6.237257937306382,0.20410735319644666,0.40113675152409584,-1.5905965490885243e-05,0.02791778218010651,0.0004509529963160136,9.80476721172552
0.496,0,0.9548412538723549,6.2322579373063824,160,0,0,-0.005,6.2272579373063826,6.237257937306382,0.2021130345655193,0.4011407037932755,-1.592177413294038e-05,0.02515858649999304,0.0004503987057768606,9.814838764098592
0.512,0,0.9548412538723549,6.2322579373063824,160,0,0,-0.005,6.2272579373063826,6.237257937306382,0.20011871571313955,0.40114454109611297,-1.5937471564463415e-05,0.022318217406838158,0.0004517720089256296,9.866006116959563
0.528,0,0.9548412538723549,6.2322579373063824,160,0,0,-0.005,6.2272579373063826,6.237257937306382,0.19812439664429965,0.4011482633532388,-1.5952340588723524e-05,0.018984790687360552,0.00045261424967661657,9.765194239708412
0.544,0,0.9548412538723549,6.2322579373063824,160,0,0,-0.005,6.2272579373063826,6.237257937306382,0.19613007736465204,0.401151870528055,-1.5965635358598795e-05,0.015303524866613743,0.00045235193735769237,9.856220722068434
0.56,0,0.9548412538723549,6.2322579373063824,160,0,0,-0.005,6.2272579373063826,6.237257937306382,0.19413575787995918,0.40115536260779,-1.5976653803848745e-05,0.01154775734082087,0.0004526057928838403,9.833427868054622
0.5760000000000001,0,0.9548412538723549,6.2322579373063824,160,0,0,-0.005,6.2272579373063826,6.237257937306382,0.19214143819581653,0.4011587395913638,-1.5984797322649014e-05,0.007517379728878714,0.000451566176739501,9.846205351333232
0.592,0,0.9548412538723549,6.2322579373063824,160,0,0,-0.005,6.2272579373063826,6.237257937306382,0.1901471183175709,0.4011620014817226,-1.5989617842031983e-05,0.0034008923841661112,0.0004535782738223881,9.84170891818972
0.608,0,0.9548412538723549,6.2322579373063824,160,0,0,-0.005,6.2272579373063826,6.237257937306382,0.1881527982503768,0.4011651482810792,-1.5990851788622723e-05,-0.0007708193975292153,0.00045214071185931636,9.814334193435268
0.624,0,0.9548412538723549,6.2322579373063824,160,0,0,-0.005,6.2272579373063826,6.237257937306382,0.1861584779993439,0.40116817998803306,-1.5988440444782842e-05,-0.004942592023412982,0.00044990510625538894,9.80211571122091
0.64,0,0.9548412538723549,6.2322579373063824,160,0,0,-0.005,6.2272579373063826,6.237257937306382,0.18416415756973098,0.40117109659590466,-1.598253643638782e-05,-0.009032682493652877,0.0004537480935834767,9.793655085132128
0.656,0,0.9548412538723549,6.2322579373063824,160,0,0,-0.005,6.2272579373063826,6.237257937306382,0.18216983696714695,0.4011738980918572,-1.597349657805891e-05,-0.013037260947203455,0.00045476751216497283,9.809417324321737
0.672,0,0.9548412538723549,6.2322579373063824,160,0,0,-0.005,6.2272579373063826,6.237257937306382,0.18017551619772443,0.4011765844565375,-1.5961861891405568e-05,-0.0166791303757379,0.0004505523467007872,9.770083444272416
0.6880000000000001,0,0.9548412538723549,6.2322579373063824,160,0,0,-0.005,6.2272579373063826,6.237257937306382,0.17818119526823653,0.40117915566406376,-1.5948326233470797e-05,-0.020263004423570295,0.0004508015162722237,9.756495157992294
0.704,0,0.9548412538723549,6.2322579373063824,160,0,0,-0.005,6.2272579373063826,6.237257937306382,0.1761868741861387,0.40118161168225724,-1.5933695560119143e-05,-0.023442482274166936,0.00045330147326414454,9.811637596488815
0.72,0,0.9548412538723549,6.2322579373063824,160,0,0,-0.005,6.2272579373063826,6.237257937306382,0.17419255295952787,0.4011839524730479,-1.5918840346703864e-05,-0.026297554189527835,0.0004536480627540964,9.842591219418992
0.736,0,0.9548412538723549,6.2322579373063824,160,0,0,-0.005,6.2272579373063826,6.237257937306382,0.17219823159702205,0.4011861779930119,-1.5904644058978637e-05,-0.028798745884060197,0.0004506327538713797,9.808514161097865
0.752,0,0.9548412538723549,6.2322579373063824,160,0,0,-0.005,6.2272579373063826,6.237257937306382,0.17020391010757552,0.40118828819401214,-1.589195077897343e-05,-0.030743122214740456,0.0004510950236379022,9.810153771586055
0.768,0,0.9548412538723549,6.2322579373063824,160,0,0,-0.005,6.2272579373063826,6.237257937306382,0.16820958850025275,0.4011902830239187,-1.5881515123867748e-05,-0.032474974728406505,0.00045340869834141197,9.80829168658913
0.784,0,0.9548412538723549,6.2322579373063824,160,0,0,-0.005,6.2272579373063826,6.237257937306382,0.16621526684346224,0.4011921622707812,-1.586942057118894e-05,-0.03304401549530979,0.00045520011076247065,9.816635970718792
0.8,0,0.9548412538723549,6.2322579373063824,160,0,0,-0.005,6.2272579373063826,6.237257937306382,0.16422094502919116,0.4011939261077814,-1.5874594324690947e-05,-0.03272380416749681,0.00044982661531966465,9.799486320901888
0.8160000000000001,0,0.9548412538723549,6.2322579373063824,160,0,0,-0.005,6.2272579373063826,6.237257937306382,0.16222662312715325,0.4011955742777675,-1.5882047714499067e-05,-0.031798058689952356,0.0004531051768319716,9.778502265498972
0.8320000000000001,0,0.9548412538723549,6.2322579373063824,160,0,0,-0.005,6.2272579373063826,6.237257937306382,0.16023230114210274,0.40119710672843995,-1.5891749546177378e-05,-0.030496633819132164,0.00045376415781689296,9.828318949966828
0.848,0,0.9548412538723549,6.2322579373063824,160,0,0,-0.005,6.2272579373063826,6.237257937306382,0.1582379790789054,0.40119852340797113,-1.590342662833276e-05,-0.028701143789513828,0.00045569018117524096,9.806997731872244
0.864,0,0.9548412538723549,6.2322579373063824,160,0,0,-0.005,6.2272579373063826,6.237257937306382,0.15624365694252362,0.4011998242662848,-1.591657904094143e-05,-0.026615346914555575,0.0004550520286664413,9.857387166688202
0.88,0,0.9548412538723549,6.2322579373063824,160,0,0,-0.005,6.2272579373063826,6.237257937306382,0.1542493347380801,0.40120100925617497,-1.5930549247023668e-05,-0.023845940081184517,0.0004528279289077146,9.834449341005474
0.896,0,0.0,6.280954841253872,160,0,0,-0.005,6.275954841253872,6.28,0.1522550124709718,0.4012020783342502,-1.5944586372561992e-05,-0.02080981296624642,0.00045388065816191184,9.791795871922284
0.912,0,0.9548412538723549,6.23130309605251,160,0,0,-0.005,6.2263030960525105,6.23630309605251,0.15024606082783087,0.40120305568037395,-1.596801009316924e-05,0.042339073896939236,0.0003156270960243534,9.817313450008072
0.928,0,0.0,6.280954841253872,160,0,0,-0.005,6.275954841253872,6.28,0.14825204299405836,0.4012039644458564,-1.5977370144745068e-05,-0.06973810914820304,0.00031876143893928453,9.803627567807398
0.9440000000000001,0,0.0,6.28,160,0,0,-0.005,6.275,6.28,0.1462430913466815,0.40120477914760283,-1.5988797133919402e-05,0.053438174575011,0.0003211258080448251,9.77787468589569
0.96,0,0.0,6.28,160,0,0,-0.005,6.275,6.28,0.144234291384848,0.40120554541751025,-1.5991162283419263e-05,0.001159453593690627,0.00020339535017642232,9.815147537085391
0.976,0,0.0,6.28,160,0,0,-0.005,6.275,6.28,0.1422254914611087,0.4012062530812435,-1.5984438816292468e-05,0.008311981364457568,0.00023213337570888117,9.807053004513584
0.992,0,0.0,6.28,160,0,0,-0.005,6.275,6.28,0.1402166915567757,0.4012069014763938,-1.5969054221406237e-05,0.01482315546814719,0.00023436527530493504,9.818247875913618
1.008,0,0.0,6.28,160,0,0,-0.005,6.275,6.28,0.13820789166884903,0.40120749017978596,-1.594594057131686e-05,0.021088515213117043,0.00023539806978049624,9.813600603483524
1.024,0,0.0,6.28,160,0,0,-0.005,6.275,6.28,0.13619909179580916,0.40120801892935265,-1.5916482815072144e-05,0.026820169090143193,0.00023497640080558625,9.74370586562843
1.04,0,0.0,6.28,160,0,0,-0.005,6.275,6.28,0.1341902919359001,0.4012084875708097,-1.588243879793727e-05,0.03223545038825331,0.00023722292296012544,9.803505734308454
1.056,0,0.0,6.28,160,0,0,-0.005,6.275,6.28,0.13218149413408503,0.40120889512052366,-1.58208820283251e-05,0.034823673777035186,0.00024302051639546113,9.786452095254925
1.072,0,0.0,6.28,160,0,0,-0.005,6.275,6.28,0.13017269382538213,0.401209243988863,-1.584442551641474e-05,0.03373038994377687,0.00022671962434440282,9.759557154140747
1.088,0,0.0,6.28,160,0,0,-0.005,6.275,6.28,0.12816389363004593,0.40120953287140165,-1.5865589769957153e-05,0.03199431045060548,0.0002361656104481437,9.789747892988187
1.104,0,0.0,6.28,160,0,0,-0.005,6.275,6.28,0.1261550935044568,0.40120976180673606,-1.588549060521291e-05,0.029893354498985246,0.00023596008765550304,9.810761546535877
1.12,0,0.0,6.28,160,0,0,-0.005,6.275,6.28,0.12414629342181675,0.4012099308299425,-1.5904696668081475e-05,0.027553740795189942,0.0002360742993366962,9.808044239131208
1.1360000000000001,0,0.0,6.28,160,0,0,-0.005,6.275,6.28,0.1221374933661713,0.4012100399723176,-1.592318672260888e-05,0.024593849318812172,0.00023491281587692924,9.79200746574085
1.1520000000000001,0,0.0,6.28,160,0,0,-0.005,6.275,6.28,0.12012869332827099,0.4012100892613337,-1.59405783837184e-05,0.021310928393925104,0.0002344657426269546,9.783188261771592
1.168,0,0.0,6.28,160,0,0,-0.005,6.275,6.28,0.11811989330287757,0.40121007872056674,-1.5956296338473855e-05,0.01767194252654799,0.00023545242716021495,9.782216544131337
1.184,0,0.0,6.28,160,0,0,-0.005,6.275,6.28,0.11611109328703537,0.40121000836961757,-1.596969959427423e-05,0.013839311075903183,0.00023475509235404475,9.78148269704114
1.2,0,0.0,6.28,160,0,0,-0.005,6.275,6.28,0.11410229327900175,0.4012098782240393,-1.5980179090867644e-05,0.009788247100916324,0.00023351196550584565,9.818991804331658
1.216,0,0.0,6.28,160,0,0,-0.005,6.275,6.28,0.11209349327763632,0.4012096882952783,-1.5987231963611806e-05,0.005548965794492468,0.00023426182423557716,9.788866265247444
1.232,0,0.0,6.28,160,0,0,-0.005,6.275,6.28,0.11008469328211005,0.4012094385906376,-1.599051577554425e-05,0.001282231111119624,0.0002352299006332566,9.856304635480818
1.248,0,0.0,6.28,160,0,0,-0.005,6.275,6.28,0.10807589329183279,0.40120912911327056,-1.598988444034312e-05,-0.003053732911522125,0.00023480813555155862,9.827509813973947
1.264,0,0.0,6.28,160,0,0,-0.005,6.275,6.28,0.10606709330651853,0.4012087598622098,-1.5985406863566753e-05,-0.0072931105156713305,0.00023607794065915035,9.802022913949495
1.28,0,0.0,6.28,160,0,0,-0.005,6.275,6.28,0.10405829332632176,0.4012083308324373,-1.5977369217717516e-05,-0.011523598249745822,0.00023585720078093193,9.851504919463698
1.296,0,0.0,6.28,160,0,0,-0.005,6.275,6.28,0.10204949335198936,0.401207842015,-1.5966262009151425e-05,-0.01546520222925477,0.0002351059551196664,9.818194300187882
1.312,0,0.0,6.28,160,0,0,-0.005,6.275,6.28,0.10004069338498374,0.4012072933971705,-1.595275353342626e-05,-0.019218120504890794,0.0002343762994320032,9.797998876220959
1.328,0,0.0,6.28,160,0,0,-0.005,6.275,6.28,0.09803189342754481,0.4012066849626569,-1.5937651825793583e-05,-0.022654660348044874,0.00023505393640089832,9.819600182401706
1.344,0,0.0,6.28,160,0,0,-0.005,6.275,6.28,0.09602309348267211,0.40120601669185796,-1.592185770706543e-05,-0.025699601653822096,0.00023454818529678576,9.833345276403907
1.36,0,0.0,6.28,160,0,0,-0.005,6.275,6.28,0.09401429355402187,0.4012052885621642,-1.5906311931256426e-05,-0.0285552671443753,0.00023366017748753344,9.794031655159078
1.3760000000000001,0,0.0,6.28,160,0,0,-0.005,6.275,6.28,0.09200549364572816,0.4012045005482991,-1.589193971521588e-05,-0.030964833604673336,0.00023389016774017123,9.788708629674082
1.3920000000000001,0,0.0,6.28,160,0,0,-0.005,6.275,6.28,0.08999669376216775,0.4012036526226991,-1.587959603491576e-05,-0.03274932351292123,0.00023540409022727534,9.839667868770542
1.408,0,0.0,6.28,160,0,0,-0.005,6.275,6.28,0.08798789400276025,0.40120274496812075,-1.5863472070999987e-05,-0.03347701520236414,0.00023461663964272268,9.769859916944386
1.424,0,0.0,6.28,160,0,0,-0.005,6.275,6.28,0.0859790941836947,0.4012017770181617,-1.5871071586620947e-05,-0.032870895631899,0.00023714582021193198,9.803971507373847
1.44,0,0.0,6.28,160,0,0,-0.005,6.275,6.28,0.08397029440889076,0.40120074899447355,-1.5880504228630438e-05,-0.03179544869665545,0.00023566813731709763,9.79166396497828
1.456,0,0.0,6.28,160,0,0,-0.005,6.275,6.28,0.08196149467704032,0.4011996608621859,-1.5891808914803712e-05,-0.03036217256007606,0.00023679132229272235,9.8056100165124
1.472,0,0.0,6.28,160,0,0,-0.005,6.275,6.28,0.07995269498731919,0.4011985125894392,-1.5904755551660044e-05,-0.028476494780542632,0.00023637917456387558,9.827768586309334
1.488,0,0.0,6.28,160,0,0,-0.005,6.275,6.28,0.07794389533926477,0.40119730414715504,-1.5918857277211207e-05,-0.02616754327652423,0.00023549603046667464,9.836995548523806
1.504,0,0.0,6.28,160,0,0,-0.005,6.275,6.28,0.07593509573277143,0.4011960355090169,-1.5933456767541418e-05,-0.023319525678974554,0.00023559527038973036,9.813156286953971
1.52,0,0.0,6.28,160,0,0,-0.005,6.275,6.28,0.07392629616815635,0.40119470665157486,-1.5947801997958158e-05,-0.020171596537144572,0.0002371441104094186,9.79142421658168
1.536,0,0.0,6.28,160,0,0,-0.005,6.275,6.28,0.07191749664624066,0.40119331755441134,-1.5961114405962235e-05,-0.01665331608289623,0.0002374096175642023,9.860125920832706
1.552,0,0.0,6.28,160,0,0,-0.005,6.275,6.28,0.06990869716840589,0.40119186820032776,-1.5972650171546324e-05,-0.013170456251048096,0.00023666736482669376,9.744951126548083
1.568,0,0.0,6.28,160,0,0,-0.005,6.275,6.28,0.06789989773659905,0.4011903585755266,-1.598175402290139e-05,-0.009330929282038217,0.00023666174372199056,9.763010403796821
1.584,0,0.0,6.28,160,0,0,-0.005,6.275,6.28,0.06589109835327371,0.40118878866976904,-1.5987904318427726e-05,-0.005340467192115334,0.0002356639614442301,9.789213777889158
1.6,0,0.0,6.28,160,0,0,-0.005,6.275,6.28,0.06388229902126707,0.4011871584764983,-1.5990747974240285e-05,-0.0012497545052311638,0.00023791580453797433,9.804533931770255
1.616,0,0.9548412538723549,6.23130309605251,160,1,1,0.0545,6.28,6.17680309605251,0.06187349974362502,0.40118546799291777,-1.5990123958439448e-05,0.0028419783868647427,0.00023565441024355976,9.832740752078653
1.6320000000000001,0,0.0,6.280954841253872,160,0,-1,-0.0045,6.276454841253872,6.28,0.059880410668043574,0.40118406931991984,-1.5989323689225704e-05,-0.057672793870271445,-0.002436204413209311,9.783451854645492
1.6480000000000001,0,0.0,6.28,160,0,0,0.0,6.28,6.28,0.057871378636099535,0.4011835889570457,-1.5984589900982366e-05,0.06974891467223944,-0.002270936659809327,9.815505222717867
1.6640000000000001,0,0.0,6.28,160,0,0,0.0,6.28,6.28,0.05586177866417342,0.4011830441670445,-1.597645577481807e-05,0.01414403730891949,0.00019193940835225058,9.81469058470171
1.68,0,0.0,6.28,160,0,0,0.0,6.28,6.28,0.05385217875978499,0.40118248018339053,-1.5965483412479914e-05,0.01567109088499911,6.575162545268228e-05,9.787708601182759
1.696,0,0.0,6.28,160,0,0,0.0,6.28,6.28,0.0518425789024431,0.4011819035287199,-1.595233548832252e-05,0.019209943653603793,4.239380721865917e-05,9.772464350840812
1.712,0,0.0,6.28,160,0,0,0.0,6.28,6.28,0.04983297906417522,0.4011813186289624,-1.593780241762599e-05,0.022789820150389377,2.6732326001203857e-05,9.751227516934003
1.728,0,0.0,6.28,160,0,0,0.0,6.28,6.28,0.047823379230805804,0.4011807284399851,-1.592275449193055e-05,0.025605316455820638,1.6407190628329464e-05,9.827900970761396
1.744,0,0.0,6.28,160,0,0,0.0,6.28,6.28,0.04581377939528897,0.4011801349060188,-1.5908090316025733e-05,0.0280883778633727,1.0066640089890837e-05,9.83463115757508
1.76,0,0.0,6.28,160,0,0,0.0,6.28,6.28,0.04380417955406263,0.4011795392874387,-1.5894683918965535e-05,0.030242221983028353,5.867782189203845e-06,9.795188314269149
1.776,0,0.0,6.28,160,0,0,0.0,6.28,6.28,0.041794579705180794,0.40117894238974244,-1.5883333351698198e-05,0.0322188427044697,3.37348418627883e-06,9.80082500039983
1.792,0,0.0,6.28,160,0,0,0.0,6.28,6.28,0.03978497984745993,0.40117834472038155,-1.587471370551735e-05,0.03332043286826666,1.8455910939614692e-06,9.80386462492248
1.808,0,0.0,6.28,160,0,0,0.0,6.28,6.28,0.037775380202322406,0.40117774672390466,-1.5869720664751785e-05,0.033234665052393614,1.1796085356619165e-06,9.834426125020526
1.824,0,0.0,6.28,160,0,0,0.0,6.28,6.28,0.03576578026023907,0.4011771482935553,-1.5877269675623057e-05,0.032389070501558426,3.907058309055065e-07,9.832709043305108
1.84,0,0.0,6.28,160,0,0,0.0,6.28,6.28,0.03375618032745245,0.4011765497276515,-1.5886996462910127e-05,0.03114144731634286,1.442440488460106e-07,9.791700269264538
1.856,0,0.0,6.28,160,0,0,0.0,6.28,6.28,0.03174658039919811,0.401175951089421,-1.5898727183948774e-05,0.029427127157590948,2.2842580723693204e-08,9.8166942656547
1.872,0,0.0,6.28,160,0,0,0.0,6.28,6.28,0.029736980473184852,0.4011753524149378,-1.5912023412299747e-05,0.027171907225988383,-2.8950562181061308e-08,9.837507496343774
1.8880000000000001,0,0.0,6.28,160,0,0,0.0,6.28,6.28,0.027727380548588657,0.4011747537241286,-1.5926260383613416e-05,0.024830883630062296,-4.406941547474969e-08,9.823140188569903
1.9040000000000001,0,0.0,6.28,160,0,0,0.0,6.28,6.28,0.025717780625338273,0.40117415502753073,-1.5940697769039475e-05,0.021662118763085814,-4.129748343076091e-08,9.79331338656247
1.92,0,0.0,6.28,160,0,0,0.0,6.28,6.28,0.023708180703608358,0.40117355633036833,-1.5954545185617452e-05,0.018397446261533352,-3.1626949350644326e-08,9.808751872496584
1.936,0,0.0,6.28,160,0,0,0.0,6.28,6.28,0.02169858078347529,0.4011729576349612,-1.596702292390971e-05,0.015083735104545068,-1.9716430662804946e-08,9.815444011075572
1.952,0,0.0,6.28,160,0,0,0.0,6.28,6.28,0.019688980864711127,0.4011723589421161,-1.5977417081244893e-05,0.011318207621373711,-8.585112551276127e-09,9.805689662872789
1.968,0,0.0,6.28,160,0,0,0.0,6.28,6.28,0.01767938094669902,0.40117176025190576,-1.5985127612102787e-05,0.0074326942756564734,8.289015494803256e-10,9.791641504226153
1.984,0,0.0,6.28,160,0,0,0.0,6.28,6.28,0.01566978102845346,0.40117116156408944,-1.5989707584374013e-05,0.003379847043596074,8.268068298382419e-09,9.765676512759796
2.0,0,0.0,6.28,160,0,0,0.0,6.28,6.28,0.013660181108725179,0.4011705628783282,-1.5990892039085408e-05,-0.0007000242186800943,1.3840824713278294e-08,9.778825015160024
2.016,0,0.0,6.28,160,0,0,0.0,6.28,6.28,0.01165058118616545,0.401169964194285,-1.5988615206656218e-05,-0.004753313375490511,1.775270384245601e-08,9.815651229083999
2.032,0,0.0,6.28,160,0,0,0.0,6.28,6.28,0.00964098125952073,0.4011693655116652,-1.598301535503041e-05,-0.008776252270912948,2.0545857232081302e-08,9.809954557664911
2.048,0,0.0,6.28,160,0,0,0.0,6.28,6.28,0.007631381327826844,0.40116876683022584,-1.5974427172821618e-05,-0.012584382143936252,2.2183612612611484e-08,9.80782722142112
2.064,0,0.0,6.28,160,0,0,0.0,6.28,6.28,0.00562178139057366,0.40116816814977163,-1.5963362262441314e-05,-0.016279977003314086,2.2738410406189343e-08,9.7876263996333
2.08,0,0.0,6.28,160,0,0,0.0,6.28,6.28,0.003612181447815916,0.40116756947014603,-1.5950478980885155e-05,-0.0197980050897548,2.3046011037190113e-08,9.824477572068659
2.096,0,0.0,6.28,160,0,0,0.0,6.28,6.28,0.0016025815002136783,0.4011669707912213,-1.5936543470295925e-05,-0.02298635729721792,2.264252064186294e-08,9.813730475520481
2.112,0,0.0,6.28,160,0,0,0.0,6.28,6.28,-0.00040701845100440156,0.40116637211289013,-1.5922384226620817e-05,-0.025705250762997966,2.1901628804944188e-08,9.793446518791834
2.128,0,0.0,6.28,160,0,0,0.0,6.28,6.28,-0.002416618404151402,0.40116577343505866,-1.5908842926492736e-05,-0.028019677967729462,2.0457320487938135e-08,9.816646962572118
2.144,0,0.0,6.28,160,0,0,0.0,6.28,6.28,-0.004426218357252456,0.4011651747576416,-1.589672444833254e-05,-0.03004317000111571,1.9081230887118548e-08,9.839208630952353
2.16,0,0.0,6.28,160,0,0,0.0,6.28,6.28,-0.006435818308253426,0.40116457608055867,-1.58867490654465e-05,-0.03155509274102614,1.7267948367249666e-08,9.856316646007404
2.176,0,0.0,6.28,160,0,0,0.0,6.28,6.28,-0.008445418255241172,0.40116397740373233,-1.587950965827728e-05,-0.03275351203481166,1.5364579132102617e-08,9.79104867057424
2.192,0,0.0,6.28,160,0,0,0.0,6.28,6.28,-0.010455018182908426,0.40116337879030595,-1.5873193764441573e-05,-0.032867886473124726,-4.820649119669201e-07,9.808951188943851
2.208,0,0.0,6.28,160,0,0,0.0,6.28,6.28,-0.01246461811470657,0.4011627801032608,-1.5877124427689585e-05,-0.0327718662558157,5.414756514849328e-07,9.849708494922874
2.224,0,0.0,6.28,160,0,0,0.0,6.28,6.28,-0.014474218038313084,0.4011621814205128,-1.58838120212796e-05,-0.031920394332906575,-6.4318160365494644e-09,9.836916716797482
2.24,0,0.0,6.28,160,0,0,0.0,6.28,6.28,-0.016483817954904806,0.40116158274047786,-1.589306267845217e-05,-0.030522543336586147,-3.6525668207592085e-09,9.71250277553064
2.2560000000000002,0,0.0,6.28,160,0,0,0.0,6.28,6.28,-0.018493417865912055,0.4011609840621037,-1.5904476599489653e-05,-0.02866758457322082,-2.8377892265717728e-09,9.88201063974506
2.2720000000000002,0,0.0,6.28,160,0,0,0.0,6.28,6.28,-0.020503017772910404,0.4011603853846879,-1.5917471378397094e-05,-0.02644830009408589,-3.235554326653557e-09,9.816657971956596
2.2880000000000003,0,0.0,6.28,160,0,0,0.0,6.28,6.28,-0.022512617677461925,0.4011597867077537,-1.5931336091670398e-05,-0.02384928538285485,-4.401271090096695e-09,9.798464275005234
2.3040000000000003,0,0.0,6.28,160,0,0,0.0,6.28,6.28,-0.02452221758093956,0.4011591880309715,-1.594528600591151e-05,-0.02088014375257021,-6.06944005809038e-09,9.848666342382796
2.32,0,0.0,6.28,160,0,0,0.0,6.28,6.28,-0.026531817484367094,0.40115858935410775,-1.5958517181996826e-05,-0.01747901185889491,-7.997382111812986e-09,9.784230997631035
2.336,0,0.0,6.28,160,0,0,0.0,6.28,6.28,-0.02854141738830191,0.4011579906769931,-1.597025934931863e-05,-0.014020639934758397,-1.014025811195313e-08,9.774521194598671
2.352,0,0.0,6.28,160,0,0,0.0,6.28,6.28,-0.03055101729277971,0.40115739199950146,-1.5979824942157286e-05,-0.010287114871375723,-1.2243263432818486e-08,9.857075192406905
2.368,0,0.0,6.28,160,0,0,0.0,6.28,6.28,-0.03256061719733087,0.4011567933215372,-1.598665204663105e-05,-0.006352594219965173,-1.4376675025636072e-08,9.835875469518276
2.384,0,0.0,6.28,160,0,0,0.0,6.28,6.28,-0.03457021710106752,0.40115619464302643,-1.599033912884351e-05,-0.002377909848033079,-1.635221263030362e-08,9.846890505739427
2.4,0,0.0,6.28,160,0,0,0.0,6.28,6.28,-0.03657981700283049,0.401155595963912,-1.5990669751228884e-05,0.0016607920394994232,-1.8265917407791694e-08,9.841938806082874
2.416,0,0.0,6.28,160,0,0,0.0,6.28,6.28,-0.03858941690137671,0.40115499728414983,-1.5987625980783127e-05,0.005663633412006752,-2.0207121226146202e-08,9.801727463719205
2.432,0,0.0,6.28,160,0,0,0.0,6.28,6.28,-0.04059901679558224,0.4011543986037069,-1.598138980405013e-05,0.009601140624540152,-2.15260145333106e-08,9.795543286135084
2.448,0,0.0,6.28,160,0,0,0.0,6.28,6.28,-0.04260861668463359,0.4011537999225601,-1.5972332534483838e-05,0.013309524509079776,-2.281682893797555e-08,9.807629727378972
2.464,0,0.0,6.28,160,0,0,0.0,6.28,6.28,-0.044618216568181414,0.4011532012406951,-1.5960992887940895e-05,0.017016418143601518,-2.3968794212978998e-08,9.802192023276971
2.48,0,0.0,6.28,160,0,0,0.0,6.28,6.28,-0.046627816446435655,0.4011526025581058,-1.594804505783594e-05,0.020284178532828295,-2.4849244947102625e-08,9.88366859614826
2.496,0,0.0,6.28,160,0,0,0.0,6.28,6.28,-0.04863741632018872,0.40115200387479416,-1.5934258706417834e-05,0.02342033938436314,-2.5386565347145185e-08,9.826427623080825
2.512,0,0.0,6.28,160,0,0,0.0,6.28,6.28,-0.05064701619076315,0.4011514051907697,-1.592045326114823e-05,0.026125946615858445,-2.600876236545902e-08,9.840145794347718
2.528,0,0.0,6.28,160,0,0,0.0,6.28,6.28,-0.05265661605988964,0.4011508065060493,-1.5907449240713106e-05,0.0284377242746975,-2.584779296358792e-08,9.789836767252085
2.544,0,0.0,6.28,160,0,0,0.0,6.28,6.28,-0.054666215929531047,0.401150207820657,-1.5896019507617362e-05,0.030213290668575064,-2.583920669382832e-08,9.787180909046912
2.56,0,0.0,6.28,160,0,0,0.0,6.28,6.28,-0.05667581580167502,0.40114960913462405,-1.5886843347853036e-05,0.031571379708966896,-2.545759325231109e-08,9.847031344856116
2.576,0,0.0,6.28,160,0,0,0.0,6.28,6.28,-0.0586854156781218,0.40114901044798795,-1.588046610831277e-05,0.03239791378745323,-2.482714448886281e-08,9.80588956479891
2.592,0,0.0,6.28,160,0,0,0.0,6.28,6.28,-0.06069501556029484,0.40114841176079263,-1.5877266792021713e-05,0.032953259375887646,-2.396106790349123e-08,9.815147755853022
2.608,0,0.0,6.28,160,0,0,0.0,6.28,6.28,-0.06270461544091044,0.40114781307309066,-1.587745860407927e-05,0.0328710122194991,-2.209913348721759e-08,9.84191323686436
2.624,0,0.0,6.28,160,0,0,0.0,6.28,6.28,-0.06471421533985618,0.401147214384932,-1.5881846072597974e-05,0.032106355090643114,-2.0871593209067662e-08,9.861756291105204
2.64,0,0.0,6.28,160,0,0,0.0,6.28,6.28,-0.06672381524464453,0.4011466156963791,-1.5889229693592105e-05,0.03128587467000927,-1.957431808236336e-08,9.863812850300715
2.656,0,0.0,6.28,160,0,0,0.0,6.28,6.28,-0.0687334151546164,0.4011460170074956,-1.5899209043343174e-05,0.029755227841773767,-1.7713366641518603e-08,9.762036750360782
2.672,0,0.9548412538723549,6.23130309605251,160,1,1,0.0595,6.28,6.1718030960525105,-0.07074301506867177,0.4011454183183489,-1.5911215631323958e-05,0.027767158061844325,-1.589084465615133e-08,9.791062115333506
2.688,0,0.0,6.280954841253872,160,0,-1,0.0005000000000000004,6.28,6.28,-0.07273530481571701,0.40114518935592586,-1.5941601174292858e-05,-0.045645061906700674,-0.00275144671439618,9.832605889595925
2.704,0,0.0,6.28,160,0,0,0.005,6.28,6.275,-0.07474490396479196,0.40114591358943774,-1.5953213924606302e-05,0.08667190331890548,-0.0023703823725779063,9.81142769007977
2.72,0,0.0,6.28,160,0,0,0.005,6.28,6.275,-0.07675370398586452,0.4011466206899766,-1.5964774983844715e-05,0.012717390539554833,-1.282354940451353e-05,9.793923732735845
2.736,0,0.0,6.28,160,0,0,0.005,6.28,6.275,-0.07876250383518858,0.40114736885990177,-1.5974855827822e-05,0.012359174680694716,-0.0001700456022938657,9.805645026582066
2.7520000000000002,0,0.0,6.28,160,0,0,0.005,6.28,6.275,-0.08077130362940847,0.401148164481666,-1.5982848972870625e-05,0.008842602191811664,-0.00019429915184259505,9.855297768608597
2.7680000000000002,0,0.0,6.28,160,0,0,0.005,6.28,6.275,-0.08278010339574503,0.4011490118765326,-1.5988277165339057e-05,0.005099803498980318,-0.0002091400817521944,9.829484207242253
2.7840000000000003,0,0.0,6.28,160,0,0,0.005,6.28,6.275,-0.08478890314572834,0.40114991392637334,-1.5990817374880034e-05,0.0012832474083678022,-0.00021898260167221793,9.850991379833431
2.8000000000000003,0,0.0,6.28,160,0,0,0.005,6.28,6.275,-0.0867977028828017,0.4011508725256169,-1.59903184851571e-05,-0.002548421986031053,-0.00022406981465476894,9.833460448848092
2.816,0,0.0,6.28,160,0,0,0.005,6.28,6.275,-0.08880650260646082,0.4011518889034609,-1.5986809799967486e-05,-0.006355604291864039,-0.00022997776501097535,9.818868445646347
2.832,0,0.0,6.28,160,0,0,0.005,6.28,6.275,-0.09081530231438535,0.40115296384841387,-1.5980499249987346e-05,-0.010072757052639922,-0.00023203953473385896,9.849817174651342
2.848,0,0.0,6.28,160,0,0,0.005,6.28,6.275,-0.09282410200344922,0.40115409786174877,-1.5971761122224315e-05,-0.013584898560952812,-0.00023337455679835488,9.777905677107428
2.864,0,0.0,6.28,160,0,0,0.005,6.28,6.275,-0.09483290167014236,0.4011552912605583,-1.596111392106539e-05,-0.016926742998778162,-0.00023586659914470346,9.800117526325858
2.88,0,0.0,6.28,160,0,0,0.005,6.28,6.275,-0.09684170131071547,0.40115654424584773,-1.594918963440141e-05,-0.020007926622400887,-0.00023519405847846338,9.830134927745387
2.896,0,0.0,6.28,160,0,0,0.005,6.28,6.275,-0.09885050092122422,0.4011578569468185,-1.5936696223852256e-05,-0.022775897591883205,-0.00023429979400584633,9.817880927939335
2.912,0,0.0,6.28,160,0,0,0.005,6.28,6.275,-0.1008593004975646,0.40115922944920457,-1.5924375573381916e-05,-0.02527033432012302,-0.00023503788510836928,9.839033519226323
2.928,0,0.0,6.28,160,0,0,0.005,6.28,6.275,-0.10286810003553973,0.401160661813088,-1.5912959403745555e-05,-0.027475609130451075,-0.00023556099612247785,9.791574147339931
2.944,0,0.0,6.28,160,0,0,0.005,6.28,6.275,-0.10487689953096546,0.40116215408387257,-1.590312578055378e-05,-0.029046315237326547,-0.00023613042651530547,9.835324893697152
2.96,0,0.0,6.28,160,0,0,0.005,6.28,6.275,-0.10688569897980466,0.40116370629887016,-1.5895458805936097e-05,-0.03015651272706106,-0.0002356619515421893,9.767314365647312
2.976,0,0.0,6.28,160,0,0,0.005,6.28,6.275,-0.10889449837830922,0.4011653184911124,-1.5890413892783936e-05,-0.031116096879707296,-0.00023431624287582873,9.797407310902273
2.992,0,0.0,6.28,160,0,0,0.005,6.28,6.275,-0.11090329772314732,0.4011669906914345,-1.5888290687509146e-05,-0.0312669528818357,-0.00023729271752195088,9.748873754685691
3.008,0,0.0,6.28,160,0,0,0.005,6.28,6.275,-0.1129120970114938,0.4011687229295001,-1.5889215251276706e-05,-0.03125554598716446,-0.00023539145972877948,9.800093690021168
3.024,0,0.0,6.28,160,0,0,0.005,6.28,6.275,-0.11492089624106883,0.40117051523419067,-1.5893132558800205e-05,-0.030656496715094513,-0.00023661336776030855,9.803491718301606
3.04,0,0.9548412538723549,6.23130309605251,160,0,0,0.005,6.23630309605251,6.2263030960525105,-0.11692969541011652,0.4011723676336235,-1.589980976038699e-05,-0.029597323651521172,-0.0002362090829314964,9.802053279660761
3.056,0,0.9548412538723549,6.2322579373063824,160,0,0,0.005,6.237257937306382,6.2272579373063826,-0.11892371243179438,0.40117427973961434,-1.5890922291202786e-05,-0.0891484961468378,-0.00035128457538798204,9.796431246585874
3.072,0,0.9548412538723549,6.2322579373063824,160,0,0,0.005,6.237257937306382,6.2272579373063826,-0.12091803382997089,0.4011763121268479,-1.5885071913140578e-05,-0.030760370864375105,-0.0004642647257085125,9.848758519746276
3.088,0,0.9548412538723549,6.2322579373063824,160,0,0,0.005,6.237257937306382,6.2272579373063826,-0.12291235517261216,0.40117846298954823,-1.5882262089495988e-05,-0.03232208515248472,-0.00046560217027668177,9.848459268162827
3.104,0,0.9548412538723549,6.2322579373063824,160,0,0,0.005,6.237257937306382,6.2272579373063826,-0.12490667641081873,0.40118073132545196,-1.5882665374692892e-05,-0.03221287750033362,-0.0004578062892922204,9.821421613691212
3.12,0,0.9548412538723549,6.2322579373063824,160,0,0,0.005,6.237257937306382,6.2272579373063826,-0.12690099752608452,0.4011831164936027,-1.5886261539043572e-05,-0.03151876623093538,-0.0004556080190873086,9.822202306576305
3.136,0,0.9548412538723549,6.2322579373063824,160,0,0,0.005,6.237257937306382,6.2272579373063826,-0.12889531850469396,0.40118561809704184,-1.5892839278193807e-05,-0.03041781731339312,-0.00045572995459912445,9.786247133220483
3.152,0,0.0,6.280954841253872,160,-1,-1,-0.0545,6.226454841253872,6.28,-0.13088963933605122,0.4011882359004002,-1.5902009264165753e-05,-0.029345214164102996,-0.00045557136079622405,9.7867350589931
3.168,0,0.9548412538723549,6.23130309605251,160,0,1,0.0045,6.235803096052511,6.22680309605251,-0.132890670047306,0.401190801534601,-1.5920640479456794e-05,0.00026053908106812043,0.0010036551417228051,9.798554887770068
3.184,0,0.9548412538723549,6.2322579373063824,160,0,0,0.0,6.2322579373063824,6.2322579373063824,-0.13488468649848162,0.40119287208834514,-1.5932187016147112e-05,-0.05094080201935925,0.0011155384649445942,9.846215823902268
3.2,0,0.9548412538723549,6.2322579373063824,160,0,0,0.0,6.2322579373063824,6.2322579373063824,-0.13687900782331774,0.40119504068549694,-1.594454265301838e-05,-0.01989576608840716,-0.00026505769425756893,9.82114729360454
3.216,0,0.9548412538723549,6.2322579373063824,160,0,0,0.0,6.2322579373063824,6.2322579373063824,-0.13887332914877015,0.40119721433823685,-1.5956643479850263e-05,-0.01807099080611758,-1.817657418963437e-05,9.785864170325308
3.232,0,0.9548412538723549,6.2322579373063824,160,0,0,0.0,6.2322579373063824,6.2322579373063824,-0.14086765046926275,0.40119939136384725,-1.596776735564992e-05,-0.014892080713403444,-1.189999741658638e-05,9.8342842123539
3.248,0,0.9548412538723549,6.2322579373063824,160,0,0,0.0,6.2322579373063824,6.2322579373063824,-0.14286197179046817,0.4012015706113372,-1.597725214623827e-05,-0.011362391078106906,-7.642686245699834e-06,9.826540299829675
3.2640000000000002,0,0.9548412538723549,6.2322579373063824,160,0,0,0.0,6.2322579373063824,6.2322579373063824,-0.14485629311436965,0.4012037513023849,-1.5984533761255817e-05,-0.007780915466993761,-4.82635440052727e-06,9.805568416738057
3.2800000000000002,0,0.0,6.280954841253872,160,-1,-1,-0.0595,6.221454841253872,6.28,-0.14685061444091901,0.4012059329186963,-1.598917923243369e-05,-0.004064236858184892,-3.007898120927889e-06,9.806344701698588
3.2960000000000003,0,0.9548412538723549,6.23130309605251,160,0,1,-0.0005000000000000004,6.230803096052511,6.23180309605251,-0.14885084589134223,0.4012079413206755,-1.599095616824399e-05,0.0239572908342911,0.001410210295601861,9.783191551536085
3.3120000000000003,0,0.9548412538723549,6.2322579373063824,160,0,0,-0.005,6.2272579373063826,6.237257937306382,-0.15084486270490857,0.4012094077171901,-1.598878292850478e-05,-0.019679826841527692,0.001376031885633806,9.797248833085083
3.3280000000000003,0,0.9548412538723549,6.2322579373063824,160,0,0,-0.005,6.2272579373063826,6.237257937306382,-0.1528391846784001,0.40121085118038646,-1.5983748758314695e-05,0.009522546977283788,0.0002095215316417398,9.80082199199755
3.344,0,0.9548412538723549,6.2322579373063824,160,0,0,-0.005,6.2272579373063826,6.237257937306382,-0.15483350673032045,0.4012121827154584,-1.597614637810149e-05,0.01193068989199542,0.0004403837339708639,9.785268746840122
3.36,0,0.9548412538723549,6.2322579373063824,160,0,0,-0.005,6.2272579373063826,6.237257937306382,-0.15682782884395008,0.4012134009763232,-1.5966423442322075e-05,0.015330464257093616,0.0004449743079234357,9.84336858499357
3.376,0,0.9548412538723549,6.2322579373063824,160,0,0,-0.005,6.2272579373063826,6.237257937306382,-0.15882215101908653,0.4012145050562325,-1.5955155923227243e-05,0.018537958064861474,0.00045025922854628227,9.840476591102687
3.392,0,0.9548412538723549,6.2322579373063824,160,0,0,-0.005,6.2272579373063826,6.237257937306382,-0.16081647325227108,0.40121549435586773,-1.5943012568518308e-05,0.021548766249804438,0.0004508502042895396,9.827505965682224
3.408,0,0.9548412538723549,6.2322579373063824,160,0,0,-0.005,6.2272579373063826,6.237257937306382,-0.16281079553862357,0.4012163684914538,-1.5930714560939002e-05,0.024048272046662295,0.00045439260632024637,9.768297406358032
3.424,0,0.9548412538723549,6.2322579373063824,160,0,0,-0.005,6.2272579373063826,6.237257937306382,-0.16480511787278337,0.4012171272278925,-1.5918992411498648e-05,0.026242996421540727,0.0004519390068790327,9.754102017632182
3.44,0,0.0,6.280954841253872,160,0,0,-0.005,6.275954841253872,6.28,-0.1667994402493155,0.4012177704311999,-1.5908542456586836e-05,0.028128679783159055,0.00045264816271118637,9.781570868763326
3.456,0,0.0,6.28,160,0,0,-0.005,6.275,6.28,-0.168808391965326,0.40121832247137257,-1.5881544690872842e-05,0.08926661626523438,0.00030310965321437395,9.844963836221753
3.472,0,0.0,6.28,160,0,0,-0.005,6.275,6.28,-0.17081719042560062,0.4012188265382868,-1.5835584015052098e-05,0.033327148376050955,0.0002051942535578686,9.82323366333977
3.488,0,0.0,6.28,160,0,0,-0.005,6.275,6.28,-0.1728259906908076,0.40121927421923803,-1.5853553158759817e-05,0.03326957070306589,0.0002204690696670875,9.810164290548226
3.504,0,0.9548412538723549,6.23130309605251,160,0,0,-0.005,6.2263030960525105,6.23630309605251,-0.17483479084976777,0.40121966360055694,-1.5870567980183145e-05,0.031917388800704154,0.00023073150827807975,9.797299574573103
3.52,0,0.9548412538723549,6.2322579373063824,160,0,0,-0.005,6.2272579373063826,6.237257937306382,-0.17682880886863855,0.40121997452400193,-1.590504114608489e-05,-0.030563869128913127,0.0003620350558647141,9.803917020875975
3.536,0,0.9548412538723549,6.2322579373063824,160,0,0,-0.005,6.2272579373063826,6.237257937306382,-0.17882313134583028,0.40122016660127924,-1.5934572622560914e-05,0.02332301038984596,0.00046580901852786763,9.823342613451466
3.552,0,0.0,6.280954841253872,160,0,0,-0.005,6.275954841253872,6.28,-0.18081745386772788,0.40122024114589916,-1.5958663166859913e-05,0.01673696075407776,0.00046073882791651137,9.815700797342846
3.568,0,0.0,6.28,160,0,0,-0.005,6.275,6.28,-0.18282640573184977,0.401220218321212,-1.5968667852847562e-05,0.07063732094872253,0.00031107205838963353,9.761638133159154
3.584,0,0.0,6.28,160,0,0,-0.005,6.275,6.28,-0.18483520586138885,0.40122014762627217,-1.597719176462016e-05,0.010332157303456262,0.00020185606257265646,9.837851186926631
3.6,0,0.0,6.28,160,0,0,-0.005,6.275,6.28,-0.18684400593292835,0.401220019063072,-1.5983819140526906e-05,0.007682896075725164,0.0002279474274588681,9.780535210206672
3.616,0,0.0,6.28,160,0,0,-0.005,6.275,6.28,-0.1888528059736909,0.4012198319361804,-1.5988276588401254e-05,0.004352639310699763,0.00023110630778265916,9.810745697991104
3.632,0,0.0,6.28,160,0,0,-0.005,6.275,6.28,-0.19086160599327903,0.4012195857857688,-1.5990376311360993e-05,0.0010171986613173758,0.000233094078076233,9.771448256919385
3.648,0,0.0,6.28,160,0,0,-0.005,6.275,6.28,-0.19287040599741256,0.40121928031090504,-1.5990042823082334e-05,-0.0023524334228563187,0.00023294799911901997,9.821546609052787
3.664,0,0.0,6.28,160,0,0,-0.005,6.275,6.28,-0.19487920598927963,0.40121891531608866,-1.5987327451073494e-05,-0.005729661224908537,0.00023457981014306616,9.775091340052922
3.68,0,1.877877447285382,6.184228250188446,160,2,2,0.114,6.28,6.070228250188446,-0.1968880059703443,0.4012184906743304,-1.5982411699339005e-05,-0.008990965730165664,0.0002337073650392774,9.770203432766777
3.696,0,3.7517290705260407,6.090539694850457,160,3,1,0.17450000000000002,6.265039694850457,5.916039694850457,-0.19886404518205664,0.40121863808166375,-1.5955932212265503e-05,-0.14643182776547142,-0.0048731810101483725,9.799683731526203
3.712,0,3.8140748342903783,6.089233912521717,160,2,-1,0.1255,6.214733912521717,5.963733912521717,-0.20081302245201144,0.4012216256541628,-1.587926069260802e-05,-0.13930385692495761,-0.01286527044416676,9.806603215460163
3.728,0,0.9548412538723549,6.2351171708868005,160,-1,-3,-0.0385,6.1966171708868005,6.2736171708868005,-0.2027615710721077,0.40122838922755266,-1.578424055681711e-05,-0.03498813657028257,-0.013620924675851024,9.822649445453271
3.744,0,0.0,6.280954841253872,160,-2,-1,-0.08950000000000001,6.191454841253872,6.28,-0.2047567841260317,0.40123730839953653,-1.587643519490589e-05,0.15930095347616421,-0.0037918739702158446,9.81061914195285
3.7600000000000002,0,0.0,6.28,160,-2,0,-0.095,6.1850000000000005,6.28,-0.2067522004652453,0.40124507166856466,-1.5937484723701004e-05,-0.01266551243008067,0.004552822387194594,9.795717929594401
3.7760000000000002,0,0.0,6.28,160,-2,0,-0.10500000000000001,6.175,6.28,-0.20874658869594856,0.4012516316191998,-1.5969106068956795e-05,-0.007291408594596623,0.004675487838754644,9.80710239426491
3.7920000000000003,0,0.0,6.28,160,-1,1,-0.05550000000000001,6.2245,6.28,-0.2107393810296015,0.40125695853589055,-1.5974594661979577e-05,0.0003435730174892986,0.004833919515289122,9.834875747288406
3.8080000000000003,0,0.0,6.28,160,-1,0,-0.065,6.215,6.28,-0.21274009538522015,0.40126118474837824,-1.5951797325825315e-05,0.04893321490982717,0.003690324227447605,9.859716245115814
3.8240000000000003,0,0.0,6.28,160,-1,0,-0.07,6.21,6.28,-0.21473929168484535,0.40126473302082827,-1.5903370373725884e-05,0.022687653633370938,0.0027420841002520086,9.80737182508976
3.84,0,0.0,6.28,160,-1,0,-0.07500000000000001,6.205,6.28,-0.2167376854543459,0.4012675075742483,-1.5788542648179082e-05,0.030744567879151984,0.0030450667835233724,9.837771065166155
3.856,0,0.0,6.28,160,-1,0,-0.08,6.2,6.28,-0.2187352849416366,0.40126946412995107,-1.5823157028469967e-05,0.030023146169920748,0.003239449079893474,9.84724383924211
3.872,0,0.0,6.28,160,-1,0,-0.085,6.195,6.28,-0.2207320850439243,0.4012705471039514,-1.5851645922940888e-05,0.028633941933661658,0.0034504278491209813,9.810198828167051
3.888,0,0.9548412538723549,6.23130309605251,160,0,1,-0.030500000000000003,6.2008030960525105,6.26180309605251,-0.22272808545201736,0.401270701992706,-1.587669020738404e-05,0.026675899333369474,0.003715734846774637,9.831494039463598
3.904,0,0.0,6.280954841253872,160,0,0,-0.035,6.245954841253872,6.28,-0.22472210255889138,0.40126997351845506,-1.590121423716319e-05,0.019258991008629364,0.0031556757609506178,9.834763546591013
3.92,0,0.0,6.28,160,0,0,-0.035,6.245,6.28,-0.22672625407177865,0.40126866011032075,-1.591276302771727e-05,0.0656080183497141,0.0019513858251895377,9.812404070120742
3.936,0,0.0,6.28,160,0,0,-0.035,6.245,6.28,-0.22873025323528048,0.40126699179962266,-1.5924293489063407e-05,0.02368208432984231,0.0014218426312424745,9.87457406233401
3.952,0,0.0,6.28,160,0,0,-0.035,6.245,6.28,-0.23073425203333606,0.40126494840636295,-1.593581261226211e-05,0.022511720316347714,0.001488144381112601,9.816769070863703
3.968,0,0.0,6.28,160,0,0,-0.035,6.245,6.28,-0.23273825043193128,0.4012625223836141,-1.5947183596360867e-05,0.02006035841986641,0.001505491323453604,9.818432032297654
3.984,0,0.0,6.28,160,0,0,-0.035,6.245,6.28,-0.23474224836096058,0.4012597087808502,-1.595808014620212e-05,0.01734367644224093,0.0015279317174807488,9.830077557768835
4.0,0,0.0,6.28,160,0,0,-0.035,6.245,6.28,-0.23674624573921516,0.40125650440550453,-1.5968076429546604e-05,0.014504598441015606,0.0015469488034844051,9.818296382461655
4.016,0,0.9548412538723549,6.23130309605251,160,1,1,0.024500000000000004,6.25580309605251,6.206803096052511,-0.2387502424815275,0.4012529072333521,-1.5976718331710965e-05,0.01138421007424221,0.00154361067028911,9.820174861301513
4.032,0,0.0,6.280954841253872,160,0,-1,-0.034499999999999996,6.246454841253872,6.28,-0.24074425636978428,0.40124920474054415,-1.5986695238258408e-05,-0.032581243742765664,-0.0005249512885391955,9.864949484397503
4.048,0,0.9548412538723549,6.23130309605251,160,1,1,0.029500000000000002,6.26080309605251,6.201803096052511,-0.24274848562198365,0.4012458522832657,-1.598992823281277e-05,0.042819494901967535,-0.0004038761106798132,9.83695576138518
4.064,0,0.0,6.280954841253872,160,0,-1,-0.029500000000000002,6.251454841253873,6.28,-0.24474250022473984,0.4012424019331435,-1.5990475624243564e-05,-0.04227485398870134,-0.0006746183478110932,9.799382455016774
4.08,0,0.0,6.28,160,0,0,-0.025,6.255,6.28,-0.24674753001495878,0.40123939643476436,-1.598784324132428e-05,0.03761457178457423,-0.0007233071969327664,9.773544666052143
4.096,0,0.9548412538723549,6.23130309605251,160,1,1,0.0345,6.265803096052511,6.19680309605251,-0.24875312724955137,0.40123604120173434,-1.5983510698064363e-05,-0.006290118374740827,0.001305573508906438,9.81845373554189
4.112,0,0.0,6.280954841253872,160,0,-1,-0.0245,6.2564548412538725,6.28,-0.2507471421562413,0.4012326816791501,-1.5971968776944123e-05,-0.0588238838771566,-0.0010530950940561951,9.76850578758891
4.128,0,0.9548412538723549,6.23130309605251,160,1,1,0.0395,6.270803096052511,6.19180309605251,-0.2527529722168253,0.40122987946544364,-1.5963913287972073e-05,0.030002387075683184,-0.001107596146124996,9.872267341711298
4.144,0,0.0,6.280954841253872,160,0,-1,-0.0195,6.261454841253872,6.28,-0.2547469881973598,0.401227086409499,-1.5946105380269804e-05,-0.0672332324256268,-0.0012301264822505973,9.822693086173317
4.16,0,0.0,6.28,160,0,0,-0.015,6.265000000000001,6.28,-0.25675361904637684,0.40122495546678394,-1.5937551465575184e-05,0.026489787756066835,-0.001446758075503565,9.773174632113706
4.176,0,0.0,6.28,160,0,0,-0.015,6.265000000000001,6.28,-0.258760817676573,0.40122257786157195,-1.5930590961022242e-05,-0.021814736618032127,0.0008978078671719728,9.79019879403155
4.192,0,0.9548412538723549,6.23130309605251,160,1,1,0.0445,6.275803096052511,6.18680309605251,-0.26076801605505157,0.4012200019690962,-1.5925131431648518e-05,-0.02509202831226762,0.0007652533192597922,9.821482502939451
4.208,0,0.0,6.280954841253872,160,0,-1,-0.014499999999999999,6.266454841253872,6.28,-0.26276203245678736,0.40121754478346305,-1.59069279475222e-05,-0.07993590185749505,-0.0016804188461613506,9.783072486150079
4.224,0,0.0,6.28,160,0,0,-0.01,6.2700000000000005,6.28,-0.26476946369737575,0.40121587408835696,-1.5905610394132894e-05,0.02385572134932688,-0.0018596231877912397,9.830339756081726
4.24,0,0.0,6.28,160,0,0,-0.01,6.2700000000000005,6.28,-0.2667774628658386,0.4012140180850033,-1.5907525136322348e-05,-0.02606466424151715,0.0006601524997517223,9.852045080526754
4.256,0,0.0,6.28,160,0,0,-0.01,6.2700000000000005,6.28,-0.26878546188174074,0.40121202345304546,-1.5911869904173398e-05,-0.027531048993808975,0.0005305785412966482,9.829458237596828
4.272,0,0.0,6.28,160,0,0,-0.01,6.2700000000000005,6.28,-0.270793460738567,0.4012098978455367,-1.591837985922065e-05,-0.026501110834426123,0.0005038991645164128,9.819725273101428
4.288,0,0.9548412538723549,6.23130309605251,160,1,1,0.0495,6.28,6.18180309605251,-0.2728014594517858,0.4012076463794717,-1.5926665189390857e-05,-0.024734804699199947,0.000488160086000026,9.734468335186186
4.304,0,0.0,6.280954841253872,160,0,-1,-0.0095,6.271454841253872,6.28,-0.27479534784026777,0.4012055922674014,-1.5922118796559206e-05,-0.08102611518652998,-0.0020413610094077174,9.807973164114863
4.32,0,0.0,6.28,160,0,0,-0.005,6.275,6.28,-0.27680357939986877,0.40120442764775277,-1.593416517072302e-05,0.0326526499497442,-0.0021998322851252577,9.859417771766964
4.336,0,0.0,6.28,160,0,0,-0.005,6.275,6.28,-0.27881237900961087,0.40120313745261316,-1.5947060351587106e-05,-0.018357478192553164,0.0004326918012961553,9.83955550573209
4.352,0,0.0,6.28,160,0,0,-0.005,6.275,6.28,-0.28082117853156907,0.4012017668710918,-1.5959413384072918e-05,-0.01731255472633632,0.0003036165895123788,9.786796912798577
4.368,0,0.0,6.28,160,0,0,-0.005,6.275,6.28,-0.2828299779719258,0.4012003227990081,-1.5970492042553103e-05,-0.014057721726768155,0.00027906589361736196,9.81048893114548
4.384,0,0.0,6.28,160,0,0,-0.005,6.275,6.28,-0.28483877735431556,0.40119880989194445,-1.597964111854991e-05,-0.010423244235390833,0.0002635561000403419,9.879048361860363
4.4,0,0.0,6.28,160,0,0,-0.005,6.275,6.28,-0.28684757668834016,0.40119723124342704,-1.5986319404802038e-05,-0.006631214206364944,0.00025164320076161004,9.776184699045064
4.416,0,0.0,6.28,160,0,0,-0.005,6.275,6.28,-0.2888563759760902,0.40119558887817514,-1.599013156139764e-05,-0.0028092090271883466,0.00024651763989773563,9.79432718228971
4.432,0,0.0,6.28,160,0,0,-0.005,6.275,6.28,-0.29086517521587807,0.4011938841028988,-1.5990851752547414e-05,0.0010810208278030072,0.00024152038941957222,9.768840125083019
4.448,0,0.0,6.28,160,0,0,-0.005,6.275,6.28,-0.2928739744043571,0.40119211775014335,-1.5988437322162624e-05,0.004967522149625135,0.00023952078593434453,9.860097638992901
4.464,0,0.0,6.28,160,0,0,-0.005,6.275,6.28,-0.29488277353771664,0.40119029034449416,-1.598303156372105e-05,0.008767169168325536,0.00023782366492773626,9.787474407993317
4.48,0,0.9548412538723549,6.23130309605251,160,1,1,0.0545,6.28,6.17680309605251,-0.2968915726123484,0.40118840221389107,-1.5974955379726916e-05,0.012439374958691312,0.00023572494648594884,9.756330720466005
4.496,0,0.0,6.280954841253872,160,0,-1,-0.0045,6.276454841253872,6.28,-0.2988846615316108,0.40118681883759233,-1.5973805837156407e-05,-0.04882504113234423,-0.00247805219615551,9.828525768355263
4.5120000000000005,0,0.0,6.28,160,0,0,0.0,6.28,6.28,-0.3008936934917562,0.40118614062320024,-1.596383415685375e-05,0.07856636480447571,-0.0022277961676994665,9.800129960880566
4.5280000000000005,0,0.0,6.28,160,0,0,0.0,6.28,6.28,-0.3029032933872973,0.40118539821666316,-1.595203835284137e-05,0.021415557343964164,0.00019052177177153142,9.77865300936541
4.5440000000000005,0,0.0,6.28,160,0,0,0.0,6.28,6.28,-0.30491289321615783,0.40118463657616654,-1.5939411504101164e-05,0.022250603204418382,6.579170229110104e-05,9.785923149821494
4.5600000000000005,0,0.0,6.28,160,0,0,0.0,6.28,6.28,-0.3069224930004554,0.4011838622471461,-1.5926711681362588e-05,0.02478400138266474,4.209565384740475e-05,9.812291312821868
4.5760000000000005,0,0.0,6.28,160,0,0,0.0,6.28,6.28,-0.30893209276939954,0.40118307966721695,-1.5914700652857466e-05,0.027091057421632887,2.6715014794008965e-05,9.84279150012632
4.5920000000000005,0,0.0,6.28,160,0,0,0.0,6.28,6.28,-0.31094169253790543,0.40118229179774284,-1.5904097514053e-05,0.02887508445065317,1.640677481322665e-05,9.806208800114971
4.6080000000000005,0,0.0,6.28,160,0,0,0.0,6.28,6.28,-0.3129512923131981,0.4011815005851526,-1.5895535864609775e-05,0.030209763747491916,9.910557257971025e-06,9.804364832886483
4.624,0,0.0,6.28,160,0,0,0.0,6.28,6.28,-0.31496089209845535,0.4011807072903642,-1.5889526508976876e-05,0.031150319690913877,5.7986882729347736e-06,9.812574444799434
4.64,0,0.0,6.28,160,0,0,0.0,6.28,6.28,-0.31697049189473536,0.40117991271866565,-1.588642753667241e-05,0.0317351300960121,3.3017424367444647e-06,9.814085056086736
4.656,0,0.0,6.28,160,0,0,0.0,6.28,6.28,-0.31898009170194963,0.40117911737702294,-1.588642341960461e-05,0.03155539672957535,1.790795159584963e-06,9.737797213209218
4.672,0,0.0,6.28,160,0,0,0.0,6.28,6.28,-0.32098969151933515,0.40117832157987954,-1.5889514330758372e-05,0.031182973114226503,9.185361122171128e-07,9.86877573819359
4.688,0,0.0,6.28,160,0,0,0.0,6.28,6.28,-0.3229992913456901,0.4011775255191989,-1.5895516324006265e-05,0.030331960596649096,4.200948828873913e-07,9.756656206536833
4.704,0,0.0,6.28,160,0,0,0.0,6.28,6.28,-0.32500889117951987,0.40117672931014875,-1.5904072384097592e-05,0.028882945656563776,1.5455644268995345e-07,9.840375507667082
4.72,0,0.0,6.28,160,0,0,0.0,6.28,6.28,-0.3270184910191645,0.40117593302047244,-1.5914673710523686e-05,0.026936648810649035,2.11803902532698e-08,9.822664883685523
4.736,0,0.0,6.28,160,0,0,0.0,6.28,6.28,-0.32902809086293633,0.4011751366891015,-1.5926689988197962e-05,0.0247091291808395,-3.8107240459830796e-08,9.785350230834679
4.752,0,0.0,6.28,160,0,0,0.0,6.28,6.28,-0.33103769070926736,0.4011743403377782,-1.5939406859327016e-05,0.022341596363139163,-5.775751805131724e-08,9.804300098864074
4.768,0,0.0,6.28,160,0,0,0.0,6.28,6.28,-0.33304729055685284,0.40117354397820204,-1.5952068377929687e-05,0.019281238488754356,-5.774087046481785e-08,9.753099349735349
4.784,0,0.0,6.28,160,0,0,0.0,6.28,6.28,-0.3350568904047718,0.4011727476163493,-1.596392193092648e-05,0.016041118006692515,-4.870379783299281e-08,9.81764621898698
4.8,0,0.0,6.28,160,0,0,0.0,6.28,6.28,-0.33706649025256596,0.4011719512550356,-1.597426295823698e-05,0.012645322235483859,-3.71102580685289e-08,9.832467451594916
4.816,0,0.0,6.28,160,0,0,0.0,6.28,6.28,-0.33907609010026296,0.40117115489540256,-1.5982476817626504e-05,0.008947507092894583,-2.5590760478017482e-08,9.780465855817804
4.832,0,0.0,6.28,160,0,0,0.0,6.28,6.28,-0.3410856899483387,0.40117035853775806,-1.5988075305934865e-05,0.005169538700449363,-1.5188725208136525e-08,9.796187738002482
4.848,0,0.0,6.28,160,0,0,0.0,6.28,6.28,-0.3430952897976202,0.401169562182034,-1.5990725667679173e-05,0.0013404164146773858,-6.4212754657146244e-09,9.866103840967478
4.864,0,0.0,6.28,160,0,0,0.0,6.28,6.28,-0.34510488964914193,0.40116876582802485,-1.5990270365933215e-05,-0.002526999171638361,7.494756764836794e-10,9.804051656819622
4.88,0,0.0,6.28,160,0,0,0.0,6.28,6.28,-0.34711448950397145,0.401167969475503,-1.5986736441486737e-05,-0.006372804371683863,6.549804970488905e-09,9.81047053906596
4.896,0,0.0,6.28,160,0,0,0.0,6.28,6.28,-0.3491240893630295,0.4011671731242678,-1.598033390292318e-05,-0.010103620494712305,1.1200353958261785e-08,9.801682751065464
4.912,0,0.0,6.28,160,0,0,0.0,6.28,6.28,-0.3511336892269257,0.4011663767741602,-1.597144324356342e-05,-0.013658673211917627,1.4858763488816857e-08,9.775550523860455
4.928,0,0.0,6.28,160,0,0,0.0,6.28,6.28,-0.3531432890958333,0.4011655804250627,-1.5960592827338194e-05,-0.017042519485911654,1.7886237383304003e-08,9.816345991618181
4.944,0,0.0,6.28,160,0,0,0.0,6.28,6.28,-0.35515288896941966,0.401164784076891,-1.594842748658433e-05,-0.020187347579791307,2.029681036577185e-08,9.790522943244852
4.96,0,0.0,6.28,160,0,0,0.0,6.28,6.28,-0.35716248884684176,0.40116398772958606,-1.5935670199288335e-05,-0.02299671452137274,2.2097949456137778e-08,9.801621727351796
4.976,0,0.0,6.28,160,0,0,0.0,6.28,6.28,-0.35917208872680834,0.4011631913831055,-1.5923079121968678e-05,-0.025555228173050334,2.3589264003872206e-08,9.754326522135774
4.992,0,0.0,6.28,160,0,0,0.0,6.28,6.28,-0.3611816886077006,0.4011623950374169,-1.591140253262395e-05,-0.027576125568738195,2.4703235774034048e-08,9.861036850475177
5.008,0,0.0,6.28,160,0,0,0.0,6.28,6.28,-0.3631912884877367,0.4011615986924925,-1.590133436126656e-05,-0.029314852552292898,2.5502977713275013e-08,9.79230330308543
5.024,0,0.0,6.28,160,0,0,0.0,6.28,6.28,-0.3652008883651582,0.40116080234830526,-1.5893472950079604e-05,-0.030567402811606505,2.583994312105658e-08,9.782193341906462
5.04,0,0.0,6.28,160,0,0,0.0,6.28,6.28,-0.367210488238415,0.40116000600482676,-1.5888285495159124e-05,-0.031306177368536026,2.5886961760552994e-08,9.825158023302134
5.056,0,0.0,6.28,160,0,0,0.0,6.28,6.28,-0.36922008810632484,0.40115920966202484,-1.588608028160049e-05,-0.031760263482076695,2.5812169939660997e-08,9.790778448471402
5.072,0,0.0,6.28,160,0,0,0.0,6.28,6.28,-0.37122968796818634,0.4011584133198627,-1.5886988362794063e-05,-0.03149237410560223,2.5275725660644415e-08,9.862526810072263
5.088,0,0.0,6.28,160,0,0,0.0,6.28,6.28,-0.37323928782383176,0.4011576169782985,-1.5890955772340787e-05,-0.03104986575034021,2.4697703744089385e-08,9.850332618055937
5.104,0,0.0,6.28,160,0,0,0.0,6.28,6.28,-0.37524888767361286,0.4011568206372853,-1.5897746731004248e-05,-0.029879533853761665,2.3702759854608254e-08,9.76759991843733
5.12,0,0.0,6.28,160,0,0,0.0,6.28,6.28,-0.37725848751832236,0.4011560242967709,-1.5906957658715776e-05,-0.028428257623256386,2.2612029519242102e-08,9.817410406947362
5.136,0,0.9548412538723549,6.23130309605251,160,1,1,0.0595,6.28,6.1718030960525105,-0.3792680873590618,0.40115522795669845,-1.5918041158613158e-05,-0.0263679215875753,2.1110107960264506e-08,9.789937764246972
5.152,0,0.0,6.280954841253872,160,0,-1,0.0005000000000000004,6.28,6.28,-0.38126037709174726,0.40115473849665806,-1.591194122139289e-05,-0.0954051648045527,-0.002525296915153758,9.773168333929089
5.168,0,0.0,6.28,160,0,0,0.005,6.28,6.275,-0.383269976288608,0.4011552650938363,-1.5926939862812017e-05,0.04274891679569968,-0.002615745408920913,9.765615506664318
