Time,SetPoint,Error,DeltaError,DeltaSpeed,BaseSpeed,LeftSpeed,RightSpeed,Angle,X,Y,Z,Roll,Pitch,Yaw
0.032,80.0,-14.0,-14.0,-0.8401400000000001,6.28,5.43986,7.12014,0,-0.14849100000000026,0.43917999999999924,-6.396329790619645e-05,1.850109197407949e-10,-3.4719504070889686e-08,9.779362616970355
0.064,80.0,-9.0,5.0,-0.67995,6.28,5.60005,6.95995,0,-0.15208854311989553,0.440138008140563,-2.151148255189264e-05,4.37194616227233,-0.029900990422285088,9.588015493260908
0.096,80.0,-6.0,3.0,-0.5899700000000001,6.28,5.69003,6.86997,0,-0.1557560359901783,0.44106501143338445,-6.08911419090509e-05,0.42537993907817506,0.03714946523274692,9.695284929747363
0.128,80.0,-3.0,3.0,-0.46997000000000005,6.28,5.81003,6.74997,0,-0.15947759694330438,0.441977310034025,-7.686917081976136e-05,0.03415766415477646,0.028351363765302267,9.861272434636579
0.16,80.0,0.0,3.0,-0.31997000000000003,6.28,5.960030000000001,6.59997,0,-0.16324156279600657,0.4428742031991152,-7.021213855831245e-05,0.21148162475990764,0.028222846625206,9.846348350992443
0.192,80.0,2.0,2.0,-0.19998,6.28,6.08002,6.47998,0,-0.1670570319850512,0.44376072022098834,-7.04030874444251e-05,0.12919277020296213,0.022872903473494362,9.795199790553403
0.224,80.0,3.0,1.0,-0.11999,6.28,6.160010000000001,6.39999,0,-0.17091244692666813,0.4446428165748414,-7.044058009970239e-05,0.029812566265786,0.017377594910927024,9.816621775771104
0.256,80.0,3.0,0.0,-0.08999999999999997,6.28,6.19,6.37,0,-0.17479396375138437,0.4455228979193953,-6.895913248000478e-05,-0.06745204971335302,0.013565081388060387,9.792046288716106
0.28800000000000003,80.0,3.0,0.0,-0.05999999999999997,6.28,6.220000000000001,6.34,0,-0.17868541365411963,0.4464010460233542,-6.809205874833309e-05,-0.06567001869357973,0.011024886473215343,9.788814318394508
0.32,80.0,3.0,0.0,-0.02999999999999997,6.28,6.25,6.3100000000000005,0,-0.18258672275387064,0.44727858803219495,-6.777546798747078e-05,-0.04281921914947015,0.010377586195849055,9.775371095532343
0.352,80.0,3.0,0.0,2.7755575615628914e-17,6.28,6.28,6.28,0,-0.18649792872107698,0.44815687684834893,-6.74203985584175e-05,-0.014665639986729389,0.009538226559483859,9.85986869613556
0.384,80.0,2.0,-1.0,-0.03001,6.28,6.24999,6.31001,0,-0.1904192102476623,0.4490372293301481,-6.694376793765257e-05,0.017047148772997532,0.008293205568599407,9.80377548575242
0.41600000000000004,80.0,1.0,-1.0,-0.07000999999999999,6.28,6.20999,6.35001,0,-0.19433012911546282,0.44991682214364764,-6.633156541259802e-05,-0.0024927999609476786,0.006319538688088901,9.87837742824246
0.448,80.0,0.0,-1.0,-0.12000999999999999,6.28,6.1599900000000005,6.40001,0,-0.19823010146928619,0.4507931548419857,-6.592442086321253e-05,-0.005758850284522377,0.00806070311014784,9.752450196041933
0.48,80.0,0.0,0.0,-0.12,6.28,6.16,6.4,0,-0.20211496196015938,0.4516633755970573,-6.557125083793067e-05,-0.015903246488715727,0.009220889508390135,9.735751904436833
0.512,80.0,-1.0,-1.0,-0.18001,6.28,6.09999,6.4600100000000005,0,-0.20600014135888148,0.4525284079211937,-6.52542648787377e-05,-0.006983599811490305,0.010881996491896386,9.744634604123883
0.544,80.0,-2.0,-1.0,-0.25001,6.28,6.029990000000001,6.53001,0,-0.20986848298605074,0.453383962027637,-6.497365631995614e-05,-0.03334318978809139,0.01066013393847433,9.85200137674628
0.5760000000000001,80.0,-2.0,0.0,-0.27,6.28,6.01,6.550000000000001,0,-0.21371671076317714,0.4542264779551514,-6.471043929415221e-05,-0.036747814082244305,0.01266247750945679,9.813965268488273
0.608,80.0,-2.0,0.0,-0.29000000000000004,6.28,5.99,6.57,0,-0.21756118463751745,0.4550560415687181,-6.456141326171248e-05,-0.020672849442057988,0.015495618487506413,9.845391382979244
0.64,80.0,-2.0,0.0,-0.31,6.28,5.970000000000001,6.59,0,-0.2214020795589255,0.4558717536205219,-6.446641712465166e-05,-0.0201824021371895,0.016135951245801684,9.802195088745574
0.672,80.0,-2.0,0.0,-0.33,6.28,5.95,6.61,0,-0.22523957100831182,0.4566727735791869,-6.442496904433825e-05,-0.019624105240652057,0.016703691790479168,9.789001373833052
0.704,80.0,-1.0,1.0,-0.28998999999999997,6.28,5.99001,6.569990000000001,0,-0.2290737609587689,0.45745829645326513,-6.443379838032455e-05,-0.01920790723726188,0.017849421804479373,9.82671816151336
0.736,80.0,-1.0,0.0,-0.3,6.28,5.98,6.58,0,-0.23292352857861917,0.458231311554001,-6.44848234824455e-05,0.003369178685006968,0.018855261851248556,9.79335826639309
0.768,80.0,-1.0,0.0,-0.31,6.28,5.970000000000001,6.59,0,-0.23677272693598272,0.45899064777892107,-6.456013765989733e-05,-0.008588301517694609,0.017320450076526835,9.82426143179055
0.8,80.0,-1.0,0.0,-0.32,6.28,5.96,6.6000000000000005,0,-0.24062137485632124,0.45973599067216786,-6.464844066871901e-05,-0.005313000410557506,0.01796483791751948,9.871966900551246
0.8320000000000001,80.0,-1.0,0.0,-0.33,6.28,5.95,6.61,0,-0.24446949109086516,0.4604670065364149,-6.474164466246934e-05,-0.0026405523602938854,0.018847258619001588,9.842117211056195
0.864,80.0,-1.0,0.0,-0.33999999999999997,6.28,5.94,6.62,0,-0.24831709550102699,0.46118334292608837,-6.483448970694139e-05,-0.000688856055887192,0.01965000814894237,9.818111138160504
0.896,80.0,-1.0,0.0,-0.35,6.28,5.930000000000001,6.63,0,-0.25216420755745744,0.46188463032437155,-6.492393340999138e-05,0.0003971500522230185,0.020615108462199258,9.798242513483283
0.928,80.0,-1.0,0.0,-0.36,6.28,5.92,6.640000000000001,0,-0.2560108449089808,0.4625704846247746,-6.50084767148916e-05,0.0005530096450950194,0.02138066461015827,9.803388951748259
0.96,80.0,-1.0,0.0,-0.37,6.28,5.91,6.65,0,-0.2598570221236094,0.46324050991699595,-6.508755850214397e-05,-0.00023770437288771185,0.022250634295955894,9.80480223580487
0.992,80.0,0.0,1.0,-0.31999,6.28,5.9600100000000005,6.59999,0,-0.2637027496528309,0.46389430121761044,-6.516110928594769e-05,-0.0019084232100960027,0.022973420448074523,9.814863728806493
1.024,80.0,0.0,0.0,-0.32,6.28,5.96,6.6000000000000005,0,-0.2675668709421407,0.46453458991737023,-6.52054039251438e-05,0.018015878155260897,0.023723759693830948,9.866038833992993
1.056,80.0,-1.0,-1.0,-0.38001,6.28,5.89999,6.660010000000001,0,-0.2714332402473319,0.4651610555262907,-6.523876752678563e-05,0.0035035497179781274,0.021823835588040057,9.765203630906633
1.088,80.0,0.0,1.0,-0.32999,6.28,5.950010000000001,6.60999,0,-0.27528293471610016,0.4657707113386989,-6.528522566466403e-05,-0.01808046595797619,0.022102038986854387,9.856198886841385
1.12,80.0,-2.0,-2.0,-0.4500200000000001,6.28,5.82998,6.730020000000001,0,-0.279150887047992,0.4663662733095544,-6.530021709764099e-05,0.015999798927259452,0.024890040672214356,9.83343625064775
1.1520000000000001,80.0,-1.0,1.0,-0.40998999999999997,6.28,5.870010000000001,6.68999,0,-0.2829832273726998,0.4669418533500347,-6.535152359184865e-05,-0.0444077499455427,0.022977838741297024,9.846118190253232
1.184,80.0,-2.0,-1.0,-0.48001,6.28,5.79999,6.76001,0,-0.2868311816949422,0.46749954367224883,-6.536862326828388e-05,0.00559405786082286,0.028432063887960764,9.841709897549158
1.216,80.0,-1.0,1.0,-0.43999,6.28,5.84001,6.71999,0,-0.2906595742461154,0.46803615114286423,-6.542677437017946e-05,-0.02860799566598225,0.026835962858159736,9.81424188174776
1.248,80.0,-2.0,-1.0,-0.51001,6.28,5.76999,6.7900100000000005,0,-0.2945035716551519,0.4685533197377934,-6.550126624145676e-05,0.00886650954163544,0.029821029466889408,9.802068046560539
1.28,80.0,-1.0,1.0,-0.46998999999999996,6.28,5.81001,6.74999,0,-0.2983279528310196,0.46904828637294427,-6.561056435338067e-05,-0.02679469336496938,0.028579741355206516,9.793576324023602
1.312,80.0,-1.0,0.0,-0.48,6.28,5.800000000000001,6.76,0,-0.3021678698435867,0.46952240470774853,-6.571570916189332e-05,0.009041462580295263,0.03179444826115393,9.809396198882846
1.344,80.0,-2.0,-1.0,-0.55001,6.28,5.72999,6.830010000000001,0,-0.30600708103822394,0.4699755585820141,-6.583262805934069e-05,-0.005771071519510764,0.03000579183091199,9.770050438157963
1.3760000000000001,80.0,-2.0,0.0,-0.5700000000000001,6.28,5.71,6.8500000000000005,0,-0.3098264954668571,0.47040522908392396,-6.598155921358831e-05,-0.028029943905646743,0.03076595273096888,9.756436890805395
1.408,80.0,-2.0,0.0,-0.59,6.28,5.69,6.87,0,-0.3136422210455427,0.47081016646825263,-6.61258075232967e-05,-0.01185715639406383,0.034206262654371024,9.811629993621183
1.44,80.0,0.0,2.0,-0.48997999999999997,6.127448812969423,5.637468812969423,6.617428812969423,15.255118703057791,-0.31745417977527063,0.4711895288129074,-6.630674209216064e-05,-0.011336823116861969,0.035385944575216245,9.842553310607471
1.472,80.0,1.0,1.0,-0.42999,6.124354163613926,5.694364163613926,6.554344163613926,15.564583638607358,-0.32125194640739246,0.4715415484352637,-6.651423980024926e-05,-0.02097149133075006,0.03636370210531404,9.808489918991247
1.504,80.0,2.0,1.0,-0.35999,6.122611985625506,5.762621985625506,6.4826019856255055,15.73880143744947,-0.32507030967928974,0.47186707407586226,-6.671752551528319e-05,0.017219999686794482,0.03878741744677929,9.810176840653497
1.536,80.0,1.0,-1.0,-0.40001000000000003,6.125027568931934,5.725017568931934,6.525037568931934,15.497243106806621,-0.32891240563298546,0.47216883985258323,-6.687546195773691e-05,0.028957505515362716,0.036845128744651276,9.808346247898767
1.568,80.0,0.0,-1.0,-0.45001,6.126784899251352,5.6767748992513525,6.576794899251352,15.321510074864783,-0.3327441436711409,0.4724473772563815,-6.701994759745339e-05,-0.005306404538896099,0.03434214748021561,9.816646369884772
1.6,80.0,0.0,0.0,-0.45,6.126784899251352,5.676784899251352,6.5767848992513525,15.321510074864783,-0.33656215413470014,0.47270099124202625,-6.720146693540117e-05,-0.013422742932787375,0.0360343235742432,9.799553696595105
1.6320000000000001,80.0,0.0,0.0,-0.45,6.126784899251352,5.676784899251352,6.5767848992513525,15.321510074864783,-0.34038180610184277,0.4729286385290868,-6.735134284130591e-05,-0.0035136191227018512,0.0385004551216381,9.778550048380035
1.6640000000000001,80.0,2.0,2.0,-0.32997999999999994,6.124354163613926,5.794374163613926,6.454334163613926,15.564583638607358,-0.3442029149883544,0.47313032848474623,-6.745497636134745e-05,-0.002981335036791773,0.038850220411456055,9.82837340137536
1.696,80.0,2.0,0.0,-0.31000000000000005,6.122611985625506,5.812611985625505,6.432611985625506,15.73880143744947,-0.34806275405137926,0.47330785003464854,-6.749310783707094e-05,0.041411762810610445,0.03906130233342339,9.807051895095615
1.728,80.0,0.0,-2.0,-0.41002000000000005,6.124354163613926,5.714334163613926,6.5343741636139265,15.564583638607358,-0.3519292266372455,0.47346492761934633,-6.745712518571763e-05,0.009724447760092755,0.03418967899204798,9.85745414960661
1.76,80.0,1.0,1.0,-0.34999,6.125027568931934,5.775037568931934,6.475017568931934,15.497243106806621,-0.3557650777467871,0.4736010240455734,-6.74955717894811e-05,-0.03380716442460486,0.033575145632087355,9.834362222504028
1.792,80.0,1.0,0.0,-0.34,6.121929159113121,5.781929159113121,6.4619291591131205,15.807084088687997,-0.35962110359449884,0.47371350029398984,-6.744568298616867e-05,0.015983345620626133,0.037764324624417096,9.791860164856045
1.824,80.0,-1.0,-2.0,-0.45002000000000003,6.126784899251352,5.676764899251352,6.576804899251353,15.321510074864783,-0.3634798963563573,0.47380442027794095,-6.739031997922938e-05,0.00011509088042622804,0.03527290178251282,9.817228367587267
1.856,80.0,0.0,1.0,-0.39999,6.124354163613926,5.724364163613926,6.524344163613926,15.564583638607358,-0.36730559488970393,0.47387329980118886,-6.735596295184311e-05,-0.03471059683373507,0.035309828122246846,9.803587355998596
1.8880000000000001,80.0,-1.0,-1.0,-0.46001000000000003,6.126784899251352,5.666774899251353,6.586794899251352,15.321510074864783,-0.37114694192609854,0.4739162394591078,-6.731730401478286e-05,0.0159774934627471,0.03962560027430164,9.77780057752915
1.92,80.0,0.0,1.0,-0.40999,6.124354163613926,5.714364163613927,6.534344163613926,15.564583638607358,-0.37497013823075936,0.4739349714417137,-6.731873678581315e-05,-0.017764679968470927,0.03750790772332378,9.815028188365291
1.952,80.0,0.0,0.0,-0.41000000000000003,6.124354163613926,5.714354163613926,6.534354163613926,15.564583638607358,-0.3788086061451902,0.47392707936282347,-6.730579375063481e-05,0.017011446307134397,0.03999441215911662,9.806985504971903
1.984,80.0,-1.0,-1.0,-0.47001,6.126784899251352,5.656774899251352,6.5967948992513525,15.321510074864783,-0.38264693812607137,0.47389459024830566,-6.730331727476148e-05,0.002099717604663808,0.038077907150138014,9.818171244190717
2.016,80.0,-1.0,0.0,-0.48,6.12987565088087,5.649875650880871,6.60987565088087,15.01243491191301,-0.38646661637599217,0.47383788930498294,-6.73559124033888e-05,-0.019909875513124013,0.03802758988511391,9.813493755958877
2.048,80.0,0.0,1.0,-0.42999,6.126784899251352,5.696794899251352,6.556774899251352,15.321510074864783,-0.39028362901061153,0.4737543678150332,-6.740497474000927e-05,-0.0038522527754022307,0.04014111141372815,9.743674439158026
2.08,80.0,0.0,0.0,-0.43,6.126784899251352,5.696784899251353,6.556784899251352,15.321510074864783,-0.3941149143817958,0.47364322697372213,-6.746296746746629e-05,0.01571705756759937,0.04074690634173055,9.803486234742609
2.112,80.0,0.0,0.0,-0.43,6.126784899251352,5.696784899251353,6.556784899251352,15.321510074864783,-0.39794534557959976,0.4735068496668479,-6.752722523865884e-05,0.0037662822396317104,0.038814144742199935,9.786262304100106
2.144,80.0,-1.0,-1.0,-0.49001,6.12987565088087,5.63986565088087,6.61988565088087,15.01243491191301,-0.401774766165799,0.4733453097211125,-6.758175673267884e-05,0.0032205618562550792,0.03888704189991937,9.760003416310065
2.176,80.0,-1.0,0.0,-0.5,6.28,5.78,6.78,0,-0.40558489310003387,0.4731595162269152,-6.768014731316045e-05,-0.019055660255829263,0.0392085948405175,9.789700237836941
2.208,80.0,-1.0,0.0,-0.51,6.28,5.7700000000000005,6.79,0,-0.4094382067417823,0.47294378728816944,-6.768201437852041e-05,0.046327460994996496,0.041384753759929185,9.810834517825283
2.24,80.0,-2.0,-1.0,-0.5800099999999999,6.28,5.699990000000001,6.86001,0,-0.41328700716180694,0.4727069389097784,-6.766445711323468e-05,-0.0008559241437013529,0.03567979784454709,9.80805573298988
2.2720000000000002,80.0,-2.0,0.0,-0.6,6.28,5.680000000000001,6.88,0,-0.41711209024254703,0.4724498322088105,-6.768604263192486e-05,-0.024696587139784988,0.03613160495119494,9.791948351842274
2.3040000000000003,80.0,-2.0,0.0,-0.62,6.28,5.66,6.9,0,-0.42092908916947813,0.47216833635385247,-6.766974432642972e-05,-0.008612788203821975,0.03908092708093028,9.783191296219
2.336,80.0,-2.0,0.0,-0.64,6.28,5.640000000000001,6.92,0,-0.4247377778974264,0.4718615265373174,-6.768364612191186e-05,-0.008239528045599924,0.04016708918480085,9.782144878155412
2.368,80.0,-2.0,0.0,-0.66,6.28,5.62,6.94,0,-0.42853791017579096,0.4715285484448318,-6.77101714877254e-05,-0.007970386673082403,0.04092350215422628,9.781418510202414
2.4,80.0,-2.0,0.0,-0.6799999999999999,6.28,5.6000000000000005,6.96,0,-0.43232921745732933,0.47116857150045005,-6.77580462466066e-05,-0.007736937187252338,0.041573812126301186,9.81891062448102
2.432,80.0,-1.0,1.0,-0.6399900000000001,6.28,5.64001,6.91999,0,-0.4361114103737056,0.4707807911004482,-6.783398083046871e-05,-0.0074669692836159575,0.042587217613610666,9.788772563320409
2.464,80.0,-1.0,0.0,-0.65,6.28,5.63,6.930000000000001,0,-0.43990319506833686,0.4703623841544474,-6.791001433383709e-05,0.013723996152040075,0.0435285938129684,9.856234010238712
2.496,80.0,-1.0,0.0,-0.66,6.28,5.62,6.94,0,-0.44368865290564125,0.46991689901810424,-6.79993358418847e-05,-0.002099013014839784,0.04191296188121941,9.827429169781121
2.528,80.0,0.0,1.0,-0.60999,6.28,5.67001,6.88999,0,-0.4474675513384818,0.4694440239190447,-6.810997501494574e-05,-0.003212907926353085,0.04265809370883275,9.801936499925889
2.56,80.0,0.0,0.0,-0.61,6.28,5.67,6.890000000000001,0,-0.45125860585556915,0.46894096343653596,-6.818680133278444e-05,0.01728649715970589,0.043036696507891596,9.85147416148266
2.592,80.0,0.0,0.0,-0.61,6.28,5.67,6.890000000000001,0,-0.4550460735528175,0.46841201945797006,-6.824850660645115e-05,0.0011636789590771374,0.04097960410930659,9.818157476344956
2.624,80.0,0.0,0.0,-0.61,6.28,5.67,6.890000000000001,0,-0.4588298054747419,0.46785726469702726,-6.830132216708272e-05,0.0004348958537587772,0.0409635648466877,9.7979651606309
2.656,80.0,1.0,1.0,-0.54999,6.28,5.73001,6.8299900000000004,0,-0.462609643288354,0.4672767390241929,-6.833324868631835e-05,-0.0006174370544522073,0.04118411593382758,9.819588321143186
2.688,80.0,1.0,0.0,-0.5399999999999999,6.28,5.74,6.82,0,-0.46640431628105955,0.4666674841639159,-6.830365653839009e-05,0.02046695309413956,0.041058723215098326,9.833381311410145
2.72,80.0,0.0,-1.0,-0.5900099999999999,6.28,5.68999,6.870010000000001,0,-0.4701983114237402,0.4660346170971628,-6.82341669827214e-05,0.004541193116703505,0.03844495077002581,9.794063600211082
2.7520000000000002,80.0,1.0,1.0,-0.52999,6.28,5.7500100000000005,6.80999,0,-0.47397272483425,0.4653817954396741,-6.819021412710242e-05,-0.018043664055721397,0.038163634261903834,9.788685576788291
2.7840000000000003,80.0,0.0,-1.0,-0.5800099999999999,6.28,5.699990000000001,6.86001,0,-0.47776163137357647,0.4647007932218247,-6.808591013319175e-05,0.016828322586811183,0.04033312518593523,9.83974100172824
2.816,80.0,1.0,1.0,-0.5199900000000001,6.28,5.76001,6.79999,0,-0.48153077996507404,0.4640004107176723,-6.799308377590345e-05,-0.017267196063124362,0.03802075077800057,9.769815421060828
2.848,80.0,1.0,0.0,-0.51,6.1281071326281715,5.618107132628172,6.638107132628171,15.189286737182885,-0.4853141370428992,0.4632719608469635,-6.787166193868155e-05,0.021072023919621062,0.039667787334925916,9.804117538130615
2.88,80.0,1.0,0.0,-0.5,6.125695313332678,5.625695313332678,6.625695313332678,15.430468666732217,-0.4890488119525617,0.46253034052447906,-6.783950807498842e-05,-0.047086790073724384,0.037417185584121784,9.791575383486817
2.912,80.0,2.0,1.0,-0.42999000000000004,6.116104596659652,5.686114596659652,6.546094596659652,16.389540334034763,-0.4927802888025649,0.46176017629026206,-6.778966815822358e-05,-6.093972600871292e-05,0.043262915422875144,9.805624542837888
2.944,80.0,2.0,0.0,-0.41000000000000003,6.104248141634581,5.6942481416345805,6.514248141634581,17.57518583654199,-0.4965248334642955,0.46095825159813364,-6.775449446342133e-05,0.0204713686155634,0.04265661954950908,9.827746009955801
2.976,80.0,2.0,0.0,-0.39,6.0948730932585455,5.704873093258546,6.484873093258545,18.512690674145485,-0.5002664351734881,0.46013068084232034,-6.772121274942373e-05,0.004018648414012729,0.03987636138497826,9.83698063301947
3.008,80.0,3.0,1.0,-0.30999,6.084116007259727,5.774126007259727,6.394106007259727,19.588399274027374,-0.5040057842326768,0.4592777300764576,-6.77178912653429e-05,0.004674006469708968,0.039450071326562974,9.813106268715691
3.04,80.0,3.0,0.0,-0.27999999999999997,6.072744411344395,5.792744411344395,6.352744411344395,20.725558865560533,-0.5077610288811149,0.4583956956164523,-6.766472855651053e-05,0.022802483430855527,0.03907865067943708,9.791441080937021
3.072,80.0,3.0,0.0,-0.25,6.065121686622856,5.815121686622856,6.315121686622856,21.48783133771444,-0.511516991107357,0.4574912868022103,-6.761264900053202e-05,0.006888636921826876,0.03615238146799545,9.860089807389768
3.104,80.0,2.0,-1.0,-0.28001000000000004,6.06064617773761,5.78063617773761,6.34065617773761,21.93538222623904,-0.5152749314033235,0.45656503929176934,-6.753261108724193e-05,0.008129228937852704,0.0351721764659536,9.744936501406661
3.136,80.0,2.0,0.0,-0.26,6.057509763427877,5.797509763427877,6.317509763427877,22.24902365721235,-0.5190173973646444,0.45562229111110547,-6.746065698461784e-05,-0.012070819856608928,0.034222457974910046,9.762955208692059
3.168,80.0,2.0,0.0,-0.24000000000000002,6.053062050549077,5.813062050549076,6.293062050549077,22.693794945092357,-0.5227598150452516,0.45465750660387216,-6.735517201163915e-05,0.003968243541165214,0.0354152366388265,9.789193822082796
3.2,80.0,2.0,0.0,-0.22,6.045492844711938,5.825492844711938,6.265492844711938,23.45071552880619,-0.5265018308675369,0.4536714531652412,-6.723762473822247e-05,0.0043477580585504294,0.03489251851691737,9.804492283856753
3.232,80.0,2.0,0.0,-0.19999999999999998,6.037941149555037,5.837941149555037,6.237941149555037,24.20588504449635,-0.530238040850792,0.4526662238381773,-6.709921014300818e-05,-0.0006196184397639993,0.03373276623615694,9.832708860907172
3.2640000000000002,80.0,1.0,-1.0,-0.24001,6.0335833800044165,5.793573380004417,6.273593380004416,24.64166199955834,-0.5339646358005705,0.45164414645648393,-6.693694289446571e-05,-0.005298995987961874,0.03248791640733252,9.783420768076569
3.2960000000000003,80.0,1.0,0.0,-0.23000000000000004,6.023933390116909,5.7939333901169086,6.253933390116909,25.606660988309102,-0.5376840945590782,0.45060645113214653,-6.681976984840646e-05,-0.004365305885155723,0.030293407027602727,9.815459365489266
3.3280000000000003,80.0,1.0,0.0,-0.22000000000000003,6.015406604732907,5.795406604732907,6.235406604732907,26.4593395267093,-0.5413920127330015,0.44955044126204846,-6.669438932916175e-05,-0.010217139471576398,0.03382653475505791,9.814655026612915
3.36,80.0,1.0,0.0,-0.21000000000000002,6.0059242456218165,5.7959242456218165,6.2159242456218164,27.407575437818405,-0.5450892161869838,0.448476865405105,-6.655813147723316e-05,-0.009400193471000485,0.03263771948512495,9.787683035028941
3.392,80.0,0.0,-1.0,-0.26001,5.994455844434967,5.734445844434966,6.254465844434967,28.554415556503372,-0.5487752722262392,0.44738683508755345,-6.643963774265009e-05,-0.009951886130950072,0.031447041818409245,9.772422539261633
3.424,80.0,1.0,1.0,-0.19999,5.982264277793101,5.7822742777931015,6.182254277793101,29.773572220689875,-0.5524492390706545,0.4462816119771865,-6.638546647494414e-05,-0.011203792681675187,0.03024101355979316,9.751152408737415
3.456,80.0,0.0,-1.0,-0.25001,5.971150546692714,5.721140546692714,6.221160546692714,30.884945330728602,-0.5561090985055999,0.44515698828813816,-6.628847848701679e-05,-0.01173809884393088,0.03427686462651788,9.827935686300306
3.488,80.0,0.0,0.0,-0.25,5.958256743764762,5.708256743764762,6.208256743764762,32.1743256235238,-0.5597571875817325,0.44401816992953363,-6.626031553345728e-05,-0.01094542744254332,0.02904137426506001,9.834575156520602
3.52,80.0,1.0,1.0,-0.18999,5.9468400188931785,5.756850018893179,6.136830018893178,33.31599811068217,-0.5633909215073318,0.4428611396481987,-6.624620095314546e-05,-0.012054041227035005,0.033103167265218635,9.795190316640182
3.552,80.0,0.0,-1.0,-0.24001,5.934456220565251,5.6944462205652515,6.174466220565251,34.55437794347489,-0.5670109870542589,0.44168580999326706,-6.619099923910535e-05,-0.011416862575875908,0.0331151829728112,9.800890159731914
3.584,80.0,0.0,0.0,-0.24,5.927187922028256,5.687187922028256,6.167187922028257,35.281207797174375,-0.5706185944455185,0.44049773633445605,-6.619546620989861e-05,-0.01184534862008869,0.027431739392279306,9.803844784552396
3.616,80.0,1.0,1.0,-0.17998999999999998,5.916991020846261,5.737001020846261,6.096981020846261,36.30089791537392,-0.5742153070768151,0.43929158522584,-6.620656551506107e-05,-0.008690859461813161,0.03179997866547775,9.83449604244022
3.648,80.0,0.0,-1.0,-0.23001000000000002,5.912175100354142,5.682165100354142,6.142185100354142,36.7824899645858,-0.5777991487101767,0.4380681163499439,-6.61609817917963e-05,-0.010673328864571318,0.031630749672020064,9.83279248137528
3.68,80.0,0.0,0.0,-0.23,5.680000000000001,5.45,5.910000000000001,60,-0.5813752567770568,0.43683148973188357,-6.616789519139042e-05,-0.007178348956960918,0.026134091619550135,9.79168078036802
3.712,80.0,1.0,1.0,-0.16998999999999997,5.680000000000001,5.51001,5.849990000000001,60,-0.5848046951656404,0.4356253498740632,-6.604366138492773e-05,-0.1494924945916088,0.03125946453839435,9.81677468878906
3.744,80.0,0.0,-1.0,-0.22001,5.680000000000001,5.45999,5.900010000000001,60,-0.5882277665847768,0.43440172112313713,-6.600064863714235e-05,-0.004754349615397408,0.029382106040054715,9.837443181009528
3.7760000000000002,80.0,-1.0,-1.0,-0.28001000000000004,5.680000000000001,5.399990000000001,5.9600100000000005,60,-0.5916463390343134,0.4331654260547857,-6.599936342347248e-05,-0.004501793087315543,0.024119934821081254,9.823111485400041
3.8080000000000003,80.0,-2.0,-1.0,-0.35001,5.680000000000001,5.3299900000000004,6.030010000000001,60,-0.5950588815738829,0.431912204276511,-6.604460181175442e-05,-0.004022437277655476,0.028235696427973765,9.793265973969044
3.84,80.0,-2.0,0.0,-0.37,5.680000000000001,5.3100000000000005,6.050000000000001,60,-0.5984635092359119,0.4306369935272254,-6.615736395920724e-05,-0.003347526105184996,0.03354996535286978,9.808669084926176
3.872,80.0,-1.0,1.0,-0.32999,5.680000000000001,5.350010000000001,6.00999,60,-0.601857837527326,0.42933397975986104,-6.632050735549434e-05,-0.002687773808677638,0.03951039222586651,9.815362714450256
3.904,80.0,-1.0,0.0,-0.33999999999999997,5.680000000000001,5.340000000000001,6.0200000000000005,60,-0.6052408294579912,0.42800169182266407,-6.650189798424952e-05,-0.002298051193243616,0.04130302060867079,9.805630050060845
3.936,80.0,0.0,1.0,-0.28998999999999997,5.680000000000001,5.39001,5.969990000000001,60,-0.6086135839485974,0.4266436926846157,-6.674599445050111e-05,-0.0019088312819867637,0.037875893443999206,9.791535934467367
3.968,80.0,0.0,0.0,-0.29,5.680000000000001,5.390000000000001,5.970000000000001,60,-0.6119754609751276,0.42525947843302303,-6.69682968965149e-05,-0.0018528234519095152,0.038916713887759885,9.76564759000808
4.0,80.0,1.0,1.0,-0.22999000000000003,5.680000000000001,5.450010000000001,5.9099900000000005,60,-0.6153280856649839,0.4238533627460996,-6.719503889989625e-05,-0.0018282210816069839,0.03479935112107291,9.778772913942118
4.032,80.0,1.0,0.0,-0.22000000000000003,5.680000000000001,5.460000000000001,5.9,60,-0.6186712445897341,0.4224256246426272,-6.732617067825228e-05,-0.0022664035100836842,0.034909962113528224,9.81569649957529
4.064,80.0,0.0,-1.0,-0.27001000000000003,5.680000000000001,5.4099900000000005,5.950010000000001,60,-0.6220070599630143,0.4209812332387859,-6.74010121744957e-05,-0.002696661119665603,0.03021808294898072,9.809970219866539
4.096,80.0,1.0,1.0,-0.20999,5.680000000000001,5.47001,5.889990000000001,60,-0.6253359764643148,0.4195209287064817,-6.748314929069278e-05,-0.00306084228818995,0.029669460949810034,9.807786716670272
4.128,80.0,1.0,0.0,-0.2,5.680000000000001,5.48,5.880000000000001,60,-0.6286559582461441,0.41804077464515277,-6.743339364237606e-05,-0.0030147247628290407,0.033824637193900754,9.787723112277586
4.16,80.0,0.0,-1.0,-0.25001,5.680000000000001,5.429990000000001,5.93001,60,-0.6319691359605117,0.4165455856422091,-6.73335424261727e-05,-0.00285215860056498,0.029005106947375056,9.824510367389818
4.192,80.0,0.0,0.0,-0.25,5.680000000000001,5.430000000000001,5.930000000000001,60,-0.6352759027013098,0.4150360303137887,-6.725454261668172e-05,-0.0025508855571994386,0.02820695105083743,9.81370510770894
4.224,80.0,-4.0,-4.0,-0.49004,5.680000000000001,5.189960000000001,6.17004,60,-0.6385742631328318,0.4135080335037056,-6.714702908211523e-05,-0.002401909733868219,0.032666919729003804,9.793474301377529
4.256,80.0,-8.0,-4.0,-0.7700400000000001,5.680000000000001,4.909960000000001,6.45004,60,-0.6418644522451369,0.4119612118147135,-6.728780154377847e-05,-0.0014773118824479008,0.032351305403431424,9.816414766579664
4.288,80.0,-15.0,-7.0,-1.27007,5.680000000000001,4.409930000000001,6.95007,60,-0.6450886977636814,0.4103998112774491,-6.766847007442546e-05,-0.06359812586988821,0.054025360155387836,9.838901139899168
4.32,80.0,-20.0,-5.0,-1.72005,5.680000000000001,3.9599500000000005,7.40005,60,-0.6481464777937556,0.4088570419266106,-6.838238523756285e-05,-0.1624658464701024,0.07231420345567212,9.855788626421736
4.352,80.0,-22.0,-2.0,-2.04002,5.680000000000001,3.6399800000000004,7.720020000000001,60,-0.6510447793203227,0.4073119692603971,-6.994956025922934e-05,-0.14317211031049648,0.09137237992645604,9.790057805530175
4.384,80.0,-23.0,-1.0,-2.3200100000000003,5.680000000000001,3.3599900000000003,8.000010000000001,60,-0.653813037000067,0.40573539543525045,-7.258455920591649e-05,-0.09774137838754106,0.10556310871158901,9.8077729041411
4.416,80.0,-23.0,0.0,-2.5500000000000003,5.680000000000001,3.1300000000000003,8.23,60,-0.65645638909214,0.40411684244296747,-7.648246473960715e-05,-0.08200361333393055,0.11574302758044158,9.848395997807422
4.448,80.0,-19.0,4.0,-2.53996,5.680000000000001,3.1400400000000004,8.21996,60,-0.6588977611603178,0.40249710019013846,-7.874559463485684e-05,-0.1624484245139965,0.13009277568404462,9.838355930664381
4.48,80.0,-29.0,-10.0,-3.3301000000000003,5.680000000000001,2.3499000000000003,9.010100000000001,60,-0.660518203767267,0.40131112802809443,-8.154505693569632e-05,-0.9024709742987074,0.13348146188610802,9.71166961062088
4.5120000000000005,80.0,-39.0,-10.0,-4.2201,5.680000000000001,1.4599000000000002,9.900100000000002,60,-0.6612762697613828,0.4006858373455245,-8.522648122507442e-05,-1.0060774227530511,0.0381549942174746,9.880938843655905
4.5440000000000005,80.0,-44.0,-5.0,-4.91005,5.680000000000001,0.7699500000000006,10.590050000000002,60,-0.6617611899852688,0.40030123066687523,-8.881870808147979e-05,-0.35384137495135093,-0.02972130689459765,9.816801590186707
4.5760000000000005,80.0,-45.0,-1.0,-5.41001,5.680000000000001,0.26999000000000084,11.09001,60,-0.662108017812855,0.40005579250927353,-9.119386696356327e-05,-0.18894430519197164,-0.020379615152301207,9.799712529636238
4.6080000000000005,80.0,-32.0,13.0,-5.07987,5.680000000000001,0.6001300000000009,10.75987,60,-0.6637080160904528,0.39901050526804166,-9.2049998011259e-05,1.4474679554952603,-0.10558941384809065,9.85044202778581
4.64,80.0,-10.0,22.0,-4.07978,5.680000000000001,1.6002200000000002,9.759780000000001,60,-0.6653289124872087,0.3977563624041267,-9.216564517552234e-05,0.14921199651859995,0.15570742948147664,9.784711015514715
4.672,80.0,6.0,16.0,-3.2198399999999996,5.680000000000001,2.460160000000001,8.899840000000001,60,-0.6671063295819274,0.396143285808981,-9.314882857010091e-05,0.3550895714267527,0.15847360691123097,9.773418894601404
4.704,80.0,-9.0,-15.0,-4.060149999999999,5.680000000000001,1.6198500000000013,9.74015,60,-0.6678044642275464,0.39544444419432384,-9.668350065830493e-05,-1.3806725212088686,0.09686166957500963,9.854296023753916
4.736,80.0,-20.0,-11.0,-4.810110000000001,5.680000000000001,0.8698899999999998,10.490110000000001,60,-0.6682599245059856,0.39498625793313413,-0.00010008194077930008,-0.3332902866638777,0.007475676371144173,9.835976184322545
4.768,80.0,-25.0,-5.0,-5.31005,5.680000000000001,0.3699500000000002,10.99005,60,-0.6685060139213602,0.39473785957156804,-0.00010289451890227799,-0.29083126468476217,0.005982790932499325,9.847436146701337
4.8,80.0,-27.0,-2.0,-5.68002,5.680000000000001,-1.9999999999242846e-05,11.36002,60,-0.6686128448219882,0.39462653420236876,-0.00010418590004298775,-0.19067198430999494,0.011807855074035202,9.843397221306667
4.832,80.0,-27.0,0.0,-5.950000000000001,5.680000000000001,-0.27000000000000046,11.630000000000003,60,-0.668613589612593,0.3946073137885881,-0.00010382984724642032,-0.13746902344620732,0.022222910420571312,9.803289517265767
4.864,80.0,2.0,29.0,-4.479710000000001,5.680000000000001,1.2002899999999999,10.15971,60,-0.6698975246564287,0.39346072955905903,-0.00010213648019578164,1.6599887902602222,-0.13727893152910875,9.797038434113714
4.896,80.0,21.0,19.0,-3.3198100000000004,5.680000000000001,2.3601900000000002,8.99981,60,-0.6714462878424731,0.39181358977833164,-0.00010026628936366487,0.5383451124359813,0.13059442355144746,9.807555674315678
4.928,80.0,32.0,11.0,-2.44989,5.680000000000001,3.2301100000000007,8.12989,60,-0.67312309347632,0.38974619079563677,-9.998683056355873e-05,0.4047161546074971,0.16360975822695395,9.800349895178057
4.96,80.0,14.0,-18.0,-3.21018,5.680000000000001,2.469820000000001,8.89018,60,-0.6739616648211808,0.3886698136593281,-0.00010246216532047887,-1.265396948662448,0.056403353431153415,9.88087108192635
4.992,80.0,-1.0,-15.0,-3.97015,5.680000000000001,1.7098500000000008,9.65015,60,-0.674580638504604,0.38793614401313586,-0.00010454038548005432,-0.3960791704215017,-0.03067263719985104,9.82690509221335
5.024,80.0,-11.0,-10.0,-4.5801,5.680000000000001,1.0999000000000008,10.260100000000001,60,-0.6750482102260305,0.38739855063481127,-0.00010575863570569735,-0.24300439242171004,0.006734836767849352,9.841019038282486
5.056,80.0,-19.0,-8.0,-5.17008,5.680000000000001,0.509920000000001,10.85008,60,-0.6753517971201984,0.3870565462017103,-0.00010534845691261008,-0.2507871758100201,0.013479572651973868,9.791448272541363
5.088,80.0,4.0,23.0,-3.9797699999999994,5.680000000000001,1.7002300000000012,9.65977,60,-0.6766791653796395,0.3855717073569247,-0.00010331013042417896,1.4953999309530601,-0.10319975120042553,9.788951449900388
5.12,80.0,21.0,17.0,-2.91983,5.680000000000001,2.7601700000000005,8.59983,60,-0.6781532924075496,0.3836382133059026,-0.00010083288568424331,0.44348115941281235,0.1425289285506924,9.847267919994778
5.152,80.0,29.0,8.0,-2.22992,5.680000000000001,3.4500800000000007,7.9099200000000005,60,-0.6797171032023159,0.38130321731221595,-9.962587737115391e-05,0.3789269056515768,0.146095412955385,9.80446258279105
5.184,80.0,27.0,-2.0,-2.06002,5.680000000000001,3.6199800000000004,7.740020000000001,60,-0.6809652951935585,0.3791917990091877,-9.988691156231043e-05,-0.3445477909936109,0.1687846109371841,9.813530495295213
5.216,80.0,7.0,-20.0,-2.9901999999999997,5.680000000000001,2.689800000000001,8.670200000000001,60,-0.6818042740123416,0.37783781676682954,-0.00010097988023518786,-0.8381987943835749,-0.0422205107881463,9.841245969137601
5.248,80.0,-6.0,-13.0,-3.70013,5.680000000000001,1.9798700000000005,9.380130000000001,60,-0.6824529227325076,0.3768594096274942,-0.00010205176704854158,-0.4065779078597069,-0.029994953127349573,9.861898917388025
5.28,80.0,-16.0,-10.0,-4.3601,5.680000000000001,1.3199000000000005,10.0401,60,-0.6829154230727909,0.37613464306746136,-0.00010204012831289619,-0.3086242041178927,0.02813770809872318,9.864887185948891
5.312,80.0,2.0,18.0,-3.43982,5.680000000000001,2.2401800000000005,9.11982,60,-0.6842164959609134,0.37427092656750305,-0.00010057702635932197,1.3819350179553076,-0.11144820253667051,9.763653254199552
5.344,80.0,18.0,16.0,-2.45984,5.680000000000001,3.220160000000001,8.13984,60,-0.6855668618934174,0.37203188205542836,-9.840969357043441e-05,0.34827893327245224,0.14629113150095288,9.791549643026043
5.376,80.0,26.0,8.0,-1.79992,5.680000000000001,3.8800800000000004,7.479920000000001,60,-0.6869590041028681,0.3694142319122083,-9.705574341283343e-05,0.34928926874735516,0.14065753462810776,9.831509509656442
5.408,80.0,33.0,7.0,-1.1199299999999999,5.680000000000001,4.5600700000000005,6.799930000000001,60,-0.6883444204102136,0.3665354404252149,-9.670473194733735e-05,0.23048770784158176,0.12650053905248976,9.810324876524247
5.44,80.0,21.0,-12.0,-1.51012,5.680000000000001,4.169880000000001,7.19012,60,-0.6893070936234861,0.3643058018478484,-9.677924377624568e-05,-0.7488094356148,0.12034251693489893,9.793329905739276
5.472,80.0,4.0,-17.0,-2.3201699999999996,5.680000000000001,3.359830000000001,8.00017,60,-0.6901491557712468,0.3625778816054193,-9.703980744834445e-05,-0.4878034720098255,-0.09661084154159412,9.805654053228032
5.5040000000000004,80.0,-11.0,-15.0,-3.18015,5.680000000000001,2.499850000000001,8.86015,60,-0.6908294828294417,0.36119515920703416,-9.701251384465134e-05,-0.37282866103178053,-5.553960615839527e-05,9.855578483755094
5.5360000000000005,80.0,3.0,14.0,-2.44986,5.680000000000001,3.2301400000000005,8.12986,60,-0.6921100095954191,0.35883469378684446,-9.607096951708138e-05,1.1160959125342185,-0.10123513000593155,9.830535066091889
5.5680000000000005,80.0,13.0,10.0,-1.8199000000000003,5.680000000000001,3.8601,7.499900000000001,60,-0.6933860318593097,0.3561692654412098,-9.413445782141018e-05,0.27288995275308403,0.13904299088092892,9.851715502274573
5.6000000000000005,80.0,20.0,7.0,-1.26993,5.680000000000001,4.410070000000001,6.94993,60,-0.6946416234802415,0.35324679561021954,-9.243650841220079e-05,0.22628242041790683,0.12667278146281744,9.833005130265091
5.632,80.0,24.0,4.0,-0.82996,5.680000000000001,4.850040000000001,6.50996,60,-0.6958736524644783,0.3501065238678875,-9.116540926727354e-05,0.19241335262645387,0.11192364015693121,9.818259780557518
5.664,80.0,22.0,-2.0,-0.71002,5.680000000000001,4.9699800000000005,6.390020000000001,60,-0.6970813249420923,0.34679493751444895,-9.005478009931588e-05,0.15109998270615005,0.09470060051907757,9.849496792776934
5.696,80.0,19.0,-3.0,-0.67003,5.680000000000001,5.009970000000001,6.35003,60,-0.6982414640277791,0.3434246116348942,-8.89137048675076e-05,0.04035222653460148,0.08037560414392887,9.777802152326851
5.728,80.0,12.0,-7.0,-0.9000699999999999,5.680000000000001,4.77993,6.580070000000001,60,-0.6992570795086804,0.3402614785027144,-8.762961278945686e-05,-0.23561694818192086,0.09220871212955017,9.800107228087603
5.76,80.0,1.0,-11.0,-1.44011,5.680000000000001,4.239890000000001,7.12011,60,-0.7001803736950499,0.33734360545258185,-8.643349765479619e-05,-0.2552691187077037,0.033049397374375546,9.830019040395221
5.792,80.0,-6.0,-7.0,-1.85007,5.680000000000001,3.8299300000000005,7.53007,60,-0.7010938427351132,0.33447732293895,-8.562528315746339e-05,-0.05079540167291969,0.01609281547403036,9.817515787858344
5.824,80.0,-9.0,-3.0,-2.0900300000000005,5.680000000000001,3.58997,7.770030000000001,60,-0.7020259531527259,0.33145799045714797,-8.50237208592005e-05,0.1489676583981116,0.04463782849975412,9.83878719126879
5.856,80.0,-13.0,-4.0,-2.4200399999999997,5.680000000000001,3.259960000000001,8.10004,60,-0.7028405154173002,0.32848725822783237,-8.462566661309422e-05,-0.07348658125989437,0.122401528404109,9.79117045573752
5.888,80.0,-19.0,-6.0,-2.91006,5.680000000000001,2.7699400000000005,8.590060000000001,60,-0.703536321866575,0.325548706101963,-8.482722864555994e-05,-0.05416363220962026,0.12952580745450099,9.834523964957253
5.92,80.0,-27.0,-8.0,-3.58008,5.680000000000001,2.0999200000000005,9.26008,60,-0.7039947637056724,0.323224728590346,-8.599606434210767e-05,-0.6301667873891467,0.14217373146956241,9.766117304530628
5.952,80.0,-34.0,-7.0,-4.27007,5.680000000000001,1.409930000000001,9.95007,60,-0.7041752138463953,0.322070548183101,-8.827154686760069e-05,-1.176467338488852,0.07580973888772399,9.79612860295029
5.984,80.0,-39.0,-5.0,-4.91005,5.680000000000001,0.7699500000000006,10.590050000000002,60,-0.7043027228739029,0.32129820008300736,-9.101262858133077e-05,-0.37563895786743273,0.0016345038029662354,9.748466912145323
6.016,80.0,-41.0,-2.0,-5.42002,5.680000000000001,0.25998000000000054,11.10002,60,-0.7043690607233598,0.3208674477603909,-9.325325310617291e-05,-0.3401616308504267,0.015523332968935972,9.80059915555417
6.048,80.0,-42.0,-1.0,-5.89001,5.680000000000001,-0.21000999999999959,11.57001,60,-0.7043976558943059,0.32065416426128374,-9.448712939737376e-05,-0.2167070058072695,0.01566430980592482,9.804502200860052
6.08,80.0,-35.0,7.0,-5.88993,5.680000000000001,-0.20992999999999906,11.56993,60,-0.7047639815810204,0.3188033088078874,-9.467677446268162e-05,1.6303031813105666,-0.11787478447364717,9.80332941585833
6.112,80.0,-29.0,6.0,-5.8799399999999995,5.680000000000001,-0.1999399999999989,11.559940000000001,60,-0.7049795277259069,0.31685408031759454,-9.467963189745132e-05,0.08971928024901114,0.16885913979213973,9.796499253151415
6.144,80.0,-26.0,3.0,-5.9899700000000005,5.680000000000001,-0.30996999999999986,11.669970000000001,60,-0.7049802417400385,0.31620962998698987,-9.613050015403954e-05,-1.282793411496946,0.1998786927560895,9.846986239152747
6.176,80.0,-25.0,1.0,-6.189990000000001,5.680000000000001,-0.5099900000000002,11.869990000000001,60,-0.7049530947808287,0.3162896707422999,-9.918863404578468e-05,-0.7097428971264427,0.03376999468898189,9.846839931172285
6.208,80.0,-23.0,2.0,-6.31998,5.680000000000001,-0.6399799999999995,11.99998,60,-0.7049304999145038,0.31642346774634056,-0.00010261094671256896,-0.053187189027805906,0.013537765344670912,9.821119035808131
6.24,80.0,-20.0,3.0,-6.36997,5.680000000000001,-0.6899699999999998,12.049970000000002,60,-0.7049126331247246,0.3165916653786617,-0.00010544377619329907,-0.03402553385420315,0.014578465233647715,9.822830266103367
6.272,80.0,-16.0,4.0,-6.32996,5.680000000000001,-0.6499599999999992,12.00996,60,-0.7048996298924876,0.3167724580504535,-0.0001074373431986346,-0.01271895867745915,0.015130611446032834,9.787112523349752
6.304,80.0,-12.0,4.0,-6.24996,5.680000000000001,-0.5699599999999991,11.929960000000001,60,-0.7048908784895845,0.31694385763875593,-0.00010833027429783468,0.008776602603549715,0.015603276461038342,9.787849014614835
6.336,80.0,-8.0,4.0,-6.1299600000000005,5.680000000000001,-0.4499599999999999,11.80996,60,-0.7048853800336359,0.3170951642369064,-0.00010821061041168395,0.019329669522062557,0.01594690754426342,9.79952939700079
6.368,80.0,-5.0,3.0,-6.0299700000000005,5.680000000000001,-0.3499699999999999,11.709970000000002,60,-0.7048818198886204,0.3172111539923057,-0.00010724449937472152,0.0340910841314952,0.01607906625481679,9.847102484229115
6.4,80.0,-2.0,3.0,-5.89997,5.680000000000001,-0.2199699999999991,11.57997,60,-0.7048794481575595,0.3173009043605759,-0.00010561710336171558,0.025448297521228912,0.01614760966763774,9.821803457287649
6.432,80.0,-1.0,1.0,-5.859990000000001,5.680000000000001,-0.1799900000000001,11.539990000000001,60,-0.7048333588898059,0.3160795404556706,-0.00010349882574455481,1.2774684957824498,-0.04586401335758398,9.786366246854639
6.464,80.0,-5.0,-4.0,-6.110040000000001,5.680000000000001,-0.43004,11.790040000000001,60,-0.7046638768882856,0.31412695543601893,-0.00010158626596398074,0.7257446851618856,0.02482110019411482,9.833991881593967
6.496,80.0,-8.0,-3.0,-6.3400300000000005,5.680000000000001,-0.6600299999999999,12.020030000000002,60,-0.7043646329542705,0.312338960210848,-0.00010111707209623302,-0.12653681142376685,0.1752464937132458,9.824865183045295
6.5280000000000005,80.0,-5.0,3.0,-6.2399700000000005,5.680000000000001,-0.5599699999999999,11.919970000000001,60,-0.7043824413204918,0.3125360219886087,-0.00010389282119451643,-1.9529016478141865,0.16887186479342162,9.80199082398669
6.5600000000000005,80.0,-1.0,4.0,-6.04996,5.680000000000001,-0.36995999999999896,11.72996,60,-0.7044081670590271,0.31270347125229975,-0.0001072806897387691,0.025755332366849626,0.004086207590692284,9.805748207090193
6.5920000000000005,80.0,1.0,2.0,-5.93998,5.680000000000001,-0.25997999999999966,11.619980000000002,60,-0.7044231177745663,0.3128143667397151,-0.00010998937678551556,0.055682532950601396,0.016424923919077006,9.783828875905273
6.6240000000000006,80.0,3.0,2.0,-5.8099799999999995,5.680000000000001,-0.12997999999999887,11.48998,60,-0.704432374056815,0.31289240989017275,-0.00011215321639473919,0.03226364272079246,0.01811651228707911,9.79774280473283
6.656000000000001,80.0,4.0,1.0,-5.71999,5.680000000000001,-0.039989999999999526,11.39999,60,-0.7044329507248298,0.3129315935025167,-0.00011388133290798387,0.03857682650888593,0.020200706774078776,9.801220647383765
6.688,80.0,4.0,0.0,-5.68,5.680000000000001,8.881784197001252e-16,11.36,60,-0.7044271098417177,0.31294384758021926,-0.00011372815876459219,0.02686412339002136,0.020888977946930582,9.787077210757525
6.72,80.0,4.0,0.0,-5.64,5.680000000000001,0.040000000000000924,11.32,60,-0.7044200602556929,0.31294408556888953,-0.00011224965103069987,0.01154180874767991,0.01890194460763701,9.844653728614045
6.752,80.0,3.0,-1.0,-5.66001,5.680000000000001,0.01999000000000084,11.34001,60,-0.7043550787310037,0.3127150476866175,-0.00010967781350571838,0.23083228430788616,0.016779639914326887,9.841544616514236
6.784,80.0,-3.0,-6.0,-5.990060000000001,5.680000000000001,-0.31006,11.670060000000001,60,-0.703842607382728,0.3107782075386911,-0.00010641088074102648,1.7276571254815614,-0.10807786826338048,9.828236310367561
6.816,80.0,-5.0,-2.0,-6.14002,5.680000000000001,-0.4600199999999992,11.82002,60,-0.7032078030738487,0.3089619777467809,-0.00010364617126456914,-0.060607606826687206,0.1736001484409364,9.767564006549474
6.848,80.0,-1.0,4.0,-5.94996,5.680000000000001,-0.2699599999999993,11.62996,60,-0.7032087810372705,0.30903063222755256,-0.00010438679308500363,-1.933123401903951,0.1845720860870945,9.750325639653468
6.88,80.0,1.0,2.0,-5.83998,5.680000000000001,-0.15997999999999912,11.51998,60,-0.7032236198937621,0.30911622259481836,-0.00010519144681620136,-0.021026400523930244,0.011682472942860395,9.7815481927053
6.912,80.0,3.0,2.0,-5.70998,5.680000000000001,-0.02997999999999923,11.389980000000001,60,-0.7032282781438233,0.3091675653237921,-0.00010652838287428593,0.03417400746231179,0.013626801919125183,9.844608429551776
6.944,80.0,3.0,0.0,-5.68,5.680000000000001,8.881784197001252e-16,11.36,60,-0.7032198356600722,0.30917870914614254,-0.00010750828876429121,0.04058596831936555,0.014286289902600731,9.823487934245769
6.976,80.0,3.0,0.0,-5.6499999999999995,5.680000000000001,0.030000000000001137,11.33,60,-0.7032092183759087,0.3091802993918598,-0.00010766839001001387,0.009218665334837792,0.01675292008158368,9.81132933450768
7.008,80.0,3.0,0.0,-5.62,5.680000000000001,0.0600000000000005,11.3,60,-0.7031964103962666,0.3091724052922652,-0.00010685078298211526,0.009213226579341276,0.01646081893013285,9.798288154974337
7.04,80.0,5.0,2.0,-5.46998,5.680000000000001,0.21002000000000098,11.14998,60,-0.7026211262335198,0.30810943630994614,-0.00010509325004591681,1.16835737756959,0.04674332616459326,9.804633878709227
7.072,80.0,3.0,-2.0,-5.54002,5.680000000000001,0.13998000000000044,11.220020000000002,60,-0.701692551733768,0.30628148551944046,-0.00010320907121578148,0.8208362371842559,-0.0671090263169392,9.823518715402518
7.104,80.0,11.0,8.0,-5.029920000000001,5.680000000000001,0.65008,10.70992,60,-0.7007098945778186,0.30466864818626704,-0.00010248423120554073,-0.14176849509681289,0.18027740991866975,9.814284728677986
7.136,80.0,5.0,-6.0,-5.280060000000001,5.680000000000001,0.39993999999999996,10.960060000000002,60,-0.700521457381333,0.304482313527164,-0.00010488908205808813,-1.57856542045779,0.17179568742285245,9.758293318881774
7.168,80.0,1.0,-4.0,-5.470040000000001,5.680000000000001,0.2099599999999997,11.15004,60,-0.7004051120287531,0.30437049416652073,-0.00010734332465990246,-0.10085940313377262,0.0015406233994811457,9.83781262546001
7.2,80.0,-1.0,-2.0,-5.58002,5.680000000000001,0.0999800000000004,11.26002,60,-0.7003422245447524,0.3043103073290809,-0.00010950594241083446,-0.07145548855810768,0.004745014882035091,9.780821729950931
7.232,80.0,-2.0,-1.0,-5.650009999999999,5.680000000000001,0.029990000000001515,11.33001,60,-0.700308345888347,0.3042863175250655,-0.00011083866494900757,-0.0451596802021215,0.01655665296260883,9.811533681801148
7.264,80.0,-2.0,0.0,-5.67,5.680000000000001,0.010000000000000675,11.350000000000001,60,-0.7002885467353198,0.304280739035446,-0.00011091237253958892,-0.02282010821379945,0.018903626298631928,9.772645073872926
7.296,80.0,-2.0,0.0,-5.6899999999999995,5.680000000000001,-0.009999999999998899,11.370000000000001,60,-0.7002752871061054,0.3042807060157443,-0.00010963387657008695,-0.008234636897593368,0.017239724218621463,9.822844307783942
7.328,80.0,10.0,12.0,-4.98988,5.680000000000001,0.6901200000000003,10.669880000000001,60,-0.6994053120640183,0.3030187448283927,-0.00010725171372313533,1.4940779592163442,-0.08123226249597805,9.776216816474408
7.36,80.0,17.0,7.0,-4.469930000000001,5.680000000000001,1.21007,10.149930000000001,60,-0.6981215914812833,0.3013903055751467,-0.00010488331171259503,0.5390103560017996,0.07830410104586516,9.770014504743276
7.392,80.0,6.0,-11.0,-4.96011,5.680000000000001,0.7198900000000004,10.64011,60,-0.6977681294035062,0.30104138439574957,-0.00010550697368848228,-1.5372105027036154,0.16162734287319083,9.796608094629718
7.424,80.0,0.0,-6.0,-5.26006,5.680000000000001,0.4199400000000004,10.94006,60,-0.6975647160915551,0.3008408450699689,-0.00010571717771547424,-0.20632207696234303,0.002188265531659038,9.807189452825043
7.456,80.0,-4.0,-4.0,-5.50004,5.680000000000001,0.17996000000000034,11.180040000000002,60,-0.6974439777489925,0.30072200007294847,-0.0001058843301556759,-0.11375591940371643,0.008759677028864252,9.823301027240369
7.488,80.0,-5.0,-1.0,-5.60001,5.680000000000001,0.07999000000000045,11.28001,60,-0.697384271454089,0.30067533950042274,-0.0001053636299413567,-0.09286354919066794,0.0183448224323154,9.811000508301081
7.5200000000000005,80.0,5.0,10.0,-5.0499,5.680000000000001,0.6301000000000005,10.7299,60,-0.6965221738403835,0.2996915666377959,-0.00010398406868364525,1.2066345469641424,-0.05062859932422022,9.796480764755085
7.5520000000000005,80.0,18.0,13.0,-4.219869999999999,5.680000000000001,1.4601300000000013,9.89987,60,-0.6950978910721914,0.29821890265942524,-0.00010249323583128023,0.7273626222302407,0.031715906649677314,9.806998174225999
7.5840000000000005,80.0,23.0,5.0,-3.7399499999999994,5.680000000000001,1.9400500000000012,9.41995,60,-0.6933400858952709,0.29666200476766735,-0.0001022310524439636,0.30637036636626386,0.15543326826218068,9.833299828011407
7.6160000000000005,80.0,9.0,-14.0,-4.35014,5.680000000000001,1.329860000000001,10.03014,60,-0.6927048851832222,0.29614942643019115,-0.00010478657764001822,-1.4974916568007257,0.10081751006088055,9.856713338671815
7.648000000000001,80.0,-1.0,-10.0,-4.8601,5.680000000000001,0.8199000000000005,10.5401,60,-0.6923079354892278,0.29581688733420197,-0.00010703055117565127,-0.2907742546209704,0.001311264408293596,9.807612530173888
7.68,80.0,-7.0,-6.0,-5.23006,5.680000000000001,0.4499400000000007,10.910060000000001,60,-0.6920620375210654,0.29561158584422315,-0.00010871293519248981,-0.1940883433935578,0.016498912173297457,9.837930854935944
7.712,80.0,-11.0,-4.0,-5.54004,5.680000000000001,0.1399600000000003,11.220040000000001,60,-0.6919114078629126,0.29549264048711793,-0.00010907347950486757,-0.12601719250291193,0.021819589559010904,9.849332397772557
7.744,80.0,-12.0,-1.0,-5.7100100000000005,5.680000000000001,-0.03000999999999987,11.39001,60,-0.6918540555387628,0.29546147569289927,-0.00010793366851029156,-0.125292443646333,0.023315012548405626,9.811651382194842
7.776,80.0,8.0,20.0,-4.6297999999999995,5.9583745791623315,1.328574579162332,10.588174579162331,32.162542083766866,-0.6905037912038198,0.29426905170463663,-0.00010556051526339032,1.6893302323044506,-0.13604302266424187,9.832865351781779
7.808,80.0,19.0,11.0,-3.88989,5.984170469940613,2.0942804699406135,9.874060469940613,29.582953005938734,-0.6886568563534855,0.2928954555130137,-0.00010322107173679415,0.5025595816468202,0.1341710612802611,9.834485490943825
7.84,80.0,7.0,-12.0,-4.420120000000001,5.9619747275610955,1.5418547275610948,10.382094727561096,31.802527243890506,-0.6877786426587313,0.29235994491276535,-0.00010400497254918137,-1.2448546403860734,0.1683714372120297,9.80916155486394
7.872,80.0,-4.0,-11.0,-5.010110000000001,5.945995952211164,0.9358859522111631,10.956105952211164,33.400404778883654,-0.6872218254799816,0.29198456812674345,-0.00010428337887997442,-0.3478039286461101,-0.03209872074262136,9.875163491363844
7.904,80.0,-11.0,-7.0,-5.47007,5.933960194894684,0.4638901948946845,11.404030194894684,34.603980510531635,-0.686883613398851,0.291755741297297,-0.00010444515282412824,-0.2598644480608732,0.01213681068198588,9.816893336212358
7.936,80.0,-11.0,0.0,-5.58,5.935658732711316,0.35565873271131565,11.515658732711316,34.4341267288685,-0.6865251486953389,0.29152403613664296,-0.00010379204622949952,0.01767431152283048,0.02576507591343813,9.819218178429418
7.968,80.0,10.0,21.0,-4.42979,5.967427977391571,1.5376379773915714,10.39721797739157,31.25720226084296,-0.6849328589173536,0.290417123552046,-0.00010228953331110208,1.4679604251134692,-0.1076818793348588,9.831010885354152
8.0,80.0,21.0,11.0,-3.66989,5.982281813380876,2.312391813380876,9.652171813380876,29.77181866191241,-0.6828829269598875,0.2892188333564328,-0.00010098657733837411,0.43784382089761464,0.1409711268473207,9.817859374391592
8.032,80.0,24.0,3.0,-3.27997,5.954259428654275,2.674289428654275,9.234229428654276,32.574057134572506,-0.6808671856407165,0.28822306688512817,-0.00010118802265746303,-0.11318764013625499,0.18006733507058534,9.818432745232782
8.064,80.0,8.0,-16.0,-4.00016,5.9583745791623315,1.9582145791623313,9.958534579162333,32.162542083766866,-0.6797444813324206,0.2876948680804098,-0.00010280780264601032,-0.9795377140619081,0.040125030198382546,9.863469530305402
8.096,80.0,-5.0,-13.0,-4.700130000000001,5.940795989228253,1.240665989228252,10.640925989228254,33.92040107717471,-0.6791403007872668,0.2873796136700308,-0.00010483100681313307,-0.5448419612855232,-0.030960335371777496,9.836603631835546
8.128,80.0,-12.0,-7.0,-5.17007,5.932268577063414,0.7621985770634137,11.102338577063414,34.77314229365866,-0.6786339635864993,0.2871191605046646,-0.00010589476930098797,-0.10986256531366552,0.02100463031635228,9.80028493916849
8.16,80.0,-17.0,-5.0,-5.59005,5.923913823604375,0.33386382360437494,11.513963823604374,35.60861763956259,-0.6783151872483524,0.28696697646995334,-0.0001054162773409667,-0.21242396015760637,0.024749831580219563,9.774978624373382
8.192,80.0,5.0,22.0,-4.439780000000001,5.948001517802059,1.508221517802058,10.38778151780206,33.19984821979415,-0.6766250888694835,0.28604556284587657,-0.00010352434879244352,1.5398458631855507,-0.12156850573549811,9.819974747783146
8.224,80.0,21.0,16.0,-3.4298400000000004,5.920193224313817,2.4903532243138162,9.350033224313817,35.980677568618326,-0.6744695738273886,0.28508426907516227,-0.00010135835855648416,0.4395853971176603,0.14024118368827804,9.768561214767411
8.256,80.0,30.0,9.0,-2.6799099999999996,5.9359152774797135,3.256005277479714,8.615825277479713,34.40847225202863,-0.6719265769321796,0.28413862119672156,-0.00010056403219676872,0.35578103325900157,0.14795661189897114,9.87061977454586
8.288,80.0,16.0,-14.0,-3.2201400000000007,5.946737103128848,2.7265971031288476,9.166877103128849,33.326289687115214,-0.670377998424967,0.2836520991161617,-0.00010246820463543325,-1.0683122979437172,0.12568968343965686,9.819926935992097
8.32,80.0,3.0,-13.0,-3.8401300000000003,5.961595301755655,2.121465301755655,9.801725301755656,31.84046982443454,-0.6691018760748894,0.28322208395157106,-0.00010379696237789934,-0.2680227098460292,-0.020009122644114193,9.773738738711447
8.352,80.0,-6.0,-9.0,-4.35009,5.978083770390424,1.6279937703904244,10.328173770390425,30.191622960957613,-0.6681221031519405,0.28287365163433553,-0.00010465633746966838,-0.29863191524720184,-0.0076972131706303255,9.790709881928366
8.384,80.0,-14.0,-8.0,-4.89008,5.989896397373126,1.099816397373126,10.879976397373127,29.010360262687406,-0.6673732773503047,0.2826038396344128,-0.00010435869752123753,-0.23809696626032684,0.009626034021741147,9.822642040299865
8.416,80.0,2.0,16.0,-4.06984,5.982833015731474,1.912993015731474,10.052673015731475,29.71669842685262,-0.665449827775987,0.2817774353777615,-0.00010277199853732898,1.2587355065777044,-0.15276630400670901,9.784697765037793
8.448,80.0,15.0,13.0,-3.2698700000000005,5.994812722113292,2.724942722113292,9.264682722113292,28.51872778867077,-0.6629796649586854,0.2809916307270089,-0.00010063599575920248,0.5083605979053484,0.1913521863941551,9.830494267777864
8.48,80.0,24.0,9.0,-2.57991,6.005008612689529,3.4250986126895286,8.584918612689528,27.49913873104715,-0.6602090117450465,0.2802738322770758,-9.940123577487948e-05,0.2729512235203293,0.14354946456276713,9.850964762566432
8.512,80.0,27.0,3.0,-2.15997,6.0174975763031116,3.8575275763031116,8.177467576303112,26.2502423696889,-0.6574585002351842,0.279706087430262,-9.929787229949819e-05,-0.046406512467398874,0.1567909244712347,9.828151939491287
8.544,80.0,15.0,-12.0,-2.6101199999999998,6.030260890941166,3.4201408909411666,8.640380890941167,24.973910905883393,-0.6553922334984699,0.27934571752957427,-9.989162260291146e-05,-0.6986855815938917,0.08162312533669164,9.81896002056293
8.576,80.0,4.0,-11.0,-3.12011,6.0411037547895114,2.9209937547895115,9.161213754789511,23.88962452104884,-0.6535917913215534,0.2789897044764924,-0.00010068936353950508,-0.25386504711727215,-0.032640061796216945,9.734384217645331
8.608,80.0,-7.0,-11.0,-3.74011,6.054358883066748,2.3142488830667483,9.794468883066749,22.564111693325223,-0.6520728809355976,0.2786643980563943,-0.00010094428698948811,-0.27570236899878353,-0.013179487538233583,9.808668834139114
8.64,80.0,-12.0,-5.0,-4.11005,6.063340412767098,1.9532904127670978,10.173390412767098,21.66595872329021,-0.6506235470647105,0.27834285717878626,-0.00010027475459529339,-0.06716401026688468,0.00730536359763114,9.86028494526226
8.672,80.0,2.0,14.0,-3.38986,6.072435205872453,2.682575205872453,9.462295205872453,20.756479412754754,-0.6481085787207761,0.2777533754317817,-9.858518111944756e-05,1.075240205660488,-0.056588175682735754,9.840646045320453
8.704,80.0,14.0,12.0,-2.64988,6.0793291291601586,3.4294491291601585,8.729209129160159,20.067087083984145,-0.6453252183018655,0.27725801099554037,-9.645877000212869e-05,0.24689274106497042,0.1431607444210661,9.78699162911181
8.736,80.0,22.0,8.0,-2.0299199999999997,6.088615912797153,4.058695912797154,8.118535912797153,19.138408720284666,-0.6422835324972097,0.27685752614859255,-9.497063424423156e-05,0.24327418687356128,0.13377907770520225,9.809646183836673
8.768,80.0,27.0,5.0,-1.5099499999999997,6.09565051177078,4.5857005117707805,7.60560051177078,18.434948822922017,-0.6389797233928998,0.27655399971365,-9.419349446578018e-05,0.2492081363953805,0.13048005288735326,9.878120970646764
8.8,80.0,22.0,-5.0,-1.5400500000000001,6.107503119957004,4.567453119957004,7.647553119957004,17.249688004299607,-0.6360433579774009,0.27636524948593866,-9.369212173750141e-05,-0.36448291537690614,0.10226514374626325,9.7757496694524
8.832,80.0,13.0,-9.0,-1.8600900000000002,6.119509952074668,4.259419952074667,7.979599952074668,16.04900479253322,-0.6333247065286002,0.2761853712552815,-9.324267122622944e-05,-0.21231061639311088,0.010573858699639916,9.794266369837446
8.864,80.0,5.0,-8.0,-2.21008,6.28,4.06992,8.49008,0,-0.6308042487140962,0.27599748081535147,-9.271324789913819e-05,-0.19301120265305766,-0.00466582499389958,9.768936018419913
8.896,80.0,3.0,-2.0,-2.2800200000000004,6.28,3.99998,8.560020000000002,0,-0.6280288411470281,0.27576194880781946,-9.180866096665866e-05,0.2531191407414517,-0.005669851378215987,9.860484147196868
8.928,80.0,9.0,6.0,-1.88994,6.28,4.39006,8.16994,0,-0.6247566193367824,0.2755047175237841,-9.044274082230588e-05,0.48728860797746465,0.02608828052570324,9.787862347084754
8.96,80.0,14.0,5.0,-1.49995,6.28,4.78005,7.77995,0,-0.6213492891135034,0.2753279313843326,-8.86597690117584e-05,0.12983278646934826,0.10197915137298046,9.756544087829637
8.992,80.0,17.0,3.0,-1.1799700000000002,6.28,5.10003,7.45997,0,-0.6178123369741426,0.2752219453779292,-8.674635694418814e-05,0.1263583534336379,0.09074643917032547,9.828449006302973
9.024000000000001,80.0,18.0,1.0,-0.9499900000000001,6.28,5.33001,7.229990000000001,0,-0.6141715603241417,0.2751753105084944,-8.475099940109289e-05,0.10174854761698658,0.07759698788035894,9.800149006304624
9.056000000000001,80.0,19.0,1.0,-0.7099900000000001,6.28,5.57001,6.989990000000001,0,-0.6104573594674193,0.2751769359555437,-8.266789819614748e-05,0.07195267705656223,0.066487840804106,9.778639210824004
9.088000000000001,80.0,19.0,0.0,-0.5199999999999999,6.28,5.760000000000001,6.8,0,-0.6066672718373209,0.2752178793725804,-8.045004500565126e-05,0.07503091071283136,0.057900403700298135,9.785976134841809
9.120000000000001,80.0,18.0,-1.0,-0.39001,6.28,5.88999,6.67001,0,-0.6028173275791984,0.27528797799363175,-7.814763604582775e-05,0.05924342270325969,0.04824155739693946,9.812322666544492
9.152000000000001,80.0,17.0,-1.0,-0.27001000000000003,6.28,6.00999,6.55001,0,-0.5989263945410189,0.2753787386427784,-7.588262197090988e-05,0.040888092004970095,0.04102395429555603,9.842728031715115
9.184000000000001,80.0,15.0,-2.0,-0.22001999999999997,6.28,6.05998,6.50002,0,-0.5949973632338269,0.2754792070450071,-7.376186015779773e-05,0.03774616450719837,0.030443252982228962,9.806072000787044
9.216000000000001,80.0,12.0,-3.0,-0.25002999999999986,6.28,6.0299700000000005,6.53003,0,-0.5910522671840721,0.2755893318295436,-7.194203042730843e-05,0.0161824329889134,0.03096796166679133,9.804081316903169
