Time,SetPointAngle,SensorAngleRow,SensorAngleWidth,Angle,IntegralAngle,DeltaAngle,BaseSpeed,SetPointError,SensorErrorRow,SensorErrorWidth,Error,IntegralError,DeltaError,DeltaSpeed,LeftSpeed,RightSpeed,X,Y,Z,Roll,Pitch,Yaw
0.032,0,4,1,0.5729386976839008,0.5729386976839008,0.5729386976839008,6.250780126418121,160,9,1,0,0,0,0.0,6.250780126418121,6.250780126418121,-0.561500000000001,0.12999999999999848,-6.397066024614768e-05,-4.362072260548527e-07,1.0325598529030157e-07,9.779364405955523
0.064,0,4,1,0.5729386976839008,1.1458773953678016,0.0,6.251353065115805,160,9,1,0,0,0,0.0,6.251353065115805,6.251353065115805,-0.5614999959242598,0.12600157878654147,-1.5031971106809969e-05,4.694358903378898,9.021460041869664e-08,9.554592460805724
0.096,0,4,1,0.5729386976839008,1.7188160930517025,0.0,6.251353065115805,160,9,1,0,0,0,0.0,6.251353065115805,6.251353065115805,-0.5614999933724525,0.1219990906962398,-6.0684739038814606e-05,0.39642286466959586,-2.35870208053864e-06,9.679106159806521
0.128,0,4,1,0.5729386976839008,2.2917547907356033,0.0,6.251353065115805,160,9,1,0,0,0,0.0,6.251353065115805,6.251353065115805,-0.5614999888274883,0.11799791364558704,-7.884792832922767e-05,-0.027246348847630303,1.2680420411936812e-06,9.865954309644467
0.16,0,4,1,0.5729386976839008,2.864693488419504,0.0,6.251353065115805,160,9,1,0,0,0,0.0,6.251353065115805,6.251353065115805,-0.5614999860589147,0.1139972105737025,-7.1065175748182e-05,0.1811729900724408,-2.346409082816711e-06,9.848324952467918
0.192,0,4,1,0.5729386976839008,3.4376321861034045,0.0,6.251353065115805,160,9,1,0,0,0,0.0,6.251353065115805,6.251353065115805,-0.5614999833847529,0.10999645458307969,-7.074218764208454e-05,0.08049830122329547,-8.324932838618089e-07,9.794576373837346
0.224,0,4,1,0.5729386976839008,4.010570883787305,0.0,6.251353065115805,160,9,1,0,0,0,0.0,6.251353065115805,6.251353065115805,-0.561499978589824,0.10599565295869745,-7.014774378451619e-05,-0.025080410189083333,1.47193942141516e-06,9.81679465855473
0.256,0,4,1,0.5729386976839008,4.583509581471206,0.0,6.251353065115805,160,9,1,0,0,0,0.0,6.251353065115805,6.251353065115805,-0.5614999757008768,0.10199484524826563,-6.847195051359542e-05,-0.02356958623149757,-2.320584720026962e-06,9.79101668618344
0.28800000000000003,0,4,1,0.5729386976839008,5.156448279155106,0.0,6.251353065115805,160,9,1,0,0,0,0.0,6.251353065115805,6.251353065115805,-0.5614999711849447,0.09799402298751955,-6.757193255452904e-05,-0.020306668438479784,1.2186041296942169e-06,9.789380801936344
0.32,0,4,1,0.5729386976839008,5.729386976839007,0.0,6.251353065115805,160,9,1,0,0,0,0.0,6.251353065115805,6.251353065115805,-0.5614999667648982,0.09399319199642236,-6.685794508210115e-05,-0.01605951817259301,-3.914463397671635e-07,9.775788666221441
0.352,0,4,1,0.5729386976839008,6.3023256745229075,0.0,6.251353065115805,160,9,1,0,0,0,0.0,6.251353065115805,6.251353065115805,-0.5614999624196393,0.08999235402015582,-6.628865768768324e-05,-0.010767366882682086,-3.168285038326935e-07,9.859675418296387
0.384,0,4,1,0.5729386976839008,6.875264372206808,0.0,6.251353065115805,160,9,1,0,0,0,0.0,6.251353065115805,6.251353065115805,-0.5614999581322303,0.08599151045680048,-6.583125511860563e-05,-0.004824369346087693,-2.5449141040805503e-07,9.803544949618948
0.41600000000000004,0,4,1,0.5729386976839008,7.448203069890709,0.0,6.251353065115805,160,9,1,0,0,0,0.0,6.251353065115805,6.251353065115805,-0.561499953889161,0.08199066242773458,-6.545995916870141e-05,0.0014127291464921911,-2.0695433714101187e-07,9.878231384335798
0.448,0,4,1,0.5729386976839008,8.02114176757461,0.0,6.251353065115805,160,9,1,0,0,0,0.0,6.251353065115805,6.251353065115805,-0.5614999496797177,0.07798981083200014,-6.515541873367697e-05,0.007545483770806806,-1.6958181426031062e-07,9.752579818059372
0.48,0,4,1,0.5729386976839008,8.59408046525851,0.0,6.251353065115805,160,9,1,0,0,0,0.0,6.251353065115805,6.251353065115805,-0.5614999454954817,0.07398895638834539,-6.490392412803608e-05,0.013139549514145393,-1.395670356720922e-07,9.735745894654354
0.512,0,4,1,0.5729386976839008,9.167019162942411,0.0,6.251353065115805,160,9,1,0,0,0,0.0,6.251353065115805,6.251353065115805,-0.5614999413299213,0.06998809966859469,-6.46963620917658e-05,0.018198431557839068,-1.1536179799754651e-07,9.744616733694487
0.544,0,4,1,0.5729386976839008,9.739957860626312,0.0,6.251353065115805,160,9,1,0,0,0,0.0,6.251353065115805,6.251353065115805,-0.561499937530045,0.0659872417148562,-6.452650159181374e-05,0.017380304261244713,-4.328713620050337e-07,9.85202351619792
0.5760000000000001,0,4,1,0.5729386976839008,10.312896558310213,0.0,6.251353065115805,160,9,1,0,0,0,0.0,6.251353065115805,6.251353065115805,-0.5614999332855941,0.061986381591281906,-6.441348579769995e-05,0.015546974481982462,3.7081969636568254e-07,9.813970245189784
0.608,0,4,1,0.5729386976839008,10.885835255994113,0.0,6.251353065115805,160,9,1,0,0,0,0.0,6.251353065115805,6.251353065115805,-0.5614999290652539,0.05798552029577537,-6.432634222020873e-05,0.012821840463145261,-7.374021613561723e-08,9.84549518355979
0.64,0,4,1,0.5729386976839008,11.458773953678014,0.0,6.251353065115805,160,9,1,0,0,0,0.0,6.251353065115805,6.251353065115805,-0.5614999248643038,0.05398465806116335,-6.425834984013189e-05,0.009302381647845826,-5.893989308350025e-08,9.802249169153049
0.672,0,4,1,0.5729386976839008,12.031712651361914,0.0,6.251353065115805,160,9,1,0,0,0,0.0,6.251353065115805,6.251353065115805,-0.5614999206791506,0.0499837950735032,-6.420375807464872e-05,0.005230269400777833,-4.523071962240653e-08,9.789062557611034
0.704,0,4,1,0.5729386976839008,12.604651349045815,0.0,6.251353065115805,160,9,1,0,0,0,0.0,6.251353065115805,6.251353065115805,-0.5614999165071383,0.045982931480975896,-6.415801431823923e-05,0.0008621819636740596,-3.4163897357606025e-08,9.826781458211277
0.736,0,4,1,0.5729386976839008,13.177590046729716,0.0,6.251353065115805,160,9,1,0,0,0,0.0,6.251353065115805,6.251353065115805,-0.5614999123463645,0.0419820674015926,-6.41179645806244e-05,-0.003554009162398846,-2.3755851294503836e-08,9.793391368578423
0.768,0,4,1,0.5729386976839008,13.750528744413616,0.0,6.251353065115805,160,9,1,0,0,0,0.0,6.251353065115805,6.251353065115805,-0.5614999081955208,0.03798120292996704,-6.408189925888319e-05,-0.00777244364482608,-1.4552668576465628e-08,9.824287980241003
0.8,0,4,1,0.5729386976839008,14.323467442097517,0.0,6.251353065115805,160,9,1,0,0,0,0.0,6.251353065115805,6.251353065115805,-0.5614999040537507,0.03398033814300684,-6.40493983851357e-05,-0.01150166715008697,-6.3516400562355635e-09,9.871977774392468
0.8320000000000001,0,4,1,0.5729386976839008,14.896406139781417,0.0,6.251353065115805,160,9,1,0,0,0,0.0,6.251353065115805,6.251353065115805,-0.5614998999205242,0.029979473104243554,-6.402098489183793e-05,-0.014622555481903186,7.07755409681465e-10,9.842115519552353
0.864,0,4,1,0.5729386976839008,15.469344837465318,0.0,6.251353065115805,160,9,1,0,0,0,0.0,6.251353065115805,6.251353065115805,-0.5614998959571416,0.025978607908374588,-6.399561341849207e-05,-0.014538000797473135,-1.4857286178391958e-07,9.818105951290676
0.896,0,4,1,0.5729386976839008,16.04228353514922,0.0,6.251353065115805,160,9,1,0,0,0,0.0,6.251353065115805,6.251353065115805,-0.5614998918442414,0.02197774252392104,-6.398719789546536e-05,-0.013605082197282006,1.6759916911571407e-07,9.798224079962633
0.928,0,4,1,0.5729386976839008,16.615222232833123,0.0,6.251353065115805,160,9,1,0,0,0,0.0,6.251353065115805,6.251353065115805,-0.5614998877401752,0.017976877025307453,-6.398296473034831e-05,-0.01188687685916709,1.578467709504954e-08,9.803385015851303
0.96,0,4,1,0.5729386976839008,17.188160930517025,0.0,6.251353065115805,160,9,1,0,0,0,0.0,6.251353065115805,6.251353065115805,-0.5614998836443819,0.013976011437396596,-6.398136585398194e-05,-0.009349396754842655,1.854006231338307e-08,9.80480305728317
0.992,0,4,1,0.5729386976839008,17.761099628200927,0.0,6.251353065115805,160,9,1,0,0,0,0.0,6.251353065115805,6.251353065115805,-0.5614998795563526,0.009975145779871039,-6.398075706983385e-05,-0.006292281785799684,2.0090391725644932e-08,9.814869773765418
1.024,0,4,1,0.5729386976839008,18.33403832588483,0.0,6.251353065115805,160,9,1,0,0,0,0.0,6.251353065115805,6.251353065115805,-0.5614998754755625,0.005974280068582284,-6.397966543726478e-05,-0.002930294533284058,2.0699256705576663e-08,9.866030450472495
1.056,0,4,1,0.5729386976839008,18.906977023568732,0.0,6.251353065115805,160,9,1,0,0,0,0.0,6.251353065115805,6.251353065115805,-0.5614998714014134,0.001973414316408914,-6.39770549186909e-05,0.00064492523307014,2.0312756840759682e-08,9.765209830703753
1.088,0,4,1,0.5729386976839008,19.479915721252635,0.0,6.251353065115805,160,9,1,0,0,0,0.0,6.251353065115805,6.251353065115805,-0.5614998673332022,-0.0020274514663884183,-6.397250544214195e-05,0.004161011526287858,1.8958593131530092e-08,9.856226633435087
1.12,0,4,1,0.5729386976839008,20.052854418936537,0.0,6.251353065115805,160,9,1,0,0,0,0.0,6.251353065115805,6.251353065115805,-0.5614998632701038,-0.006028317272141821,-6.396625999198491e-05,0.007473417549467866,1.6782297881270896e-08,9.833423546626006
1.1520000000000001,0,4,1,0.5729386976839008,20.62579311662044,0.0,6.251353065115805,160,9,1,0,0,0,0.0,6.251353065115805,6.251353065115805,-0.5614998592111722,-0.0100291830957915,-6.395912605566996e-05,0.01029364880889542,1.3813762118524423e-08,9.846191491453643
1.184,0,4,1,0.5729386976839008,21.19873181430434,0.0,6.251353065115805,160,9,1,0,0,0,0.0,6.251353065115805,6.251353065115805,-0.5614998551553547,-0.014030048934673925,-6.395225254467694e-05,0.012518093752408437,1.0299417885369892e-08,9.841687481407606
1.216,0,4,1,0.5729386976839008,21.771670511988244,0.0,6.251353065115805,160,9,1,0,0,0,0.0,6.251353065115805,6.251353065115805,-0.5614998511015171,-0.0180309147879636,-6.394683301398814e-05,0.014049374573961854,6.2141323654458644e-09,9.81430835341219
1.248,0,4,1,0.5729386976839008,22.344609209672146,0.0,6.251353065115805,160,9,1,0,0,0,0.0,6.251353065115805,6.251353065115805,-0.5614998470484774,-0.022031780655855517,-6.394380367811744e-05,0.014685384740088772,1.8267207254282636e-09,9.80208939481161
1.28,0,4,1,0.5729386976839008,22.91754790735605,0.0,6.251353065115805,160,9,1,0,0,0,0.0,6.251353065115805,6.251353065115805,-0.5614998429950447,-0.026032646538730865,-6.394360620929664e-05,0.014437306686192693,-2.7002938203065122e-09,9.793632597302869
1.312,0,4,1,0.5729386976839008,23.49048660503995,0.0,6.251353065115805,160,9,1,0,0,0,0.0,6.251353065115805,6.251353065115805,-0.5614998389400612,-0.030033512436577196,-6.39460702731437e-05,0.013386603062390279,-7.220446321434236e-09,9.809402722392448
1.344,0,4,1,0.5729386976839008,24.063425302723854,0.0,6.251353065115805,160,9,1,0,0,0,0.0,6.251353065115805,6.251353065115805,-0.5614998348824449,-0.034034378348823495,-6.395044275736561e-05,0.011393310450439877,-1.1402264097667533e-08,9.77008011028709
1.3760000000000001,0,4,1,0.5729386976839008,24.636364000407756,0.0,6.251353065115805,160,9,1,0,0,0,0.0,6.251353065115805,6.251353065115805,-0.5614998308212312,-0.038035244274554826,-6.395555627925278e-05,0.008865962895548632,-1.5257430764615596e-08,9.756505120405166
1.408,0,4,1,0.5729386976839008,25.20930269809166,0.0,6.251353065115805,160,9,1,0,0,0,0.0,6.251353065115805,6.251353065115805,-0.5614998267556083,-0.04203611021289777,-6.396009688493763e-05,0.0057537117273717304,-1.864380543654019e-08,9.811661628282746
1.44,0,4,1,0.5729386976839008,25.78224139577556,0.0,6.251353065115805,160,9,1,0,0,0,0.0,6.251353065115805,6.251353065115805,-0.5614998226849496,-0.04603697616329908,-6.396290762349446e-05,0.0023100026374055604,-2.1252207824296333e-08,9.842628569979835
1.472,0,4,1,0.5729386976839008,26.355180093459463,0.0,6.251353065115805,160,9,1,0,0,0,0.0,6.251353065115805,6.251353065115805,-0.5614998186088374,-0.05003784212549728,-6.396325629256898e-05,-0.001272525426858867,-2.2872021560406614e-08,9.808562550839241
1.504,0,4,1,0.5729386976839008,26.928118791143365,0.0,6.251353065115805,160,9,1,0,0,0,0.0,6.251353065115805,6.251353065115805,-0.5614998145270796,-0.05403870809916795,-6.396100414266317e-05,-0.004767207337992583,-2.376539563831004e-08,9.8102105089498
1.536,0,4,1,0.5729386976839008,27.501057488827268,0.0,6.251353065115805,160,9,1,0,0,0,0.0,6.251353065115805,6.251353065115805,-0.5614998104397162,-0.05803957408341216,-6.395663567228954e-05,-0.00802000681016204,-2.382281608571613e-08,9.80835361513729
1.568,0,4,1,0.5729386976839008,28.07399618651117,0.0,6.251353065115805,160,9,1,0,0,0,0.0,6.251353065115805,6.251353065115805,-0.561499806347017,-0.06204044007635882,-6.39511423649805e-05,-0.010754766602928888,-2.2849749235143995e-08,9.816663233934504
1.6,0,4,1,0.5729386976839008,28.646934884195073,0.0,6.251353065115805,160,9,1,0,0,0,0.0,6.251353065115805,6.251353065115805,-0.561499802249471,-0.06604130607510977,-6.39457876025016e-05,-0.012873795038453918,-2.0791213215023227e-08,9.799616154766321
1.6320000000000001,0,4,1,0.5729386976839008,29.219873581878975,0.0,6.251353065115805,160,9,1,0,0,0,0.0,6.251353065115805,6.251353065115805,-0.5614997981477642,-0.07004217207609607,-6.394180797668694e-05,-0.01417535737600592,-1.815855368884231e-08,9.778550704165076
1.6640000000000001,0,4,1,0.5729386976839008,29.792812279562877,0.0,6.251353065115805,160,9,1,0,0,0,0.0,6.251353065115805,6.251353065115805,-0.5614997940544276,-0.07404303809033567,-6.393957161396867e-05,-0.014176791456854274,-2.5809817067519238e-08,9.828362867441216
1.696,0,4,1,0.5729386976839008,30.36575097724678,0.0,6.251353065115805,160,9,1,0,0,0,0.0,6.251353065115805,6.251353065115805,-0.5614997899473972,-0.07804390408110018,-6.39422483662104e-05,-0.013313836127808886,6.364445657773692e-10,9.807033114227382
1.728,0,4,1,0.5729386976839008,30.938689674930682,0.0,6.251353065115805,160,9,1,0,0,0,0.0,6.251353065115805,6.251353065115805,-0.5614997858392112,-0.08204477006509256,-6.394677983857094e-05,-0.01171710133250215,-6.170411066394335e-09,9.85741951679526
1.76,0,4,1,0.5729386976839008,31.511628372614584,0.0,6.251353065115805,160,9,1,0,0,0,0.0,6.251353065115805,6.251353065115805,-0.5614997817309784,-0.08604563604162037,-6.39521740604717e-05,-0.009299906625467758,-1.492329817137501e-09,9.834475745896041
1.792,0,4,1,0.5729386976839008,32.08456707029848,0.0,6.251353065115805,160,9,1,0,0,0,0.0,6.251353065115805,6.251353065115805,-0.5614997776238214,-0.0900465020103502,-6.395722443893435e-05,-0.006379032684807768,3.226130376224948e-09,9.7918159298163
1.824,0,4,1,0.5729386976839008,32.657505767982386,0.0,6.251353065115805,160,9,1,0,0,0,0.0,6.251353065115805,6.251353065115805,-0.5614997735188291,-0.09404736797094981,-6.396079275879964e-05,-0.0031461555340341557,7.824918795602365e-09,9.817265004453061
1.856,0,4,1,0.5729386976839008,33.23044446566629,0.0,6.251353065115805,160,9,1,0,0,0,0.0,6.251353065115805,6.251353065115805,-0.5614997694170097,-0.09804823392298856,-6.39620794629335e-05,0.0003303964563171803,1.2162851037852418e-08,9.803658361262832
1.8880000000000001,0,4,1,0.5729386976839008,33.80338316335019,0.0,6.251353065115805,160,9,1,0,0,0,0.0,6.251353065115805,6.251353065115805,-0.5614997653192505,-0.1020490998661589,-6.39608137649305e-05,0.003781873590916435,1.6039162704268887e-08,9.77784550595126
1.92,0,4,1,0.5729386976839008,34.37632186103409,0.0,6.251353065115805,160,9,1,0,0,0,0.0,6.251353065115805,6.251353065115805,-0.5614997612262793,-0.10604996580070328,-6.395731895979424e-05,0.007039092295774524,1.9157959522052454e-08,9.815111388741913
1.952,0,4,1,0.5729386976839008,34.949260558717995,0.0,6.251353065115805,160,9,1,0,0,0,0.0,6.251353065115805,6.251353065115805,-0.5614997571386368,-0.11005083172780683,-6.395243765162234e-05,0.009815744314506516,2.1769669639920325e-08,9.807017545363912
1.984,0,4,1,0.5729386976839008,35.5221992564019,0.0,6.251353065115805,160,9,1,0,0,0,0.0,6.251353065115805,6.251353065115805,-0.5614997530566531,-0.11405169764972067,-6.394733454421e-05,0.012097505049857292,2.339798721154441e-08,9.818218685295736
2.016,0,4,1,0.5729386976839008,36.0951379540858,0.0,6.251353065115805,160,9,1,0,0,0,0.0,6.251353065115805,6.251353065115805,-0.5614997489804358,-0.11805256356950627,-6.394322325312118e-05,0.013618827121434054,2.406758380356672e-08,9.813583935562795
2.048,0,4,1,0.5729386976839008,36.6680766517697,0.0,6.251353065115805,160,9,1,0,0,0,0.0,6.251353065115805,6.251353065115805,-0.5614997449098642,-0.12205342949047847,-6.394108144503786e-05,0.014207558955380582,2.3694031699247738e-08,9.743707715113757
2.08,0,4,1,0.5729386976839008,37.241015349453605,0.0,6.251353065115805,160,9,1,0,0,0,0.0,6.251353065115805,6.251353065115805,-0.5614997408445958,-0.12605429541557148,-6.394142135545018e-05,0.014018534092193462,2.2678304610449138e-08,9.803531358761182
2.112,0,4,1,0.5729386976839008,37.81395404713751,0.0,6.251353065115805,160,9,1,0,0,0,0.0,6.251353065115805,6.251353065115805,-0.5614997367840776,-0.1300551613468912,-6.39441697012598e-05,0.013170762660020903,2.047990915775135e-08,9.786304061644854
2.144,0,4,1,0.5729386976839008,38.38689274482141,0.0,6.251353065115805,160,9,1,0,0,0,0.0,6.251353065115805,6.251353065115805,-0.5614997327275686,-0.13405602728561958,-6.394868525946319e-05,0.01136601198382739,1.7586307778357373e-08,9.760032990526994
2.176,0,4,1,0.5729386976839008,38.95983144250531,0.0,6.251353065115805,160,9,1,0,0,0,0.0,6.251353065115805,6.251353065115805,-0.5614997286741694,-0.1380568932322611,-6.39539099912198e-05,0.008862180158956089,1.401817196428909e-08,9.789786637932973
2.208,0,4,1,0.5729386976839008,39.532770140189214,0.0,6.251353065115805,160,9,1,0,0,0,0.0,6.251353065115805,6.251353065115805,-0.5614997246228568,-0.14205775918705332,-6.395861817590047e-05,0.005868740998862701,9.83872032291413e-09,9.81080196361051
2.24,0,4,1,0.5729386976839008,40.10570883787312,0.0,6.251353065115805,160,9,1,0,0,0,0.0,6.251353065115805,6.251353065115805,-0.5614997205725251,-0.14605862515028759,-6.396170494778197e-05,0.002554342550496859,5.275038088917304e-09,9.808081268488388
2.2720000000000002,0,4,1,0.5729386976839008,40.67864753555702,0.0,6.251353065115805,160,9,1,0,0,0,0.0,6.251353065115805,6.251353065115805,-0.5614997165220287,-0.15005949112234948,-6.396244636568474e-05,-0.0009433701571151457,4.890211401950126e-10,9.79203708962777
2.3040000000000003,0,4,1,0.5729386976839008,41.25158623324092,0.0,6.251353065115805,160,9,1,0,0,0,0.0,6.251353065115805,6.251353065115805,-0.5614997124702278,-0.1540603571034451,-6.396066983881295e-05,-0.004379129879356821,-4.285674362969122e-09,9.78320761584605
2.336,0,4,1,0.5729386976839008,41.824524930924824,0.0,6.251353065115805,160,9,1,0,0,0,0.0,6.251353065115805,6.251353065115805,-0.5614997084160351,-0.15806122309315945,-6.395679481172901e-05,-0.007534776818972668,-8.929626649676204e-09,9.78222401442467
2.368,0,4,1,0.5729386976839008,42.397463628608726,0.0,6.251353065115805,160,9,1,0,0,0,0.0,6.251353065115805,6.251353065115805,-0.5614997043584571,-0.16206208909009476,-6.39517341495515e-05,-0.01026385490884663,-1.3160531912590433e-08,9.781478101507224
2.4,0,4,1,0.5729386976839008,42.97040232629263,0.0,6.251353065115805,160,9,1,0,0,0,0.0,6.251353065115805,6.251353065115805,-0.5614997002966349,-0.16606295509180932,-6.394667942470449e-05,-0.012382808443909028,-1.6804733834002915e-08,9.818976424876167
2.432,0,4,1,0.5729386976839008,43.54334102397653,0.0,6.251353065115805,160,9,1,0,0,0,0.0,6.251353065115805,6.251353065115805,-0.5614996962298789,-0.1700638210951357,-6.394282062013867e-05,-0.013681149795523975,-1.9913802613777784e-08,9.788842945125984
2.464,0,4,1,0.5729386976839008,44.11627972166043,0.0,6.251353065115805,160,9,1,0,0,0,0.0,6.251353065115805,6.251353065115805,-0.561499692157696,-0.1740646870967694,-6.39410662025032e-05,-0.014277064394137366,-2.226858843830141e-08,9.856276960660898
2.496,0,4,1,0.5729386976839008,44.689218419344336,0.0,6.251353065115805,160,9,1,0,0,0,0.0,6.251353065115805,6.251353065115805,-0.5614996880798084,-0.17806555309388755,-6.394182941855606e-05,-0.014113202225249213,-2.3613600047237546e-08,9.827482459238814
2.528,0,4,1,0.5729386976839008,45.26215711702824,0.0,6.251353065115805,160,9,1,0,0,0,0.0,6.251353065115805,6.251353065115805,-0.5614996839961659,-0.1820664190845421,-6.394493109494227e-05,-0.012849788378978379,-2.4192934836785836e-08,9.802000274103593
2.56,0,4,1,0.5729386976839008,45.83509581471214,0.0,6.251353065115805,160,9,1,0,0,0,0.0,6.251353065115805,6.251353065115805,-0.5614996799069467,-0.18606728506768866,-6.394964180795638e-05,-0.01101190491607238,-2.3664459648974704e-08,9.851490680081396
2.592,0,4,1,0.5729386976839008,46.40803451239604,0.0,6.251353065115805,160,9,1,0,0,0,0.0,6.251353065115805,6.251353065115805,-0.5614996758125502,-0.19006815104289443,-6.395485350733227e-05,-0.008396021000136757,-2.2152172793629913e-08,9.818191392062506
2.624,0,4,1,0.5729386976839008,46.980973210079945,0.0,6.251353065115805,160,9,1,0,0,0,0.0,6.251353065115805,6.251353065115805,-0.5614996717135813,-0.19406901700992513,-6.395934021354716e-05,-0.005325805615993665,-1.9779539999042808e-08,9.798008725106415
2.656,0,4,1,0.5729386976839008,47.55391190776385,0.0,6.251353065115805,160,9,1,0,0,0,0.0,6.251353065115805,6.251353065115805,-0.5614996676108254,-0.1980698829684623,-6.396204645811067e-05,-0.0019387651102415512,-1.674388451842326e-08,9.819622987859816
2.688,0,4,1,0.5729386976839008,48.12685060544775,0.0,6.251353065115805,160,9,1,0,0,0,0.0,6.251353065115805,6.251353065115805,-0.5614996635052172,-0.20207074891812188,-6.3962335611005e-05,0.001549977650997418,-1.2963647199896572e-08,9.833380065177145
2.72,0,4,1,0.5729386976839008,48.69978930313165,0.0,6.251353065115805,160,9,1,0,0,0,0.0,6.251353065115805,6.251353065115805,-0.5614996593978039,-0.2060716148587713,-6.396013966634105e-05,0.004960337809357746,-8.676116524508113e-09,9.794076401332989
2.7520000000000002,0,4,1,0.5729386976839008,49.272728000815555,0.0,6.251353065115805,160,9,1,0,0,0,0.0,6.251353065115805,6.251353065115805,-0.5614996552897037,-0.210072480790976,-6.3955975250371e-05,0.008090796105920265,-4.101415635434187e-09,9.788761243542929
2.7840000000000003,0,4,1,1.7183580016555007,50.99108600247106,1.1454193039715999,6.192936680613254,160,9,1,0,0,0,0.0,6.192936680613254,6.192936680613254,-0.5614996511820602,-0.2140733467163218,-6.39508220871797e-05,0.010697149773023048,6.475601028669546e-10,9.839726477984888
2.816,0,4,1,2.862405226111651,53.85349122858271,1.1440472244561504,6.135735691469962,160,9,1,0,0,0,0.0,6.135735691469962,6.135735691469962,-0.5614996471143693,-0.21803682709323025,-6.396035246546833e-05,-0.03134986691338494,5.361010712192171e-09,9.769882900543069
2.848,0,4,1,4.573921259900898,58.42741248848361,1.7115160337892465,6.049592420971166,160,9,1,0,0,0,0.0,6.049592420971166,6.049592420971166,-0.5614996430868441,-0.2219636987193878,-6.396105630811395e-05,-0.043519586862734085,9.805581966331608e-09,9.804131392433641
2.88,0,4,1,6.842773412630916,65.27018590111453,2.2688521527300187,5.9355924772157245,160,9,1,0,0,0,0.0,5.9355924772157245,5.9355924772157245,-0.5614996391193103,-0.22583543915977328,-6.38792677481459e-05,-0.0849262895388702,1.3898162229508067e-08,9.791611444742774
2.912,0,4,1,9.648045316098152,74.91823121721268,2.8052719034672355,5.794792462291626,160,9,1,0,0,0,0.0,5.794792462291626,5.794792462291626,-0.5614996367340165,-0.2296342199502589,-6.373435271770506e-05,-0.09925827466941994,-1.4501569571819094e-06,9.80544149424977
2.944,0,4,1,12.95276451337554,87.87099573058822,3.3047191972773877,5.629057055133946,160,9,1,0,0,0,0.0,5.629057055133946,5.629057055133946,-0.5614996329626549,-0.2333428897909869,-6.371411355557237e-05,-0.11353391108219342,1.4714317081803007e-06,9.827433490845861
2.976,0,4,1,16.699244233993618,104.57023996458184,3.746479720618078,5.441291308579701,160,9,1,0,0,0,0.0,5.441291308579701,5.441291308579701,-0.5614996293098321,-0.23694548923856398,-6.3683309198986e-05,-0.1272989270673767,1.373630847716933e-08,9.83677152518783
3.008,0,4,1,20.304473709960448,124.87471367454229,3.60522947596683,5.261171085026011,160,9,1,0,0,0,0.0,5.261171085026011,5.261171085026011,-0.5614996257867655,-0.24042791880144185,-6.364541691935947e-05,-0.1389240946940714,1.42903412651113e-08,9.812911488190855
3.04,0,4,1,24.22774531795417,149.10245899249645,3.9232716079937227,5.064689462494298,160,9,1,-1,-1,-1,-0.0595,5.0051894624942985,5.124189462494298,-0.5614996223869214,-0.24379507092700423,-6.361778428072909e-05,-0.1324766547876986,1.4108485215302764e-08,9.791182133371967
3.072,0,4,1,27.474431626277134,176.57689061877358,3.246686308322964,4.903031732377821,160,9,1,-3,-4,-2,-0.17900000000000002,4.724031732377821,5.082031732377821,-0.5614996728710452,-0.24703647654205152,-6.358629810154781e-05,-0.1405710657690596,0.00011275753486361608,9.859881200971111
3.104,0,4,1,30.5406048496815,207.11749546845508,3.066173223404366,4.749903584292521,160,9,1,-4,-8,-1,-0.24450000000000002,4.50540358429252,4.994403584292521,-0.5614951909076403,-0.2501744486402364,-6.358062670273369e-05,-0.11930219389788314,0.004983995040883021,9.744724876655278
3.136,0,4,1,33.82208521749396,240.93958068594904,3.2814803678124562,4.58561425875749,160,9,1,-5,-13,-1,-0.3195,4.26611425875749,4.905114258757489,-0.5614774443705132,-0.25321451851905924,-6.35978196777947e-05,-0.1132113644046108,0.014069040306159965,9.762798167740543
3.168,0,4,1,36.50144112050633,277.44102180645535,2.6793559030123717,4.452248588071671,160,9,1,-6,-19,-1,-0.3995,4.052748588071672,4.851748588071671,-0.5614427054862787,-0.256149518282092,-6.365457192211536e-05,-0.1195565379376089,0.01860040710465909,9.788975489713966
3.2,0,4,1,39.00747255212105,316.4484943585764,2.5060314316147227,4.327120340962333,160,9,1,-7,-26,-1,-0.48450000000000004,3.8426203409623327,4.811620340962333,-0.5613867808719983,-0.25899914079855296,-6.38091594808779e-05,-0.0985688869316982,0.023579673561626095,9.804275736058084
3.232,0,4,1,41.34777721969367,357.7962715782701,2.3403046675726173,4.210270834347745,160,9,1,-8,-34,-1,-0.5745,3.635770834347745,4.784770834347745,-0.5613056059490649,-0.26176845869745113,-6.408665098086089e-05,-0.09304348614688056,0.028432877104876648,9.832472160902203
3.2640000000000002,0,4,1,43.22853025996593,401.024801838236,1.8807530402722605,4.116692733961432,160,9,1,-8,-42,0,-0.61,3.5066927339614318,4.726692733961432,-0.5611951444481867,-0.2644624374574252,-6.452886789424725e-05,-0.08645235925246643,0.03385323301624517,9.783153407053263
3.2960000000000003,0,4,1,44.421274434392245,445.44607627262826,1.1927441744263163,4.057743534105962,160,9,1,-8,-50,0,-0.65,3.4077435341059616,4.707743534105962,-0.5610508353851658,-0.2670952770500277,-6.515236150287339e-05,-0.07040715223819917,0.03891948760397181,9.815264676381474
3.3280000000000003,0,4,1,45.85509739626673,491.301173668895,1.4338229618744833,3.985811307224789,160,9,1,-8,-58,0,-0.69,3.295811307224789,4.675811307224789,-0.5608710052512472,-0.2696884526444436,-6.59709549808065e-05,-0.048337629313965826,0.04062508444214446,9.81443333345105
3.36,0,4,1,46.68468431789629,537.9858579867913,0.8295869216295628,3.944936197183556,160,9,1,-9,-67,-1,-0.7895,3.155436197183556,4.734436197183556,-0.5606552709138024,-0.2722329562272476,-6.694440477754242e-05,-0.054844508846574686,0.04327760863686051,9.787489485820329
3.392,0,4,1,47.489552921999156,585.4754109087904,0.8048686041028645,3.9047174852959396,160,9,1,-8,-75,1,-0.7705000000000001,3.1342174852959395,4.675217485295939,-0.560401056289207,-0.2747489014892812,-6.814771385355543e-05,-0.03281163119119401,0.04528258128482993,9.772204600048102
3.424,0,4,1,48.270487923183566,633.745898831974,0.7809350011844103,3.8656946688396374,160,9,1,-8,-83,0,-0.8150000000000001,3.0506946688396375,4.680694668839638,-0.5601033387302861,-0.27723446693221127,-6.943396008243959e-05,-0.03218520549623032,0.05167876639115971,9.7511178560574
3.456,0,4,1,48.77819770716159,682.5240965391356,0.5077097839780222,3.8405824048579427,160,9,1,-8,-91,0,-0.855,2.9855824048579427,4.695582404857943,-0.5597645489292711,-0.27968954693996056,-7.084499249423656e-05,-0.030088853318264237,0.05038869376410228,9.827761271353447
3.488,0,4,1,49.028263666485145,731.5523602056207,0.2500659593235568,3.828336750716419,160,9,1,-9,-100,-1,-0.9544999999999999,2.873836750716419,4.7828367507164185,-0.5593819836805914,-0.2821217871218095,-7.235932024656291e-05,-0.01985433777750079,0.05395745408334606,9.834525517294615
3.52,0,4,1,50.0502284248328,781.6025886304535,1.0219647583476572,3.7764666140000123,160,9,1,-8,-108,1,-0.9355000000000001,2.840966614000012,4.711966614000012,-0.5589528236798148,-0.28453882851666645,-7.405774477600019e-05,-0.009496944386195897,0.05600178048215282,9.795013553100555
3.552,0,4,1,50.527540151656176,832.1301287821096,0.4773117268233733,3.7531456806903676,160,9,1,-8,-116,0,-0.98,2.7731456806903676,4.733145680690368,-0.5584767630817278,-0.28691257728854563,-7.570404301053199e-05,-0.033931373448028504,0.06357055165551086,9.800873185020505
3.584,0,4,1,50.99538680407546,883.1255155861851,0.4678466524192828,3.729762813143808,160,9,1,-8,-124,0,-1.02,2.709762813143808,4.749762813143808,-0.5579530508342468,-0.2892610839475195,-7.743791241945734e-05,-0.0138291671492709,0.061665412086342984,9.803786207253781
3.616,0,4,1,51.74005609794695,934.8655716841321,0.744669293871489,3.6922525258087813,160,9,1,-7,-131,1,-1.0005000000000002,2.691752525808781,4.692752525808782,-0.5573802368004352,-0.29158284205322704,-7.921549830707322e-05,-0.012323618690557743,0.06454050005135074,9.83442579490752
3.648,0,4,1,52.18853714273665,987.0541088268687,0.44848104478970185,3.670124661818378,160,9,1,-7,-138,0,-1.04,2.630124661818378,4.710124661818378,-0.556759943148447,-0.29386715948984693,-7.979402919059894e-05,-0.021716738029689774,0.06661918862446806,9.833871929694757
3.68,0,4,1,52.47573738554823,1039.529846212417,0.2872002428115792,3.655925930479777,160,9,1,-8,-146,-1,-1.1344999999999998,2.5214259304797775,4.790425930479777,-0.5560919813440719,-0.2961231792171111,-8.04271263758153e-05,-0.011976350463336711,0.06526237072601121,9.791630398579102
3.712,0,4,1,52.91416450904766,1092.4440107214646,0.43842712349943014,3.6338533474241177,160,9,1,-7,-153,1,-1.1105,2.5233533474241177,4.744353347424118,-0.5553735089199983,-0.29835454427178454,-8.117978827345586e-05,-0.006454532750137909,0.06742779135714948,9.81654840048055
3.744,0,4,1,53.343891584033095,1145.7879023054977,0.4297270749854363,3.6123756937233598,160,9,1,-7,-160,0,-1.1500000000000001,2.4623756937233594,4.76237569372336,-0.5546023692096836,-0.30055313799323713,-8.188718415771089e-05,-0.011820182773625003,0.07296808817063444,9.837504814327671
3.7760000000000002,0,4,1,53.84181456019167,1199.6297168656895,0.49792297615857706,3.5874113490142583,160,9,1,-7,-167,0,-1.185,2.4024113490142582,4.772411349014258,-0.5537808925606299,-0.3027187925788312,-8.26349268587042e-05,-0.01142781972521166,0.07153076004401256,9.823043616510413
3.8080000000000003,0,4,1,54.46232220802562,1254.0920390737151,0.6205076478339464,3.556263381950885,160,9,1,-6,-173,1,-1.1605,2.395763381950885,4.716763381950885,-0.5529111459506795,-0.3048424271354346,-8.340942679257307e-05,-0.018687779937253585,0.07353313117845724,9.793214845157582
3.84,0,4,1,54.86580694308437,1308.9578460167995,0.40348473505875404,3.536306168110723,160,9,1,-5,-178,1,-1.1355000000000002,2.400806168110723,4.671806168110723,-0.5520097477197544,-0.30688236834030663,-8.411679608679931e-05,-0.06036071670403725,0.07728027529387431,9.808728569798085
3.872,0,4,1,55.26137471723438,1364.2192207340338,0.39556777415000965,3.516535696364131,160,9,1,-4,-182,1,-1.1055000000000001,2.411035696364131,4.622035696364131,-0.5510637228437059,-0.3088699170859793,-8.475383244569215e-05,-0.026267609666049376,0.07675973709353814,9.815412505254033
3.904,0,4,1,55.45625059223089,1419.6754713262646,0.19487587499650516,3.5069925945134592,160,9,1,-4,-186,0,-1.1300000000000001,2.3769925945134593,4.636992594513459,-0.5500673287493534,-0.31082077972151234,-8.53078988097087e-05,-0.008385705631772693,0.07551519052196713,9.805662700611647
3.936,0,4,1,55.64921965924494,1475.3246909855095,0.19296906701405447,3.4973460479707392,160,9,1,-4,-190,0,-1.1500000000000001,2.3473460479707393,4.647346047970739,-0.5490219851546944,-0.3127372638716094,-8.585897524793912e-05,-0.005468691811084097,0.07365648147572118,9.791531888868903
3.968,0,4,1,55.56101069119639,1530.8857016767058,-0.08820896804855494,3.5020376744082293,160,9,1,-3,-193,1,-1.1105,2.3915376744082293,4.612537674408229,-0.5479275358643245,-0.3146176676773254,-8.639425772619287e-05,-0.005155528574460884,0.07506978163785537,9.765572191863313
4.0,0,4,1,55.369199619742986,1586.254901296449,-0.19181107145340093,3.5117318300843046,160,9,1,-4,-197,-1,-1.1895,2.322231830084305,4.701231830084304,-0.5467778434562363,-0.3164710723669591,-8.682184408092923e-05,0.007181809728197741,0.07561893766974781,9.77880618973927
4.032,0,4,1,55.091057238888915,1641.3459585353378,-0.27814238085407084,3.5257252804364083,160,9,1,-4,-201,0,-1.205,2.3207252804364082,4.730725280436408,-0.5455773436955398,-0.31829370202965696,-8.733531708962454e-05,0.0034069589653605375,0.073859968208633,9.815445399479563
4.064,0,4,1,54.619727799698865,1695.9656863350367,-0.47132943919005044,3.549484939454247,160,9,1,-4,-205,0,-1.2249999999999999,2.324484939454247,4.774484939454247,-0.5443193626173796,-0.32008713646891224,-8.783678448257351e-05,0.010245267945565741,0.07882712536438916,9.809839060680043
4.096,0,4,1,54.22392228210534,1750.189608617142,-0.3958055175935229,3.5691996914123267,160,9,1,-4,-209,0,-1.2449999999999999,2.3241996914123266,4.814199691412327,-0.5430003426607953,-0.32185383312824034,-8.835048936310479e-05,0.016078501997996566,0.08008239975976063,9.807690207332437
4.128,0,4,1,53.61564818416412,1803.8052568013063,-0.6082740979412193,3.5998258648897354,160,9,1,-5,-214,-1,-1.3245,2.2753258648897354,4.9243258648897354,-0.5416214476759016,-0.32358895221166445,-8.888489874587201e-05,0.013677584487310997,0.08116544537888888,9.787484138364311
4.16,0,4,1,52.70933308003393,1856.5145898813403,-0.9063151041301936,3.645439661102434,160,9,1,-5,-219,0,-1.345,2.300439661102434,4.9904396611024335,-0.54018004265756,-0.32529237087604146,-8.955520292287106e-05,0.01748007008385275,0.08369455362051959,9.824225880425486
4.192,0,4,1,52.06260267041578,1908.577192551756,-0.6467304096181508,3.6775165968888293,160,9,1,-5,-224,0,-1.37,2.307516596888829,5.04751659688883,-0.5386646029170905,-0.32696868014886254,-9.028306295599808e-05,0.03077410128753893,0.08861857115635807,9.81355413248691
4.224,0,4,1,51.39658521147221,1959.9737777632283,-0.6660174589435712,3.710836756885333,160,9,1,-5,-229,0,-1.395,2.315836756885333,5.105836756885333,-0.5371328222651554,-0.32854426888382965,-9.108479227773296e-05,-0.05800409465473675,0.09984307721541119,9.79324369805572
4.256,0,4,1,50.00391995224035,2009.9776977154686,-1.3926652592318547,3.7811966676472144,160,9,1,-13,-242,-8,-1.896,1.8851966676472145,5.677196667647214,-0.5359473617990205,-0.3296793832030458,-9.196018858051262e-05,-0.5416915283533389,0.08828644705377492,9.81645913705564
4.288,0,4,1,48.270487923183566,2058.248185638652,-1.733432029056786,3.8682090358698784,160,9,1,-26,-268,-13,-2.6985,1.1697090358698783,6.28,-0.5354095466342008,-0.3302182634057656,-9.368405608416001e-05,-0.8583490673767229,-0.023175945490519143,9.838437309667482
4.32,0,4,1,47.22396124038548,2105.4721468790376,-1.0465266827980884,3.919848464663524,160,9,1,-34,-302,-8,-3.246,0.6738484646635241,6.28,-0.5350752966073677,-0.3305518972687356,-9.586013621350892e-05,-0.28234715455177867,0.015358553371913096,9.855902615879677
4.352,0,4,1,46.974934010881974,2152.4470808899196,-0.2490272295035041,3.931502326685405,160,9,1,-37,-339,-3,-3.5585,0.373002326685405,6.28,-0.5347654948593852,-0.33085216747970836,-9.687832185845471e-05,-0.040656747882669216,0.024440435315160096,9.792212146611696
4.384,0,4,1,48.52561519717446,2200.972696087094,1.5506811862924863,3.8521685589549843,160,9,1,-16,-355,21,-2.4805,1.3716685589549842,6.28,-0.5334178293159925,-0.33225483656622257,-9.657359770380743e-05,1.4658316042817385,-0.10560368031206038,9.81043755730313
4.416,0,4,1,48.239700296102136,2249.212396383196,-0.2859149010723243,3.8683009000959654,160,9,1,-3,-358,13,-1.8815,1.9868009000959654,5.749800900095965,-0.5316877145929881,-0.33379595276097834,-9.564750102710254e-05,0.3781909491974884,0.14378514823705274,9.850164320946012
4.448,0,4,1,46.12330271407542,2295.3356990972716,-2.116397582026714,3.9759512618782558,160,9,1,4,-354,7,-1.5385,2.437451261878256,5.514451261878255,-0.5298072046620771,-0.3352632743392685,-9.546692301145958e-05,0.07772397951016598,0.16052187556830613,9.835983372202126
4.48,0,4,1,45.00000000000001,2340.3356990972716,-1.1233027140754146,4.031123302714075,160,9,1,1,-353,-3,-1.7285000000000001,2.302623302714075,5.7596233027140755,-0.5282353332456047,-0.33635004289585246,-9.623250278480676e-05,-0.46063491465720513,0.14832017058949556,9.711409762347731
4.5120000000000005,0,4,1,44.421274434392245,2384.756973531664,-0.5787255656077619,4.059515003845996,160,9,1,-12,-365,-13,-2.4835,1.576015003845996,6.28,-0.5274282855725775,-0.3369244755909021,-9.807671994909589e-05,-0.8985826811440406,-0.016057525556508107,9.881009948946096
4.5440000000000005,0,4,1,43.83086067209259,2428.5878342037563,-0.5904137622996544,4.0890473801576706,160,9,1,-22,-387,-10,-3.08,1.0090473801576705,6.28,-0.5268836899225228,-0.3373257721650167,-0.00010067913502614934,-0.3070161662782228,0.0013153028151008336,9.815958224072759
4.5760000000000005,0,4,1,43.53119928561418,2472.1190334893704,-0.29966138647841234,4.10373969710577,160,9,1,-28,-415,-6,-3.5020000000000007,0.6017396971057689,6.28,-0.5265359875842381,-0.33758522316958356,-0.00010226118087895177,-0.23760617311880747,0.013435560950337207,9.799470215147682
4.6080000000000005,0,4,1,42.901094066796446,2515.0201275561667,-0.6301052188177323,4.135575401878995,160,9,1,-32,-447,-4,-3.8529999999999998,0.28257540187899544,6.28,-0.5263196990630993,-0.33773081531517946,-0.00010234575954370419,-0.17016685805085482,0.029046758985066784,9.850108840790014
4.64,0,4,1,41.98721249581667,2557.007340051983,-0.9138815709797754,4.181553256780146,160,9,1,-8,-455,24,-2.5669999999999997,1.614553256780146,6.28,-0.5248086948086882,-0.3388994235150083,-0.00010100743325990383,1.596553385321194,-0.1236945596562092,9.785783136110537
4.672,0,4,1,40.36453657309736,2597.3718766250804,-1.62267592271931,4.263395847267851,160,9,1,7,-448,15,-1.8225000000000002,2.4408958472678504,6.085895847267851,-0.5227993194420427,-0.340212011913334,-9.919170624561775e-05,0.4920337705647353,0.13830962173208877,9.774733794711047
4.704,0,4,1,38.65980825409008,2636.0316848791704,-1.7047283190072804,4.348714315614503,160,9,1,16,-432,9,-1.3195000000000001,3.0292143156145026,5.668214315614502,-0.5205035822657581,-0.3415164850074401,-9.850328530106034e-05,0.24555534738090556,0.15200638811850328,9.855704908260433
4.736,0,4,1,37.59627114721198,2673.6279560263824,-1.0635371068781012,4.40124997974628,160,9,1,15,-417,-1,-1.3395,3.0617499797462795,5.74074997974628,-0.518425751428376,-0.3425485353149658,-9.874790089841115e-05,-0.3075757026654089,0.1606305801678296,9.834706325203895
4.768,0,4,1,36.50144112050633,2710.1293971468886,-1.094830026705651,4.456022774001389,160,9,1,0,-417,-15,-2.1525,2.3035227740013893,6.28,-0.5171721586209057,-0.3431776980591593,-9.978822139489717e-05,-0.8985363394104451,-0.006492311853556445,9.846109580286592
4.8,0,4,1,35.753887254436755,2745.8832844013255,-0.7475538660695733,4.493053191144233,160,9,1,-11,-428,-11,-2.7395000000000005,1.7535531911442321,6.28,-0.5162466909627451,-0.34366934534987165,-0.00010161650168690611,-0.344684094686208,-0.01620238293180678,9.841189808175614
4.832,0,4,1,35.37475184387608,2781.2580362452018,-0.37913541056067146,4.511641543216757,160,9,1,-20,-448,-9,-3.2805000000000004,1.2311415432167565,6.28,-0.5155531207520047,-0.34405392710410004,-0.0001025123517541214,-0.24840262083789222,-0.00019301766215781596,9.80263354848716
4.864,0,4,1,34.99202019855866,2816.2500564437605,-0.38273164531742054,4.530781721717385,160,9,1,-23,-471,-3,-3.5185,1.0122817217173847,6.28,-0.5148563531803428,-0.34442808706960465,-0.00010199707785102374,-0.002588345277266503,0.028888788669327595,9.79687495749515
4.896,0,4,1,33.424811182603804,2849.674867626364,-1.5672090159548588,4.6103266498857645,160,9,1,-3,-474,20,-2.43,2.1803266498857643,6.28,-0.5129724970979248,-0.34549464500142507,-0.0001001464620211702,1.3296429020339178,-0.09301588958321534,9.80904303657196
4.928,0,4,1,32.61924307119282,2882.294110697557,-0.8055681114109845,4.64984341455177,160,9,1,11,-463,14,-1.702,2.9478434145517705,6.28,-0.5106305358517619,-0.3466108314165457,-9.794436794691164e-05,0.4331239343650334,0.14362764443345388,9.80228959710957
4.96,0,4,1,31.38319105635903,2913.677301753916,-1.2360520148337883,4.712076499196883,160,9,1,21,-442,10,-1.115,3.5970764991968824,5.827076499196883,-0.5079764037060045,-0.3477024196592033,-9.686735255759991e-05,0.2779654578707594,0.14387708123649104,9.882336464726361
4.992,0,4,1,30.5406048496815,2944.2179066035974,-0.8425862066775309,4.753812343722602,160,9,1,26,-416,5,-0.7575000000000001,3.996312343722602,5.511312343722603,-0.5051892893764541,-0.3487087380757635,-9.658135539728288e-05,0.09736410527111668,0.13600767159855104,9.82546086214891
5.024,0,4,1,29.24882633654698,2973.4667329401445,-1.2917785131345205,4.818850461685785,160,9,1,20,-396,-6,-1.007,3.8118504616857853,5.825850461685785,-0.50275176317088,-0.3494918792995795,-9.642939780624832e-05,-0.3943952089286381,0.11505268131795973,9.839877866718018
5.056,0,4,1,28.369046293278583,3001.835779233423,-0.8797800432683971,4.86242746537934,160,9,1,6,-390,-14,-1.7129999999999999,3.1494274653793397,6.28,-0.5009728203826321,-0.3500916491865268,-9.675375789982947e-05,-0.6688252333521846,-0.030611702544698135,9.789482286804501
5.088,0,4,1,27.02158159117705,3028.8573608246,-1.347464702101533,4.93026838514325,160,9,1,-6,-396,-12,-2.334,2.5962683851432495,6.28,-0.49953062951762756,-0.35061815559263737,-9.753824980975219e-05,-0.33348634143833994,-0.030431047600996748,9.78685388993929
5.12,0,4,1,26.104854009099288,3054.9622148336994,-0.9167275820777618,4.975674027127114,160,9,1,-14,-410,-8,-2.786,2.1896740271271136,6.28,-0.49819667569650716,-0.35111077848035604,-9.749679690071802e-05,-0.11071221140580514,0.011764831447817274,9.847893868696298
5.152,0,4,1,25.641005824305285,3080.603220658005,-0.4638481847940028,4.99841355696953,160,9,1,1,-409,15,-1.9275,3.07091355696953,6.28,-0.4958020034299998,-0.3520581373094127,-9.629660284707874e-05,1.118160173452374,-0.07509602644734047,9.807197207006816
5.184,0,4,1,24.702430227771313,3105.3056508857762,-0.9385755965339726,5.045817064207968,160,9,1,12,-397,11,-1.3355,3.7103170642079686,6.28,-0.49305219389941646,-0.3529764349196683,-9.428913973993057e-05,0.32499345429981163,0.1414697710793326,9.815753285421996
5.216,0,4,1,24.22774531795417,3129.5333962037303,-0.4746849098171424,5.069087419012109,160,9,1,20,-377,8,-0.849,4.220087419012109,5.918087419012109,-0.49004559931341746,-0.35384011076617505,-9.271455367807976e-05,0.23006204972928096,0.13158727897058362,9.84133842075078
5.248,0,4,1,23.26770481005697,3152.801101013787,-0.960040507897201,5.117574800005049,160,9,1,23,-354,3,-0.6064999999999999,4.51107480000505,5.724074800005049,-0.486941406610074,-0.35461963980996647,-9.143460842426024e-05,0.07421113516641391,0.11852714794785191,9.86133862563211
5.28,0,4,1,22.782405730481685,3175.5835067442686,-0.4852990795752845,5.141365012555491,160,9,1,25,-329,2,-0.386,4.755365012555491,5.527365012555491,-0.48378000293261547,-0.35534134514274995,-9.019373710705131e-05,0.04317747949531959,0.0849548536903697,9.863697667155506
5.312,0,4,1,21.80140948635181,3197.3849162306205,-0.980996244129873,5.19091052192654,160,9,1,24,-305,-1,-0.32949999999999996,4.8614105219265396,5.52041052192654,-0.48058378168645666,-0.356017458927197,-8.86323234860608e-05,0.024760540575300242,0.06856804164596246,9.762289304290238
5.344,0,4,1,20.80679101271124,3218.1917072433316,-0.9946184736405712,5.2406550678380786,160,9,1,23,-282,-1,-0.2644999999999998,4.976155067838079,5.5051550678380785,-0.4773492261138895,-0.35667128857455016,-8.685465429204495e-05,0.03301032969908853,0.04808780829842257,9.791241160206658
5.376,0,4,1,20.304473709960448,3238.496180953292,-0.502317302750793,5.265278631804729,160,9,1,21,-261,-2,-0.2639999999999999,5.001278631804729,5.529278631804729,-0.4740760964225541,-0.3573074427090517,-8.485201728269248e-05,0.03391003941286657,0.04448236291880648,9.832687344923182
5.408,0,4,1,19.290046219188728,3257.7862271724807,-1.0144274907717197,5.316512116531335,160,9,1,19,-242,-2,-0.2689999999999999,5.047512116531335,5.585512116531335,-0.4707843442266347,-0.3579291762532791,-8.281051199362892e-05,0.015594644654333517,0.038285666807083694,9.811490566946572
5.44,0,4,1,18.262889942194125,3276.049117114675,-1.027156276994603,5.367882659167289,160,9,1,17,-225,-2,-0.2839999999999999,5.083882659167289,5.651882659167288,-0.4674571721841798,-0.3585392653778976,-8.081724698577597e-05,0.03227643728867042,0.038822339812188945,9.793820633043127
5.472,0,4,1,17.744671625056924,3293.793788739732,-0.518218317137201,5.3932846370642915,160,9,1,16,-209,-1,-0.2494999999999999,5.143784637064291,5.642784637064292,-0.46409470163888095,-0.3591365728524503,-7.894745803122341e-05,0.03189232464241725,0.03947528761916717,9.805461438835199
5.5040000000000004,0,4,1,16.699244233993618,3310.493032973726,-1.0454273910633063,5.446083215691383,160,9,1,14,-195,-2,-0.2839999999999999,5.162083215691383,5.730083215691383,-0.4607099883980444,-0.359715358797509,-7.717303936001507e-05,0.0186861109948521,0.04277322262079731,9.855129200066742
5.5360000000000005,0,4,1,16.17215901578257,3326.6651919895085,-0.5270852182110488,5.471919134429083,160,9,1,13,-182,-1,-0.2645,5.207419134429083,5.736419134429083,-0.4572903021746328,-0.36028182787264607,-7.562676123750237e-05,0.03205969977342259,0.03801677119358896,9.829192703799949
5.5680000000000005,0,4,1,14.574216198038746,3341.2394081875473,-1.5979428177438226,5.552887132915807,160,9,1,11,-171,-2,-0.31399999999999995,5.238887132915807,5.866887132915807,-0.45384733143482553,-0.36082874288756234,-7.425118399827409e-05,0.01978892549432828,0.04235694616301982,9.850745917446448
5.6000000000000005,0,4,1,14.574216198038746,3355.813624385586,0.0,5.551289190098063,160,9,1,11,-160,0,-0.25,5.301289190098063,5.801289190098063,-0.45035111632579333,-0.36136190689181896,-7.311491865966309e-05,0.04962061695665258,0.0398123369438744,9.833154058323995
5.632,0,4,1,13.495733280795811,3369.309357666382,-1.078482917242935,5.606291818877453,160,9,1,10,-150,-1,-0.2545,5.3517918188774525,5.860791818877453,-0.44684990755217635,-0.36186852595610136,-7.19951306562324e-05,0.001280579672748601,0.044881537928280237,9.81877616102431
5.664,0,4,1,12.95276451337554,3382.262122179757,-0.5429687674202714,5.632904743098644,160,9,1,9,-141,-1,-0.25949999999999995,5.373404743098644,5.892404743098644,-0.44330836391582584,-0.3623591084387893,-7.089880991825379e-05,0.037532103359405565,0.038308401000636115,9.849734202412105
5.696,0,4,1,12.407418527400745,3394.669540707158,-0.5453459859747944,5.660174419615938,160,9,1,8,-133,-1,-0.2695,5.390674419615938,5.929674419615938,-0.43974471534984344,-0.36283049713635424,-6.99221974812033e-05,0.019955725352886255,0.038021984805676326,9.777737668453431
5.728,0,4,1,11.309932474020227,3405.979473181178,-1.0974860533805177,5.715600862352369,160,9,1,7,-126,-1,-0.2845,5.43110086235237,6.000100862352369,-0.4361588760321192,-0.36328219121920097,-6.908571215906954e-05,0.020598807635181272,0.037864509822821066,9.79993798661334
5.76,0,4,1,10.757967088390043,3416.737440269568,-0.5519653856301847,5.742653610966128,160,9,1,7,-119,0,-0.24499999999999994,5.497653610966128,5.987653610966128,-0.432533249183695,-0.3637153513661982,-6.839512042314255e-05,0.038386937755741486,0.0376686598743794,9.829954860747648
5.792,0,4,1,10.757967088390043,3427.4954073579584,0.0,5.742101645580498,160,9,1,7,-112,0,-0.21000000000000002,5.532101645580498,5.952101645580498,-0.4288865427925142,-0.36412621089538405,-6.782450972890944e-05,0.020337795343577852,0.03836838203370055,9.817738103434726
5.824,0,4,1,9.648045316098152,3437.1434526740563,-1.1099217722918908,5.798707655967385,160,9,1,6,-106,-1,-0.2345,5.564207655967385,6.033207655967384,-0.4252369685474631,-0.364516283564503,-6.736467687925608e-05,0.003231999705315829,0.03458502572755919,9.838919083403344
5.856,0,4,1,9.648045316098152,3446.7914979901543,0.0,5.797597734195093,160,9,1,6,-100,0,-0.19999999999999996,5.597597734195093,5.997597734195093,-0.4215483598901593,-0.36489259838772115,-6.701143186797417e-05,0.03963587027708991,0.0308405531036977,9.791468399213915
5.888,0,4,1,9.090276920822312,3455.8817749109767,-0.5577683952758399,5.8260439223541605,160,9,1,5,-95,-1,-0.22950000000000004,5.596543922354161,6.05554392235416,-0.4178579496189755,-0.3652490567104146,-6.674024300929587e-05,0.0027744120480325775,0.032936278354299124,9.835258535120111
5.92,0,4,1,8.530765609948096,3464.4125405209247,-0.5595113108742158,5.85402123081347,160,9,1,5,-90,0,-0.2,5.65402123081347,6.05402123081347,-0.41414679814623234,-0.3655906102490645,-6.655188092014042e-05,0.021904077361225315,0.029341116508260105,9.767252854609831
5.952,0,4,1,8.530765609948096,3472.9433061308728,0.0,5.8534617195025955,160,9,1,5,-85,0,-0.175,5.678461719502596,6.028461719502595,-0.41041405626741884,-0.36591460998986236,-6.63813574621145e-05,0.02296208600376032,0.0314154851185032,9.797409789395902
5.984,0,4,1,7.406912128495223,3480.350218259368,-1.1238534814528736,5.910778247056692,160,9,1,4,-81,-1,-0.20950000000000002,5.701278247056692,6.120278247056692,-0.4066803611113232,-0.36622213640167056,-6.623853087833059e-05,0.0028091170677966943,0.028770122392730777,9.74887972389808
6.016,0,4,1,7.406912128495223,3487.757130387863,0.0,5.909654393575239,160,9,1,4,-77,0,-0.185,5.724654393575239,6.094654393575238,-0.40290895180791986,-0.36651832269677465,-6.614436350343283e-05,0.045940181121009366,0.02594958668183715,9.800044999642493
6.048,0,4,1,6.842773412630916,3494.599903800494,-0.5641387158643063,5.9384254680843185,160,9,1,4,-73,0,-0.16499999999999998,5.7734254680843184,6.1034254680843185,-0.39913694940918215,-0.36679681899007904,-6.602056245175701e-05,0.008397193429493301,0.029222680797296532,9.803544771992525
6.08,0,4,1,6.277298489597548,3500.877202290091,-0.565474923033368,5.966700550443156,160,9,1,3,-70,-1,-0.20450000000000002,5.762200550443156,6.171200550443157,-0.39534552147308416,-0.36706124240316956,-6.591199415680905e-05,0.026322841640057274,0.026619531115502727,9.802049947070412
6.112,0,4,1,6.277298489597548,3507.1545007796885,0.0,5.966135075520123,160,9,1,4,-66,1,-0.1255,5.840635075520123,6.091635075520123,-0.39153507914008834,-0.36731317214662795,-6.58472560384378e-05,0.025598153673854547,0.02467090778718457,9.796519433679581
6.144,0,4,1,5.710593137499568,3512.865093917188,-0.5667053520979799,5.995037048477119,160,9,1,3,-63,-1,-0.16949999999999998,5.825537048477119,6.164537048477119,-0.38772396452128094,-0.3675476478464304,-6.573087612579513e-05,0.006113162289705878,0.02787014203835156,9.84884247183437
6.176,0,4,1,5.142764557884225,3518.007858475072,-0.5678285796153437,6.023429600685404,160,9,1,3,-60,0,-0.14999999999999997,5.873429600685403,6.173429600685404,-0.38389375660392455,-0.36777304675785494,-6.564743351212231e-05,0.024514524589142793,0.020776284298307635,9.848461734166323
6.208,0,4,1,5.142764557884225,3523.1506230329564,0.0,6.022861772105789,160,9,1,3,-57,0,-0.135,5.887861772105789,6.157861772105789,-0.38004459655395795,-0.3679850705914964,-6.554563189180816e-05,0.024149218160454046,0.024390206310266303,9.82147099577408
6.24,0,4,1,5.142764557884225,3528.2933875908407,0.0,6.022861772105789,160,9,1,3,-54,0,-0.12,5.902861772105789,6.142861772105789,-0.37619513699453483,-0.3681843878402497,-6.544992616539999e-05,0.005466023211335812,0.02248237440709853,9.822240185448786
6.272,0,4,1,4.573921259900898,3532.8673088507417,-0.5688432979833271,6.051872780302938,160,9,1,3,-51,0,-0.10499999999999998,5.946872780302938,6.156872780302939,-0.37234512596024066,-0.36837238610643797,-6.53458567745676e-05,0.00483343280804178,0.02089992594082952,9.786297075590687
6.304,0,4,1,4.573921259900898,3537.4412301106427,0.0,6.051303937004955,160,9,1,3,-48,0,-0.08999999999999997,5.961303937004955,6.141303937004955,-0.368476111731717,-0.3685512940181959,-6.523030199171928e-05,0.025493066343544847,0.019232003588108126,9.786769394499549
6.336,0,4,1,4.004172940709389,3541.445403051352,-0.5697483191915085,6.080361101283722,160,9,1,2,-46,-1,-0.1345,5.945861101283722,6.214861101283722,-0.3646070826461077,-0.368721528703939,-6.510374060461274e-05,0.006995687816986693,0.017605701256917846,9.798549092651728
6.368,0,4,1,3.4336303624506144,3544.8790334138025,-0.5705425782587747,6.108889024455728,160,9,1,2,-44,0,-0.12,5.988889024455728,6.228889024455728,-0.3607191234963739,-0.36888523594955575,-6.500558661326136e-05,0.025611945128800082,0.015902087013617967,9.846229850567635
6.4,0,4,1,3.4336303624506144,3548.312663776253,0.0,6.108318481877469,160,9,1,2,-42,0,-0.10999999999999999,5.998318481877469,6.2183184818774695,-0.3568124244015167,-0.3690379864547706,-6.490508124984765e-05,0.025611420297971536,0.019875567698929193,9.821141353505224
6.432,0,4,1,3.4336303624506144,3551.7462941387034,0.0,6.108318481877469,160,9,1,3,-39,1,-0.04049999999999999,6.067818481877469,6.148818481877469,-0.3529056858592812,-0.3691802976170964,-6.48237981440633e-05,0.007015647428554079,0.0182869750446484,9.785846030545882
6.464,0,4,1,3.4336303624506144,3555.179924501154,0.0,6.108318481877469,160,9,1,2,-37,-1,-0.0895,6.018818481877469,6.197818481877469,-0.34899865851218426,-0.3693131115471599,-6.471553835009185e-05,0.0064738181975097266,0.016978581235577026,9.834304773647743
6.496,0,4,1,2.862405226111651,3558.0423297272655,-0.5712251363389633,6.137450963830757,160,9,1,2,-35,0,-0.07500000000000001,6.062450963830757,6.212450963830757,-0.34509151095247564,-0.369443050883441,-6.464421216292524e-05,0.0052576030237631655,0.010120213970623869,9.826497384811628
6.5280000000000005,0,4,1,2.862405226111651,3560.904734953377,0.0,6.136879738694418,160,9,1,2,-33,0,-0.065,6.071879738694418,6.201879738694418,-0.34116548039945016,-0.3695659452686711,-6.456769881387978e-05,0.02553826150028165,0.014350482138369163,9.805543309832878
6.5600000000000005,0,4,1,2.862405226111651,3563.7671401794887,0.0,6.136879738694418,160,9,1,2,-31,0,-0.05499999999999999,6.081879738694418,6.191879738694418,-0.33723962128060714,-0.36968247513174557,-6.449419437047806e-05,0.008629462281387144,0.012811248870549866,9.806321521435347
6.5920000000000005,0,4,1,2.862405226111651,3566.6295454056003,0.0,6.136879738694418,160,9,1,2,-29,0,-0.044999999999999984,6.091879738694418,6.181879738694418,-0.333313605902983,-0.36979356056553614,-6.44231478184893e-05,0.009221305292818073,0.011555345267286464,9.783166377589346
6.6240000000000006,0,4,1,2.862405226111651,3569.491950631712,0.0,6.136879738694418,160,9,1,2,-27,0,-0.035,6.101879738694418,6.171879738694418,-0.32938746616078346,-0.36990011262300143,-6.436065550443834e-05,0.008952577167289063,0.010291256548595775,9.797210185458017
6.656000000000001,0,4,1,2.2906100426385936,3571.7825606743504,-0.5717951834730575,6.166041293051543,160,9,1,1,-26,-1,-0.0845,6.081541293051543,6.250541293051543,-0.3254612304897112,-0.37000303982154553,-6.430276880512939e-05,0.008070837055946462,0.0090354672746025,9.800804232875828
6.688,0,4,1,2.2906100426385936,3574.073170716989,0.0,6.16546949786807,160,9,1,1,-25,0,-0.075,6.09046949786807,6.24046949786807,-0.32151625058270117,-0.37010370226532796,-6.426122613960132e-05,0.02867457812005047,0.007762038121263715,9.785223258745344
6.72,0,4,1,2.2906100426385936,3576.3637807596274,0.0,6.16546949786807,160,9,1,1,-24,0,-0.06999999999999999,6.09546949786807,6.2354694978680705,-0.31757143170635516,-0.3701967291104791,-6.421959754281288e-05,0.010334889553734608,0.012183317836462551,9.843362460939197
6.752,0,4,1,2.2906100426385936,3578.654390802266,0.0,6.16546949786807,160,9,1,1,-23,0,-0.065,6.10046949786807,6.230469497868071,-0.31362645159545405,-0.3702830000618391,-6.419293275025315e-05,0.010260982700518685,0.011066860124325935,9.840464954827127
6.784,0,4,1,2.2906100426385936,3580.9450008449044,0.0,6.16546949786807,160,9,1,2,-21,1,-0.0004999999999999909,6.1649694978680705,6.16596949786807,-0.3096813375157257,-0.37036297741857227,-6.417377032424086e-05,0.009244772020175237,0.010317736349497451,9.82751189457378
6.816,0,4,1,2.2906100426385936,3583.235610887543,0.0,6.16546949786807,160,9,1,1,-20,-1,-0.0545,6.11096949786807,6.21996949786807,-0.3057361413391262,-0.37043716413661687,-6.414457681209844e-05,0.0075399672345295345,0.00967006986274588,9.768331044961926
6.848,0,4,1,1.7183580016555007,3584.953968889198,-0.5722520409830929,6.194654351958208,160,9,1,1,-19,0,-0.045,6.149654351958208,6.239654351958208,-0.30179094049211014,-0.37051180663313205,-6.413437917468859e-05,0.005498917876738092,0.0033312212287015565,9.75411980511904
6.88,0,4,1,1.7183580016555007,3586.6723268908536,0.0,6.1940820999172255,160,9,1,1,-18,0,-0.039999999999999994,6.154082099917225,6.2340820999172255,-0.2978269791112625,-0.37058198635366196,-6.411915200612607e-05,0.025037963945494787,0.008257711305187692,9.781604294337113
6.912,0,4,1,1.7183580016555007,3588.390684892509,0.0,6.1940820999172255,160,9,1,1,-17,0,-0.035,6.159082099917225,6.229082099917226,-0.293863318370715,-0.37064822588361623,-6.410503179154689e-05,0.00721114679567516,0.007283847899763473,9.845131653706273
6.944,0,4,1,1.7183580016555007,3590.1090428941643,0.0,6.1940820999172255,160,9,1,1,-16,0,-0.03,6.164082099917225,6.224082099917226,-0.28989960404897724,-0.37071099746458974,-6.409189803117075e-05,0.007885110782528085,0.006639480196520513,9.823141577764865
6.976,0,4,1,1.7183580016555007,3591.8274008958197,0.0,6.1940820999172255,160,9,1,1,-15,0,-0.024999999999999994,6.169082099917225,6.219082099917226,-0.2859358458344598,-0.37077076905037987,-6.407960241509511e-05,0.007792178773477551,0.006031948165970323,9.810537367187688
7.008,0,4,1,1.1457628381751443,3592.9731637339946,-0.5725951634803563,6.223284453254723,160,9,1,0,-15,-1,-0.0795,6.143784453254723,6.28,-0.28197205213972054,-0.370828008372219,-6.406792812723577e-05,0.007189085225779946,0.005432961170102477,9.797343653808609
7.04,0,4,1,1.7183580016555007,3594.69152173565,0.5725951634803563,6.193509504753745,160,9,1,1,-14,1,-0.015500000000000003,6.178009504753745,6.2090095047537455,-0.27799682316570323,-0.3708833240180256,-6.406209103383513e-05,0.01957226551032101,0.004832700760198879,9.80383626960805
7.072,0,4,1,1.1457628381751443,3595.837284573825,-0.5725951634803563,6.223284453254723,160,9,1,0,-14,-1,-0.07450000000000001,6.148784453254724,6.28,-0.2740332775246024,-0.37093217848079346,-6.405233120881058e-05,-0.0046906777276059155,0.008843310298287143,9.823357126894948
7.104,0,4,1,1.7183580016555007,3597.5556425754803,0.5725951634803563,6.193509504753745,160,9,1,1,-13,1,-0.010499999999999999,6.183009504753745,6.204009504753746,-0.27005634501502623,-0.3709799935426425,-6.404962914681629e-05,0.02057780705864438,0.0036930809613412415,9.815671888676789
7.136,0,4,1,1.7183580016555007,3599.2740005771357,0.0,6.1940820999172255,160,9,1,1,-12,0,-0.009999999999999995,6.184082099917226,6.204082099917225,-0.2660927154820653,-0.37102157016228915,-6.404324880237254e-05,-0.008059896540159338,0.008410879509879824,9.761688892430167
7.168,0,4,1,1.1457628381751443,3600.4197634153106,-0.5725951634803563,6.223284453254723,160,9,1,0,-12,-1,-0.0645,6.158784453254723,6.28,-0.2621287165127008,-0.3710624424885485,-6.40371394815542e-05,0.002614486494849219,0.0030377773581182085,9.837849274511234
7.2,0,4,1,1.1457628381751443,3601.5655262534856,0.0,6.222711858091243,160,9,1,1,-11,1,-0.0004999999999999978,6.222211858091243,6.2232118580912426,-0.25814850708426523,-0.37110281993423405,-6.403750394659742e-05,0.018453735092902487,0.0028772852436628237,9.780518572907445
