Time,SetPointAngle,SensorAngleRow,SensorAngleWidth,Angle,IntegralAngle,DeltaAngle,BaseSpeed,SetPointError,SensorErrorRow,SensorErrorWidth,Error,IntegralError,DeltaError,DeltaSpeed,LeftSpeed,RightSpeed,X,Y,Z,Roll,Pitch,Yaw
0.032,0,4,1,0.9548412538723549,0.9548412538723549,0.9548412538723549,6.23130309605251,160,7,1,2,2,2,0.119,6.28,6.112303096052511,0.22294799999999992,0.6669999999999993,-6.39636180078118e-05,2.3444528222196863e-08,8.092300552360998e-08,9.77936269475245
0.064,0,4,1,29.134292197226163,30.08913345109852,28.179450943353807,4.795105939195339,160,7,1,0,2,-2,0.0010000000000000009,4.796105939195339,4.7941059391953385,0.226906452263213,0.666998742841885,-1.599434984875768e-05,4.647622175665365,0.006324363708857758,9.55958606887173
0.096,0,4,1,6.546290783294054,36.63542423439257,-22.58800141393211,5.97527346224923,160,7,1,0,2,0,0.01,5.985273462249229,5.96527346224923,0.22997690217276834,0.6669915117829166,-6.13687161841632e-05,-0.4817481643922261,-0.005944524809170142,9.715931767469218
0.128,0,4,1,1.9091524329963898,38.54457666738897,-4.637138350297664,6.189179516700478,160,7,1,0,2,0,0.01,6.199179516700478,6.179179516700478,0.233801214202718,0.6669824694453915,-7.487718717103832e-05,0.8609363411918434,0.00032632396166970735,9.852402086827958
0.16,0,4,1,0.0,38.54457666738897,-1.9091524329963898,6.281909152432997,160,7,1,0,2,0,0.01,6.28,6.271909152432997,0.23776221120781374,0.6669723598051966,-7.392367708163039e-05,0.008107661278009552,-0.0006369451443381847,9.849139591663944
0.192,0,4,1,12.030596096537877,50.575172763926844,12.030596096537877,5.666439599076568,160,7,1,0,2,0,0.01,5.676439599076568,5.656439599076569,0.2417786915600123,0.66696129219682,-7.216408502639e-05,0.050402372934596935,-0.0008772829251371976,9.80194730426067
0.224,0,4,1,26.93952806380083,77.51470082772767,14.908931967262951,4.918114664842696,160,7,1,0,2,0,0.01,4.9281146648426954,4.908114664842696,0.24540514354294055,0.6669509719081022,-7.040830146295973e-05,-0.33885462595782917,-0.0005748419304745432,9.817003126484712
0.256,0,4,1,34.99202019855867,112.50672102628633,8.052492134757841,4.522346497937309,160,7,1,0,2,0,0.01,4.532346497937309,4.512346497937309,0.24855267631467814,0.6669413110504433,-6.93178220519744e-05,-0.48109603480852187,-0.0011179127644142715,9.789662398777832
0.28800000000000003,0,4,1,44.51853419416165,157.02525522044797,9.526513995602983,4.044546776296315,160,7,1,0,2,0,0.01,4.0545467762963145,4.034546776296315,0.2514469242705233,0.6669318252578808,-6.782900251291364e-05,-0.25944990713904,-0.0010042634858890126,9.789993453373992
0.32,0,4,1,52.07353767496138,209.09879289540936,7.555003480799726,3.6687681127711316,160,7,1,0,2,0,0.01,3.6787681127711314,3.658768112771132,0.2540353932662824,0.6669227767557426,-6.680588735668604e-05,-0.3123071496923325,-0.0009869849867709226,9.775106002742463
0.352,0,4,1,57.3277707113169,266.4265636067263,5.254233036355522,3.4083572313977997,160,7,1,-1,1,-1,-0.0495,3.3588572313977996,3.4578572313977998,0.2563833668035303,0.666914059334717,-6.604120641664872e-05,-0.24901589013198644,-0.0009103686999531802,9.859223177082097
0.384,0,4,1,60.19524852681989,326.6218121335462,2.867477815502987,3.2673700958435026,160,7,1,0,1,1,0.0095,3.2768700958435026,3.2578700958435025,0.2585646749139942,0.6669054482927769,-6.548651475117052e-05,-0.17717645444079225,-0.0006492245206235138,9.803205009603225
0.41600000000000004,0,4,1,62.007946955407334,388.6297590889535,1.8126984285874457,3.177789953801046,160,7,1,0,1,0,0.005,3.182789953801046,3.172789953801046,0.2606557680006858,0.6668998728961625,-6.510798677501414e-05,-0.10227839336256737,0.0024131799363730252,9.878003629860965
0.448,0,4,1,63.23600594356138,451.8657650325149,1.2280589881540465,3.116971643833777,160,7,1,3,4,3,0.1835,3.300471643833777,2.933471643833777,0.26268953048505994,0.666893991596028,-6.483211675574994e-05,-0.07010633487350008,-0.0007258425149575071,9.75245667659658
0.48,0,4,1,63.63458487744639,515.5003499099613,0.39857893388501253,3.0978721771937954,160,7,1,9,13,6,0.542,3.639872177193795,2.5558721771937956,0.26468436818730084,0.6668881079694751,-6.463050600659728e-05,-0.05181713532061855,-0.0005013194107878389,9.735669431136442
0.512,0,4,1,63.63458487744639,579.1349347874077,0.0,3.0982707561276803,160,7,1,13,26,4,0.798,3.8962707561276804,2.3002707561276803,0.2666671182846627,0.666873514328079,-6.4503486315301e-05,-0.025913667938494856,-0.008977653440717848,9.7445771262603
0.544,0,4,1,63.43494882292201,642.5698836103297,-0.19963605452438316,3.108452194908424,160,7,1,14,40,1,0.9045000000000001,4.012952194908424,2.2039521949084238,0.26865069293459465,0.6668326362173453,-6.448094604214263e-05,-0.011339529546504362,-0.02601259393316847,9.85196830565545
0.5760000000000001,0,4,1,63.23600594356138,705.8058895538911,-0.19894287936062938,3.1183986457012915,160,7,1,16,56,2,1.089,4.207398645701291,2.0293986457012916,0.27064100777045613,0.6667528249249888,-6.466802823087807e-05,-0.0009983781050034557,-0.03778792443714863,9.813836327140283
0.608,0,4,1,62.19854122006586,768.004430773957,-1.0374647234955177,3.1711104037202023,160,7,1,21,77,5,1.4575,4.628610403720202,1.7136104037202022,0.27263707756685734,0.6666289469832795,-6.5197321035243e-05,0.004540712330007156,-0.04301785333294694,9.845194844481002
0.64,0,4,1,61.08457565837331,829.0890064323303,-1.1139655616925523,3.226885182643027,160,7,1,24,101,3,1.7185000000000001,4.945385182643028,1.508385182643027,0.2746655799861331,0.6664496919036981,-6.629721946288004e-05,0.04512927312003225,-0.05127435307658246,9.801687468992407
0.672,0,4,1,60.19524852681989,889.2842549591502,-0.8893271315534221,3.271126900790559,160,7,1,23,124,-1,1.7655,5.036626900790559,1.5056269007905587,0.27671827492003115,0.6661933119182105,-6.821273913460227e-05,0.05914325472090192,-0.07174809221107749,9.788164279132362
0.704,0,4,1,59.70830389968275,948.9925588588329,-0.4869446271371416,3.2950717496429998,160,7,1,20,144,-3,1.7065,5.001571749642999,1.5885717496429999,0.27878837051083605,0.6658458914293006,-7.119857959556747e-05,0.05369253274496689,-0.08660180349588562,9.825609267955667
0.736,0,4,1,59.20676611776036,1008.1993249765933,-0.5015377819223872,3.3201632318939045,160,7,1,16,160,-4,1.582,4.902163231893905,1.7381632318939044,0.28085907997281945,0.6654079604167324,-7.537087710656094e-05,0.03457774475476295,-0.09102047565509627,9.792158188137519
0.768,0,4,1,57.99461679191651,1066.1939417685098,-1.2121493258438463,3.3814813097300185,160,7,1,12,172,-4,1.442,4.823481309730019,1.9394813097300185,0.28293130417573564,0.664883453758657,-8.026484840684134e-05,0.030250908908162864,-0.08861570384804134,9.823511089840341
0.8,0,4,1,56.309932474020215,1122.50387424253,-1.6846843178962985,3.4661880606168856,160,7,1,10,182,-2,1.4010000000000002,4.867188060616886,2.0651880606168853,0.2850170561975282,0.6642736254613595,-8.544609656640535e-05,0.03719193883057203,-0.08485108069759591,9.87162725399433
0.8320000000000001,0,4,1,55.097504384075286,1177.6013786266053,-1.212428089944929,3.5263372088861806,160,7,1,6,188,-4,1.2220000000000002,4.748337208886181,2.3043372088861807,0.2870522667431031,0.6636049548780513,-8.763572280904436e-05,-0.02763387489780915,-0.08163227279708582,9.844972639408622
0.864,0,4,1,53.47114463301482,1231.07252325962,-1.6263597510604626,3.608069128100319,160,7,1,4,192,-2,1.151,4.759069128100319,2.4570691281003194,0.2891052851690708,0.6628504067363402,-8.95339706349519e-05,0.04644720243745413,-0.08398511174749777,9.818307485275644
0.896,0,4,1,52.07353767496138,1283.1460609345816,-1.3976069580534443,3.6777207232099847,160,7,1,8,200,4,1.418,5.095720723209984,2.259720723209985,0.29084984382599854,0.6621433121186003,-9.116650749316745e-05,-0.29756491756512743,-0.0829751675644979,9.798399008476503
0.928,0,4,1,51.70983680775693,1334.8558977423386,-0.36370086720445016,3.694871860479358,160,7,1,19,219,11,2.0945,5.789371860479358,1.600371860479358,0.29182024965492037,0.6617238000401068,-9.296728853571551e-05,-0.8116367615796349,-0.024831128104096194,9.803155814786782
0.96,0,4,1,51.34019174590991,1386.1960894882484,-0.3696450618470166,3.7133600577663515,160,7,1,27,246,8,2.616,6.28,1.0973600577663514,0.29250667599524244,0.661419490628597,-9.528827754596778e-05,-0.2996546737968706,-0.007848137132514244,9.804282263633693
0.992,0,4,1,51.34019174590991,1437.5362812341582,0.0,3.7129904127045044,160,7,1,32,278,5,3.0125,6.28,0.7004904127045042,0.29298296533134716,0.6612134076113765,-9.716214805286817e-05,-0.2249365892224271,0.002770453017257321,9.815313087397818
1.024,0,4,1,50.96448710125312,1488.5007683354113,-0.37570464465679265,3.732151349582001,160,7,1,30,308,-2,3.031,6.28,0.701151349582001,0.29369282496260907,0.660941125326798,-9.763214915668207e-05,0.23573519041031324,0.004370027745406102,9.86743956201639
1.056,0,4,1,48.99091309842977,1537.491681433841,-1.973574002823348,3.832427919081335,160,7,1,13,321,-17,2.1785,6.010927919081335,1.653927919081335,0.29575957748566895,0.6601434167972122,-9.688834472648504e-05,1.4185251385577653,0.06482980259197786,9.766425476453469
1.088,0,4,1,47.29061004263854,1584.7822914764795,-1.700303055791231,3.9171698009238645,160,7,1,-1,320,-14,1.487,5.404169800923865,2.4301698009238644,0.2978835358405978,0.659165123505405,-9.574444637298722e-05,0.13077620497568093,-0.14597925687331761,9.85639516587279
1.12,0,4,1,45.47350805873492,1630.2557995352145,-1.817101983903619,4.008141699047158,160,7,1,-7,313,-6,1.188,5.196141699047158,2.8201416990471584,0.30003654021368226,0.6580209148285084,-9.508174907347199e-05,0.1052071134786358,-0.14215956156125487,9.832741091974677
1.1520000000000001,0,4,1,44.51853419416165,1674.7743337293762,-0.9549738645732688,4.0550282641564905,160,7,1,-11,302,-4,0.942,4.997028264156491,3.1130282641564904,0.3022079388759959,0.6567596535972012,-9.504761059165798e-05,0.07503704845078053,-0.10364674990729958,9.845425265756777
1.184,0,4,1,43.02506598911803,1717.7993997184942,-1.4934682050436194,4.130240168749142,160,7,1,-13,289,-2,0.786,4.916240168749143,3.3442401687491423,0.30435907224494624,0.6554140185099808,-9.516117090724481e-05,0.028131445293184537,-0.09638573682338963,9.841406139650408
1.216,0,4,1,41.987212495816664,1759.786612214311,-1.0378534933013697,4.181677228702468,160,7,1,-9,280,4,0.9680000000000002,5.149677228702468,3.213677228702468,0.3063208221956754,0.6541205441655705,-9.514716475795236e-05,-0.18286129128919215,-0.07521572840833485,9.814335629609936
1.248,0,4,1,40.91438322002513,1800.7009954343362,-1.072829275791534,4.235353668274536,160,7,1,-2,278,7,1.3215000000000001,5.556853668274536,2.9138536682745357,0.3079713953780343,0.6530103115450094,-9.529711330111615e-05,-0.35295440150516627,-0.03288497986828164,9.801900616981708
1.28,0,4,1,40.36453657309736,1841.0655320074336,-0.5498466469277687,4.26232301799206,160,7,1,11,289,13,2.0535,6.28,2.2088230179920596,0.30900263888560986,0.6523145763064817,-9.572043739702017e-05,-0.7284265384366411,0.007642077858769052,9.793380870161188
1.312,0,4,1,39.80557109226519,1880.8711030996988,-0.5589654808321711,4.290280410867573,160,7,1,22,311,11,2.7045000000000003,6.28,1.5857804108675726,0.3097865265142338,0.6517684886282107,-9.650942591273894e-05,-0.28406574114847793,-0.01673963679827342,9.809029275176531
1.344,0,4,1,38.65980825409008,1919.5309113537887,-1.1457628381751093,4.348155350133671,160,7,1,6,317,-16,1.813,6.16115535013367,2.535155350133671,0.3116968840985153,0.6504911998970336,-9.61238293494017e-05,1.306876070759915,-0.0015197544264238512,9.77119205488724
1.3760000000000001,0,4,1,37.47617956136138,1957.00709091515,-1.1836286927287034,4.407374650624661,160,7,1,-5,312,-11,1.2605,5.667874650624661,3.1468746506246608,0.3139316371852259,0.6489988702243411,-9.459450815377073e-05,0.3803548585596426,0.0006990088129186263,9.757615680037636
1.408,0,4,1,36.2538377374448,1993.2609286525949,-1.2223418239165795,4.4685304549516776,160,7,1,-11,301,-6,0.928,5.3965304549516775,3.5405304549516776,0.3161535109730152,0.6473573762405026,-9.310200571799147e-05,0.08016722389227039,-0.1394024775684922,9.811401254579394
1.44,0,4,1,34.99202019855867,2028.2529488511536,-1.2618175388861275,4.531660807610953,160,7,1,-14,287,-3,0.7215,5.253160807610953,3.810160807610953,0.3183653951944062,0.6456098358517505,-9.195263487734619e-05,0.05841992702061497,-0.10301349852733754,9.842129063791722
1.472,0,4,1,33.69006752597977,2061.9430163771335,-1.3019526725788992,4.59679857637359,160,7,1,-15,272,-1,0.6055000000000001,5.2022985763735905,3.99129857637359,0.320574154558191,0.6437803481919334,-9.094431930420019e-05,0.04986047726752783,-0.0793189766110063,9.808298986784719
1.504,0,4,1,33.023867555796656,2094.96688393293,-0.6661999701831149,4.62947282218035,160,7,1,-15,257,0,0.5349999999999999,5.16447282218035,4.09447282218035,0.32278534168964623,0.6418831341069611,-8.99026179201571e-05,0.04555947864233517,-0.06517610324148114,9.810140350855292
1.536,0,4,1,32.34744349944203,2127.314327432372,-0.6764240563546267,4.663304249084254,160,7,1,-15,242,0,0.45999999999999996,5.123304249084254,4.203304249084254,0.3249863914073981,0.6399395743508395,-8.871679191215127e-05,0.023245137306121297,-0.058165512521122474,9.808405462191908
1.568,0,4,1,30.96375653207351,2158.2780839644456,-1.3836869673685186,4.733195860363693,160,7,1,-14,228,1,0.44450000000000006,5.177695860363693,4.288695860363694,0.3271814954287,0.6379526718468304,-8.731362599738272e-05,0.02465721482912706,-0.053627025916771806,9.816796518938705
1.6,0,4,1,30.256437163529277,2188.534521127975,-0.7073193685442334,4.767885461192081,160,7,1,-13,215,1,0.42949999999999994,5.197385461192081,4.338385461192081,0.32938858346841243,0.6359128719002427,-8.579489504685449e-05,0.044226610290424594,-0.048336523855127406,9.79966077441708
1.6320000000000001,0,4,1,28.81079374297305,2217.345314870948,-1.4456434205562267,4.840905956271904,160,7,1,-11,204,2,0.479,5.319905956271904,4.361905956271904,0.33160205253102926,0.6338254823629627,-8.418590443178345e-05,0.0368481504993844,-0.048506195185084575,9.778572824177086
1.6640000000000001,0,4,1,27.323891301346535,2244.6692061722947,-1.4869024416265155,4.915292337374299,160,7,1,-10,194,1,0.4745,5.389792337374299,4.440792337374299,0.33383082441254,0.6316842051277857,-8.263812862092587e-05,0.04769106245462903,-0.046687679178114165,9.828240054205455
1.696,0,4,1,26.56505117707798,2271.234257349373,-0.7588401242685556,4.952506281270369,160,7,1,-10,184,0,0.42000000000000004,5.372506281270369,4.532506281270369,0.33607138064716124,0.6294857418135587,-8.109576785969401e-05,0.047768899842719426,-0.05114204761383727,9.806958114386896
1.728,0,4,1,25.01689347810002,2296.251150827473,-1.5481576989779597,5.030703483793977,160,7,1,-8,176,2,0.489,5.519703483793977,4.541703483793977,0.33830592259108483,0.6272466220354548,-7.952696464481185e-05,0.024471977858830648,-0.05159588400251348,9.857369991721322
1.76,0,4,1,24.227745317954152,2320.478896145427,-0.7891481601458672,5.069401882262438,160,7,1,-8,168,0,0.43999999999999995,5.509401882262438,4.629401882262439,0.34055534879823446,0.6249502627548768,-7.814515639312757e-05,0.0503639290358464,-0.04742555061025921,9.834221613850785
1.792,0,4,1,23.428692808745424,2343.9075889541723,-0.7990525092087282,5.109364412071937,160,7,1,-7,161,1,0.4595,5.568864412071937,4.649864412071937,0.3427969513798636,0.6226108981411541,-7.680536136087102e-05,0.02527354951961188,-0.05335087109460342,9.791690639626607
1.824,0,4,1,22.61986494804042,2366.5274539022125,-0.808827860705005,5.149815580458684,160,7,1,-7,154,0,0.42,5.569815580458684,4.729815580458684,0.34503339863731813,0.6202302088221259,-7.562330008629298e-05,0.026392842870804862,-0.04974224534553054,9.817031554321025
1.856,0,4,1,21.801409486351798,2388.3288633885645,-0.8184554616886217,5.190747981144099,160,7,1,-7,147,0,0.38499999999999995,5.575747981144099,4.8057479811440995,0.3472629212772844,0.6178069872890095,-7.45280521607574e-05,0.026373311982998866,-0.051404886846504044,9.803491381892654
1.8880000000000001,0,4,1,20.973493421320804,2409.302356809885,-0.827916065030994,5.232153244998991,160,7,1,-6,141,1,0.4094999999999999,5.641653244998991,4.822653244998992,0.3494873216325946,0.6153430859516239,-7.353099433236691e-05,0.026434085177230417,-0.048459123341949684,9.777675102674579
1.92,0,4,1,20.13630342824813,2429.4386602381333,-0.8371899930726734,5.274022018580666,160,7,1,-6,135,0,0.375,5.649022018580666,4.899022018580666,0.35170837285335527,0.612839852091551,-7.270411360024535e-05,0.0269690248149213,-0.0454896930070282,9.814878056552281
1.952,0,4,1,19.290046219188746,2448.728706457322,-0.8462572090593845,5.3163439462496225,160,7,1,-6,129,0,0.345,5.661343946249622,4.971343946249623,0.3539240579409605,0.6102958301887194,-7.196650335818296e-05,0.026867447131008707,-0.04773206406396811,9.806864044813212
1.984,0,4,1,18.434948822922017,2467.163655280244,-0.8550973962667285,5.359107656250166,160,7,1,-5,124,1,0.3745,5.733607656250166,4.984607656250166,0.3561360857125522,0.6077125938558934,-7.131585855329678e-05,0.02713185064127953,-0.04500532506912036,9.818076558089265
2.016,0,4,1,17.571258778322406,2484.734914058566,-0.8636900445996112,5.40230075112848,160,7,1,-5,119,0,0.345,5.7473007511284795,5.05730075112848,0.3583460809370523,0.6050912212938212,-7.081132216726904e-05,0.02758595579040816,-0.042573653040261276,9.813392077658273
2.048,0,4,1,16.699244233993618,2501.43415829256,-0.8720145443287883,5.445909802844648,160,7,1,-5,114,0,0.32000000000000006,5.765909802844648,5.125909802844648,0.3605516973440841,0.6024299757400572,-7.0371454864172e-05,0.027424879567727677,-0.04474800384208823,9.743594571475496
2.08,0,4,1,15.819193947500148,2517.25335224006,-0.8800502864934696,5.489920352911486,160,7,1,-4,110,1,0.35450000000000004,5.844420352911486,5.135420352911487,0.3627544595903779,0.5997301459236032,-6.999013574935688e-05,0.027510381849349064,-0.04272131199730251,9.80342831744156
2.112,0,4,1,14.931417178137554,2532.1847694181974,-0.8877767693625938,5.534316917862485,160,7,1,-4,106,0,0.33,5.864316917862485,5.204316917862485,0.3649557652255667,0.5969925455208938,-6.972139986381395e-05,0.028245174417605604,-0.040523543383646686,9.786150906397236
2.144,0,4,1,14.036243467926484,2546.221012886124,-0.8951737102110702,5.579083000313887,160,7,1,-4,102,0,0.31,5.889083000313887,5.269083000313888,0.3671528718646923,0.5942151684971543,-6.948772448981365e-05,0.02827456892146137,-0.04346168067615633,9.75994831316213
2.176,0,4,1,13.134022306396327,2559.35503519252,-0.9022211615301572,5.624201105841713,160,7,1,-4,98,0,0.29,5.914201105841713,5.334201105841713,0.36934705183323835,0.5913990420526606,-6.925679948676343e-05,0.028339800009506956,-0.0416057772322469,9.789733221806438
2.208,0,4,1,13.134022306396327,2572.4890574989163,0.0,5.6232988846801835,160,7,1,-4,94,0,0.27,5.893298884680183,5.353298884680184,0.37153933333413014,0.588544959510792,-6.902550728349506e-05,0.028513864017843105,-0.03996880532879584,9.810750919723151
2.24,0,4,1,12.225122675735754,2584.714180174652,-0.9088996306605726,5.669652765843873,160,7,1,-4,90,0,0.25,5.919652765843873,5.419652765843873,0.3737128348605882,0.5856773129078646,-6.880581760223582e-05,-0.0003859378938459243,-0.03852002892381714,9.808019504260974
2.2720000000000002,0,4,1,12.225122675735754,2596.939302850388,0.0,5.668743866213212,160,7,1,-4,86,0,0.22999999999999998,5.898743866213213,5.438743866213212,0.3758870178161213,0.5827730951676997,-6.854942299969365e-05,0.029376211988273303,-0.03628319285395731,9.792024605895346
2.3040000000000003,0,4,1,11.309932474020227,2608.249235324408,-0.9151902017155269,5.715418566500705,160,7,1,-4,82,0,0.21000000000000002,5.925418566500705,5.505418566500705,0.3780448755708377,0.5798574910020753,-6.829569231951022e-05,-0.0004016111217524157,-0.03465780744810388,9.78316141334636
2.336,0,4,1,10.388857815469619,2618.6380931398776,-0.9210746585506087,5.76147818388507,160,7,1,-3,79,1,0.2495,6.01097818388507,5.51197818388507,0.38020574810129926,0.5769070478112487,-6.801680443451266e-05,0.03478322533265659,-0.03272511113403748,9.782195244243828
2.368,0,4,1,10.388857815469619,2629.0269509553473,0.0,5.76055710922652,160,7,1,-3,76,0,0.22999999999999998,5.99055710922652,5.530557109226519,0.38237053088528006,0.573922771363427,-6.774689576332163e-05,0.034081994154691084,-0.03080977810753539,9.781420399069058
2.4,0,4,1,9.46232220802565,2638.489273163373,-0.9265356074439683,5.807810425206162,160,7,1,-3,73,0,0.21499999999999997,6.022810425206162,5.592810425206162,0.3845183996221203,0.5709269664011493,-6.751328121232594e-05,0.0034797857536413585,-0.03407833357612563,9.818908913603735
2.432,0,4,1,9.46232220802565,2647.951595371399,0.0,5.806883889598717,160,7,1,-3,70,0,0.2,6.0068838895987176,5.606883889598717,0.38666851266681934,0.5678955802867225,-6.725677986845792e-05,0.033343816610084065,-0.03203544311196238,9.788828318802043
2.464,0,4,1,8.530765609948096,2656.482360981347,-0.9315565980775542,5.854393276100673,160,7,1,-3,67,0,0.185,6.039393276100673,5.669393276100673,0.38880385639653514,0.5648544616234851,-6.702312153476775e-05,0.0027902322596547774,-0.030820782729982107,9.8562336301847
2.496,0,4,1,8.530765609948096,2665.013126591295,0.0,5.8534617195025955,160,7,1,-3,64,0,0.16999999999999998,6.0234617195025955,5.683461719502596,0.3909431791259498,0.5617790137742461,-6.677233101719249e-05,0.033579310298331506,-0.028966439160058952,9.82747049922072
2.528,0,4,1,8.530765609948096,2673.543892201243,0.0,5.8534617195025955,160,7,1,-3,61,0,0.15499999999999997,6.008461719502596,5.698461719502595,0.3930696652973968,0.5586953791438343,-6.654870557704952e-05,0.0027651643826930314,-0.02769894917204505,9.801956580003418
2.56,0,4,1,7.594643368591447,2681.1385355698344,-0.9361222413566495,5.901203953811785,160,7,1,-2,59,1,0.19949999999999998,6.100703953811784,5.701703953811785,0.39518470509206843,0.5556038682419115,-6.632754228550787e-05,0.002829403824502578,-0.025948865482539333,9.851470665793668
2.592,0,4,1,7.594643368591447,2688.7331789384257,0.0,5.900267831570428,160,7,1,-3,56,-1,0.1255,6.025767831570428,5.774767831570428,0.39730655911743507,0.5524798474292867,-6.615786008978136e-05,0.038216434308051446,-0.02409097826077892,9.818097091829364
2.624,0,4,1,6.654425046006582,2695.387603984432,-0.9402183225848644,5.948218966022256,160,7,1,-2,54,1,0.17450000000000002,6.122718966022256,5.773718966022256,0.3994140356214383,0.5493469391903973,-6.592499113950052e-05,0.007103172124789931,-0.027797908844182293,9.798040519008916
2.656,0,4,1,5.710593137499633,2701.0981971219317,-0.9438319085069491,5.995414175033526,160,7,1,-2,52,0,0.16,6.155414175033526,5.8354141750335256,0.4015302152286956,0.5461827546082009,-6.575693687718882e-05,0.037604814524136713,-0.02079165470539069,9.819515076076186
2.688,0,4,1,5.710593137499633,2706.808790259431,0.0,5.994470343125019,160,7,1,-2,50,0,0.15,6.144470343125019,5.8444703431250185,0.4036507567680051,0.5429851516901465,-6.559809783677692e-05,0.036793521716886816,-0.024910430823203985,9.83332267536799
2.72,0,4,1,6.654425046006582,2713.4632153054376,0.9438319085069491,5.946334915791164,160,7,1,-3,47,-1,0.08049999999999999,6.026834915791164,5.865834915791164,0.40575955524771673,0.539780481885257,-6.547663912901021e-05,0.0060596304826538985,-0.023404441118669714,9.794017902692133
2.7520000000000002,0,4,1,5.710593137499633,2719.173808442937,-0.9438319085069491,5.995414175033526,160,7,1,-2,45,1,0.1295,6.124914175033526,5.8659141750335255,0.40784078261778145,0.5365940688478912,-6.532480313433016e-05,-0.03045899374106303,-0.02250344345463682,9.788776514085239
2.7840000000000003,0,4,1,4.763641690726143,2723.9374501336633,-0.9469514467734905,6.042764866910467,160,7,1,-2,43,0,0.11499999999999999,6.157764866910467,5.927764866910467,0.4099340050128511,0.5333784931584462,-6.52170970606332e-05,0.028513915263026792,-0.015124466940135674,9.839679753457176
2.816,0,4,1,4.763641690726143,2728.7010918243896,0.0,6.041817915463693,160,7,1,-2,41,0,0.10500000000000001,6.146817915463694,5.936817915463693,0.4120345163690286,0.5301315160344549,-6.51083451909916e-05,0.032897755624571756,-0.019787366915016924,9.76985616469837
2.848,0,4,1,4.763641690726143,2733.4647335151158,0.0,6.041817915463693,160,7,1,-2,39,0,0.095,6.136817915463693,5.9468179154636935,0.4141264992325704,0.5268797405767205,-6.499833731167699e-05,0.007233425863998057,-0.01819949442578258,9.804129443780111
2.88,0,4,1,4.763641690726143,2738.228375205842,0.0,6.041817915463693,160,7,1,-2,37,0,0.08499999999999999,6.126817915463693,5.956817915463693,0.4162110271362875,0.5236231725845625,-6.488054453781048e-05,0.00797137184705694,-0.016949986402032904,9.791714446764253
2.912,0,4,1,3.8140748342903783,2742.0424500401323,-0.9495668564357644,6.090245825141917,160,7,1,-1,36,1,0.1345,6.224745825141917,5.955745825141917,0.41828885439251945,0.5203623131708173,-6.478709591942536e-05,0.007651871190181658,-0.015763961059451496,9.805627762789328
2.944,0,4,1,4.763641690726143,2746.8060917308585,0.9495668564357644,6.040868348607257,160,7,1,-2,34,-1,0.0655,6.1063683486072575,5.975368348607257,0.4203773469631051,0.5170714073736031,-6.470697711949587e-05,0.03841102003906283,-0.014433320402837043,9.827766460896152
2.976,0,4,1,3.8140748342903783,2750.620166565149,-0.9495668564357644,6.090245825141917,160,7,1,-1,33,1,0.11950000000000001,6.209745825141917,5.9707458251419165,0.4224388968994112,0.513800604427629,-6.463248055897479e-05,-0.02921011885154052,-0.01896220163780527,9.837024883911415
3.008,0,4,1,3.8140748342903783,2754.434241399439,0.0,6.089296258285481,160,7,1,-2,31,-1,0.050499999999999996,6.1397962582854815,6.038796258285481,0.42451279583254137,0.5105004464625978,-6.458742484593064e-05,0.03199453442574542,-0.011824462553199001,9.813143061075193
3.04,0,4,1,2.862405226111779,2757.2966466255507,-0.9516696081785994,6.137831408302589,160,7,1,-1,30,1,0.1045,6.242331408302589,6.0333314083025895,0.42657738934073447,0.5071952474938584,-6.451811838986167e-05,0.00010976383931514192,-0.016942187731631583,9.791457496503122
3.072,0,4,1,3.8140748342903783,2761.110721459841,0.9516696081785994,6.088344588677303,160,7,1,-2,28,-1,0.03550000000000001,6.1238445886773025,6.052844588677303,0.42865503352496903,0.503861497961861,-6.447860293552071e-05,0.03642479313826565,-0.010204281942015832,9.860082077734923
3.104,0,4,1,2.862405226111779,2763.9731266859526,-0.9516696081785994,6.137831408302589,160,7,1,-1,27,1,0.08950000000000001,6.2273314083025895,6.048331408302589,0.43070807333175015,0.5005495949580195,-6.44193662328596e-05,-0.025565393231739852,-0.015197680557849128,9.74497650148666
3.136,0,4,1,2.862405226111779,2766.835531912064,0.0,6.136879738694411,160,7,1,-1,26,0,0.08,6.216879738694411,6.056879738694411,0.43277555441779597,0.49720953468696144,-6.438054198039389e-05,0.041054013534174844,-0.008179210043577542,9.762946476644524
3.168,0,4,1,1.9091524329963898,2768.7446843450607,-0.9532527931153891,6.185495631143296,160,7,1,-1,25,0,0.075,6.260495631143296,6.110495631143296,0.43483597834027493,0.49386582592230893,-6.433148345428089e-05,0.009704900978579524,-0.013149514291740582,9.789200750457217
3.2,0,4,1,2.862405226111779,2771.6070895711723,0.9532527931153891,6.135926485901296,160,7,1,-2,23,-1,0.010499999999999999,6.146426485901296,6.125426485901295,0.4369066932227916,0.4904919166489479,-6.428245954672243e-05,0.040657544614122694,-0.01211762237235317,9.804478152429686
3.232,0,4,1,2.862405226111779,2774.469494797284,0.0,6.136879738694411,160,7,1,-1,22,1,0.0645,6.201379738694411,6.072379738694411,0.4389551943065092,0.48714149436420084,-6.425284801755624e-05,-0.02742687778063781,-0.011502611477697034,9.832718019828068
3.2640000000000002,0,4,1,1.9091524329963898,2776.3786472302804,-0.9532527931153891,6.185495631143296,160,7,1,-1,21,0,0.05499999999999999,6.240495631143296,6.1304956311432965,0.4410037164184785,0.48379047482675347,-6.4234992578854e-05,-0.0028279429942705218,-0.0050873333534778705,9.78342112203321
3.2960000000000003,0,4,1,1.9091524329963898,2778.287799663277,0.0,6.184542378350181,160,7,1,-1,20,0,0.05,6.234542378350181,6.134542378350181,0.44306365276579696,0.48040997803904995,-6.421226655812032e-05,0.026380899600591517,-0.009985726627519348,9.815545770795461
3.3280000000000003,0,4,1,1.9091524329963898,2780.1969520962734,0.0,6.184542378350181,160,7,1,-1,19,0,0.045,6.229542378350181,6.139542378350181,0.4451191802156434,0.47702750306407926,-6.418952681614722e-05,-0.004947704155644448,-0.009027224893957004,9.814683076553273
3.36,0,4,1,1.9091524329963898,2782.10610452927,0.0,6.184542378350181,160,7,1,-1,18,0,0.039999999999999994,6.224542378350181,6.144542378350181,0.4471709961390116,0.47364277226391016,-6.416743791825587e-05,-0.004516597743447106,-0.008360205358544048,9.787706514244588
3.392,0,4,1,1.9091524329963898,2784.0152569622664,0.0,6.184542378350181,160,7,1,-1,17,0,0.035,6.219542378350181,6.149542378350181,0.44921948646295107,0.47025602489825047,-6.414627257932126e-05,-0.0044327372145843615,-0.007698616054447794,9.772471596152961
3.424,0,4,1,1.9091524329963898,2785.924409395263,0.0,6.184542378350181,160,7,1,-1,16,0,0.03,6.214542378350181,6.154542378350181,0.45126504090785297,0.4668675008435156,-6.412610755214196e-05,-0.004155936641778546,-0.007027187589709296,9.751245427364461
3.456,0,4,1,1.9091524329963898,2787.8335618282595,0.0,6.184542378350181,160,7,1,-1,15,0,0.024999999999999994,6.209542378350181,6.159542378350181,0.4533080510767047,0.4634774395059469,-6.41069134428799e-05,-0.0035555525542059,-0.006323986649919366,9.827930431206052
3.488,0,4,1,0.9548412538723549,2788.788403082132,-0.954311179124035,6.233212248485507,160,7,1,0,15,1,0.0795,6.28,6.1537122484855065,0.455348909042138,0.46008607919227307,-6.40886244590421e-05,-0.002765653363185673,-0.00576169468924351,9.834671936611162
3.52,0,4,1,0.9548412538723549,2789.7432443360044,0.0,6.2322579373063824,160,7,1,0,15,0,0.075,6.28,6.157257937306382,0.4573986674351609,0.45667591337294333,-6.407989636900147e-05,0.022362436131361706,-0.005033451534544981,9.795227957121284
3.552,0,4,1,1.9091524329963898,2791.652396769001,0.954311179124035,6.183588067171057,160,7,1,-1,14,-1,0.015500000000000003,6.199088067171057,6.168088067171056,0.4594439937747866,0.45326174978186057,-6.406686027126719e-05,0.008555217375460725,-0.008625136974705305,9.800885172026701
3.584,0,4,1,0.9548412538723549,2792.6072380228734,-0.954311179124035,6.233212248485507,160,7,1,0,14,1,0.07450000000000001,6.28,6.158712248485507,0.46147292901855425,0.4498639053844277,-6.405288060238115e-05,-0.014206041265969438,-0.008308443464263213,9.80394398252994
3.616,0,4,1,1.9091524329963898,2794.51639045587,0.954311179124035,6.183588067171057,160,7,1,-1,13,-1,0.010499999999999999,6.194088067171057,6.173088067171056,0.4635125659233191,0.4464457975795476,-6.404187515300815e-05,0.0344182404611097,-0.0037487785467048315,9.834499376922743
3.648,0,4,1,0.9548412538723549,2795.4712317097424,-0.954311179124035,6.233212248485507,160,7,1,0,13,1,0.0695,6.28,6.163712248485507,0.4655356779054004,0.4430444889606018,-6.4034257482996e-05,-0.011317815495156003,-0.007986714630088581,9.832783814308913
3.68,0,4,1,0.9548412538723549,2796.426072963615,0.0,6.2322579373063824,160,7,1,-1,12,-1,0.005499999999999995,6.237757937306382,6.226757937306383,0.46757069210976315,0.4396217690290835,-6.402627290575703e-05,0.0381996587081531,-0.00310574838552042,9.791713399590744
3.712,0,4,1,0.9548412538723549,2797.3809142174873,0.0,6.2322579373063824,160,7,1,0,12,1,0.0645,6.28,6.167757937306383,0.46960449450622066,0.43619061336858356,-6.40023757910637e-05,0.02042868337532477,-0.007575502679396659,9.816739820039361
3.744,0,4,1,0.9548412538723549,2798.33575547136,0.0,6.2322579373063824,160,7,1,-1,11,-1,0.0004999999999999978,6.232757937306382,6.231757937306383,0.4716353521202201,0.43276392293305266,-6.401315375057122e-05,0.0064808639302884425,-0.002564065787140366,9.837516222626654
3.7760000000000002,0,4,1,0.9548412538723549,2799.2905967252323,0.0,6.2322579373063824,160,7,1,-1,10,0,0.0,6.2322579373063824,6.2322579373063824,0.47366449186457465,0.4293299963810035,-6.401214475571654e-05,0.01513156196162188,-0.007295115560185955,9.823173941750888
3.8080000000000003,0,4,1,0.0,2799.2905967252323,-0.9548412538723549,6.280954841253872,160,7,1,0,10,1,0.0545,6.28,6.226454841253872,0.47569386434188027,0.425896209223132,-6.401137472439658e-05,0.007325408752210546,-0.0019100304391347531,9.793334356338622
3.84,0,4,1,0.0,2799.2905967252323,0.0,6.28,160,7,1,0,10,0,0.05,6.28,6.23,0.47773033390462916,0.42245102648841343,-6.401017928097698e-05,0.020034942513875456,-0.0017858006231224162,9.808753770004087
3.872,0,4,1,0.0,2799.2905967252323,0.0,6.28,160,7,1,0,10,0,0.05,6.28,6.23,0.47976534037780577,0.41900366053877197,-6.40079250094211e-05,0.007800041824268848,-0.004288851842718678,9.815446561232912
3.904,0,4,1,0.0,2799.2905967252323,0.0,6.28,160,7,1,0,10,0,0.05,6.28,6.23,0.48179842268304984,0.4155551583259473,-6.400560061813922e-05,0.005826781794270666,-0.004036606650146774,9.805684958181375
3.936,0,4,1,0.0,2799.2905967252323,0.0,6.28,160,7,1,0,10,0,0.05,6.28,6.23,0.4838295570900974,0.4121055071999487,-6.400334385003002e-05,0.004640816595686556,-0.003943326981246067,9.791631488649747
3.968,0,4,1,0.9548412538723549,2800.2454379791047,0.9548412538723549,6.23130309605251,160,7,1,-1,9,-1,-0.009500000000000005,6.22180309605251,6.2408030960525105,0.4858587272810003,0.40865469909302,-6.400115293454973e-05,0.00314259577610479,-0.0038567249634769607,9.765663440621127
4.0,0,4,1,0.0,2800.2454379791047,-0.9548412538723549,6.280954841253872,160,7,1,0,9,1,0.049499999999999995,6.28,6.231454841253872,0.48787824197062096,0.405215812814024,-6.399597034432818e-05,-0.016387577365283942,-0.0037691374659134065,9.778813105947137
4.032,0,4,1,0.0,2800.2454379791047,0.0,6.28,160,7,1,0,9,0,0.045,6.28,6.235,0.489906664052418,0.40176402637195774,-6.39925161187195e-05,0.012209098333586172,-0.0003245625045694855,9.815640048291337
4.064,0,4,1,0.0,2800.2454379791047,0.0,6.28,160,7,1,0,9,0,0.045,6.28,6.235,0.4919337392168865,0.39831013120958597,-6.398890046325177e-05,-0.0030088541604084995,-0.003545997388497559,9.809945111020996
4.096,0,4,1,0.0,2800.2454379791047,0.0,6.28,160,7,1,0,9,0,0.045,6.28,6.235,0.49395902408965053,0.39485518492334115,-6.398569529252052e-05,-0.004935032167055486,-0.0033173105926163353,9.807822226635075
4.128,0,4,1,0.0,2800.2454379791047,0.0,6.28,160,7,1,0,9,0,0.045,6.28,6.235,0.4959825089652915,0.3913991833946107,-6.398319935671873e-05,-0.005487566201534781,-0.003227946762642758,9.787628476758771
4.16,0,4,1,0.9548412538723549,2801.200279232977,0.9548412538723549,6.23130309605251,160,7,1,-1,8,-1,-0.014500000000000002,6.2168030960525105,6.24580309605251,0.4980041901900207,0.3879421260149458,-6.398158216633365e-05,-0.005729712111787733,-0.003208779169868032,9.824488452639983
4.192,0,4,1,0.0,2801.200279232977,-0.9548412538723549,6.280954841253872,160,7,1,0,8,1,0.0445,6.28,6.236454841253872,0.5000155985016341,0.3844984905643681,-6.397299411229664e-05,-0.025424007829496966,-0.003181889506766271,9.813742461520361
4.224,0,4,1,0.0,2801.200279232977,0.0,6.28,160,7,1,0,8,0,0.04,6.28,6.24,0.5020371001613011,0.38104079135195096,-6.397368087822548e-05,0.008675926522544081,0.0004962341900009985,9.793481227368215
4.256,0,4,1,0.0,2801.200279232977,0.0,6.28,160,7,1,0,8,0,0.04,6.28,6.24,0.5040574386923519,0.3775810973337918,-6.397521864934426e-05,-0.005587612109905573,-0.0030038359628010566,9.816688192349208
4.288,0,4,1,0.9548412538723549,2802.1551204868497,0.9548412538723549,6.23130309605251,160,7,1,-1,7,-1,-0.0195,6.211803096052511,6.25080309605251,0.5060761767478775,0.3741204688463879,-6.397692271848006e-05,-0.004845170941061151,-0.0028283802772164817,9.839259972674054
4.32,0,4,1,0.0,2802.1551204868497,-0.9548412538723549,6.280954841253872,160,7,1,0,7,1,0.0395,6.28,6.241454841253872,0.5080840487605134,0.3706747696657847,-6.397199323661222e-05,-0.024236566108787126,-0.0027946977308945997,9.85636960698848
4.352,0,4,1,0.0,2802.1551204868497,0.0,6.28,160,7,1,0,7,0,0.035,6.28,6.245,0.5101032078049412,0.3672138496711567,-6.397468530146277e-05,0.014685563692130013,0.001111615358651046,9.791113749197297
4.384,0,4,1,0.0,2802.1551204868497,0.0,6.28,160,7,1,0,7,0,0.035,6.28,6.245,0.5121213886558551,0.36375104479943265,-6.397586576160734e-05,0.00043940723082041834,-0.002637161596827721,9.809003699769999
4.416,0,4,1,0.0,2802.1551204868497,0.0,6.28,160,7,1,0,7,0,0.035,6.28,6.245,0.5141381515559894,0.36028741365811295,-6.397510464275884e-05,0.002443163154356667,-0.0024333661114940524,9.849813042153713
4.448,0,4,1,0.9548412538723549,2803.109961740722,0.9548412538723549,6.23130309605251,160,7,1,-1,6,-1,-0.024500000000000004,6.206803096052511,6.25580309605251,0.516153487712725,0.35682295199848935,-6.39725768286064e-05,0.005411385290663409,-0.002388648473653416,9.83697897735676
4.48,0,4,1,5.710593137499633,2808.8205548782216,4.755751883627278,5.989714591241391,160,7,1,0,6,1,0.034499999999999996,6.024214591241392,5.955214591241391,0.518157368297188,0.3533749301756835,-6.397137767775313e-05,-0.015467126460443662,-0.0023387087181475853,9.712564276179373
4.5120000000000005,0,4,1,17.300527191945005,2826.1210820701667,11.589934054445372,5.403383706348305,160,7,1,-1,5,-1,-0.029500000000000002,5.373883706348305,5.432883706348305,0.5200856703183968,0.3500618067967529,-6.391849409527646e-05,-0.17911253355821405,0.001650827867845548,9.881713866391554
4.5440000000000005,0,4,1,31.23921488820876,2857.3602969583753,13.938687696263756,4.704100567893298,160,7,1,0,5,1,0.029500000000000002,4.733600567893298,4.6746005678932985,0.5218226720869453,0.3470715170964407,-6.348387343562377e-05,-0.39228549199903007,-0.003595435427161899,9.81599211877289
4.5760000000000005,0,4,1,39.89783474764182,2897.258131706017,8.658619859433056,4.276449642758476,160,7,1,0,5,0,0.025,4.3014496427584765,4.251449642758476,0.5233369189570583,0.3444693948524564,-6.322129313399323e-05,-0.46127366381461693,0.0017534671580251395,9.797233493389456
4.6080000000000005,0,4,1,45.465809082764984,2942.7239407887823,5.567974335123168,4.001141571526628,160,7,1,-1,4,-1,-0.0345,3.9666415715266283,4.035641571526629,0.5247117996594239,0.3421028480785727,-6.315162772631625e-05,-0.2897602546020908,-0.002753645276901895,9.847865218120296
4.64,0,4,1,46.3748347805694,2989.098775569352,0.9090256978044167,3.9603492352737257,160,7,1,0,4,1,0.0245,3.984849235273726,3.9358492352737255,0.5259967681098827,0.3398878513206127,-6.317331773314505e-05,-0.19174331382302956,-0.001962713863137305,9.783768397853661
4.672,0,4,1,45.924045352772715,3035.0228209221245,-0.4507894277966855,3.9842485217891612,160,7,1,0,4,0,0.02,4.004248521789161,3.964248521789161,0.5272706136120866,0.3376965895734226,-6.3314041786066e-05,-0.044901973178353025,0.001861345704248969,9.774339070439611
4.704,0,4,1,45.00000000000001,3080.0228209221245,-0.9240453527727084,4.030924045352772,160,7,1,-1,3,-1,-0.0395,3.991424045352772,4.070424045352772,0.5285508237896377,0.3354913368213502,-6.345775901562926e-05,0.0010037695690371376,-0.0018186817360370312,9.857081792977139
4.736,0,4,1,42.46644111160542,3122.48926203373,-2.5335588883945874,4.159211503308124,160,7,1,0,3,1,0.0195,4.178711503308124,4.139711503308124,0.5298449246273261,0.33325961148096245,-6.35793039254779e-05,0.02741003782960719,-0.0015640336705986131,9.835901836167285
4.768,0,4,1,37.33319573818583,3159.8224577719157,-5.133245373419591,4.418473458464128,160,7,1,0,3,0,0.015,4.433473458464127,4.403473458464128,0.5311825140570777,0.33095819383874997,-6.360398280535681e-05,0.10748532926186044,0.002271996973859361,9.846765763355686
4.8,0,4,1,30.677280021796452,3190.499737793712,-6.6559157163893765,4.752791914626567,160,7,1,0,3,0,0.015,4.767791914626566,4.737791914626567,0.5326022919030655,0.3285126410155843,-6.341969986287631e-05,0.18599795889600398,-0.001428865422086863,9.84162756735134
4.832,0,4,1,20.77225468204584,3211.271992475758,-9.905025339750612,5.251292291237458,160,7,1,2,5,2,0.134,5.385292291237459,5.117292291237458,0.5341285436308256,0.32588148755473756,-6.336059544714313e-05,0.2310556798900099,-0.001155417647004969,9.801082447594638
4.864,0,4,1,10.922804719869259,3222.1947971956274,-9.849449962176582,5.743709213968714,160,7,1,22,27,20,1.3250000000000002,6.28,4.418709213968714,0.5358137285019996,0.32297369319034175,-6.322900724820002e-05,0.3326527030441094,-0.00044776979201319774,9.794906240185673
4.896,0,4,1,41.18592516570965,3263.380722361337,30.26312044584039,4.190440621268677,160,7,1,42,69,20,2.535,6.28,1.655440621268677,0.5375201514580275,0.32000524527936935,-6.336531887025584e-05,0.0813217727531232,-0.010467001173548882,9.80722068040557
4.928,0,4,1,46.49433359126653,3309.875055952604,5.308408425556884,3.949974912011117,160,7,1,34,103,-8,2.1790000000000003,6.128974912011117,1.7709749120111167,0.5387419040814893,0.3177702016475829,-6.246124902336246e-05,-1.0092399567253574,-0.1136883191511141,9.790737378788625
4.96,0,4,1,59.58891873287464,3369.4639746854787,13.094585141608107,3.28745947821466,160,7,1,31,134,-3,2.2065,5.49395947821466,1.0809594782146599,0.5398400702325217,0.31547159424461824,-6.636772520560337e-05,-0.05368677189920804,-0.1483533257693974,9.877022584714645
4.992,0,4,1,64.476575498932,3433.9405501844108,4.887656766057354,3.051283568287343,160,7,1,17,151,-14,1.542,4.593283568287343,1.5092835682873431,0.5406501484867169,0.3135007455315943,-7.153102662553652e-05,-0.4497600169118873,-0.15560716695674137,9.822346353143152
5.024,0,4,1,68.66314070819435,3502.6036908926053,4.186565209262355,2.8426563993810205,160,7,1,5,156,-12,0.976,3.8186563993810205,1.8666563993810206,0.5412988377716097,0.31163719249953564,-7.706449957346762e-05,-0.1876594764778593,-0.12403911085842252,9.83908000870143
5.056,0,4,1,75,3577.6036908926053,6.336859291805652,2.5236631407081944,160,7,1,-8,148,-13,0.2815,2.8051631407081943,2.2421631407081946,0.5418347404809052,0.3098887357040246,-8.150460961623904e-05,-0.1686865034344756,-0.08030769671064719,9.790435198382102
5.088,0,4,1,75,3652.6036908926053,0,2.5300000000000002,160,7,1,-20,128,-12,-0.414,2.116,2.9440000000000004,0.5422720423204597,0.3083311514441841,-8.315048536982304e-05,-0.22817899605909323,-0.04844565410285387,9.789427946008779
5.12,0,4,1,75,3727.6036908926053,0,2.5300000000000002,160,7,1,-35,93,-15,-1.3524999999999998,1.1775000000000004,3.8825000000000003,0.5427007889371728,0.3067799938214783,-8.262977828067675e-05,-0.02598862646259711,-0.01502254914800099,9.849173444841593
5.152,0,4,1,75,3802.6036908926053,0,2.5300000000000002,160,7,1,-42,51,-7,-1.8765000000000003,0.6535,4.4065,0.5431484097377677,0.30523836458013937,-7.962446020943342e-05,-0.01841160790238068,0.011957686109948662,9.808376332971179
5.184,0,4,1,75,3877.6036908926053,0,2.5300000000000002,160,7,1,-42,9,0,-2.055,0.4750000000000001,4.585000000000001,0.5436530945358264,0.3037089545117273,-7.605777349514037e-05,-0.005810462903818879,0.04861490669445749,9.815807918097933
5.216,0,4,1,75,3952.6036908926053,0,2.5300000000000002,160,7,1,-36,-27,6,-1.9080000000000001,0.6220000000000001,4.438000000000001,0.5442349616837712,0.3021976401291974,-7.35669563459284e-05,-6.0001502416015126e-05,0.06993885680991689,9.840991165425148
5.248,0,4,1,75,4027.6036908926053,0,2.5300000000000002,160,7,1,-30,-57,6,-1.7580000000000002,0.772,4.288,0.5448981990755921,0.3007124623292242,-7.304577622306054e-05,-0.0014573901958987777,0.07729947200696505,9.859938904378085
5.28,0,4,1,75,4102.603690892605,0,2.5300000000000002,160,7,1,-24,-81,6,-1.5780000000000003,0.952,4.1080000000000005,0.545632679181968,0.2992579116097132,-7.421529612832399e-05,-0.0062060402798456244,0.07223778625131118,9.862240871810663
5.312,0,4,1,75,4177.603690892605,0,2.5300000000000002,160,7,1,-18,-99,6,-1.368,1.1620000000000001,3.8980000000000006,0.5464283291090595,0.29783580527298414,-7.652203949231294e-05,-0.007560832025658961,0.0655726232398805,9.760994704850216
5.344,0,4,1,75,4252.603690892605,0,2.5300000000000002,160,7,1,-13,-112,5,-1.1875,1.3425000000000002,3.7175000000000002,0.5472752690425235,0.296446075102792,-7.933905621397043e-05,-0.007913949031603258,0.05933934115113818,9.790606059254804
5.376,0,4,1,75,4327.603690892605,0,2.5300000000000002,160,7,1,-9,-121,4,-1.037,1.4930000000000003,3.567,0.5481640705308609,0.2950866373700849,-8.211960020730949e-05,-0.007169391488013885,0.05231087726575869,9.83256282615043
5.408,0,4,1,75,4402.603690892605,0,2.5300000000000002,160,7,1,-5,-126,4,-0.862,1.6680000000000001,3.3920000000000003,0.5490868375325516,0.29375372116466997,-8.450839435501269e-05,-0.0052849221004069875,0.045478460376896436,9.811878501832844
5.44,0,4,1,75,4477.603690892605,0,2.5300000000000002,160,7,1,-1,-127,4,-0.667,1.8630000000000002,3.197,0.5500376074675345,0.2924443587107796,-8.624178741937875e-05,-0.003908277995991262,0.04041704061954422,9.794549806172812
5.472,0,4,1,75,4552.603690892605,0,2.5300000000000002,160,7,1,1,-126,2,-0.571,1.9590000000000003,3.101,0.5510103022863991,0.29115466119319205,-8.717501769107093e-05,-0.0028406509924492557,0.03415827685742775,9.806408690318278
5.5040000000000004,0,4,1,75,4627.603690892605,0,2.5300000000000002,160,7,1,2,-124,1,-0.5155000000000001,2.0145,3.0455000000000005,0.5519994607213696,0.2898795858427393,-8.744299163378905e-05,-0.0012799373237950588,0.027889261509609294,9.855929382820342
5.5360000000000005,0,4,1,75,4702.603690892605,0,2.5300000000000002,160,7,1,2,-122,0,-0.51,2.0200000000000005,3.04,0.5530027351396511,0.28861665272255377,-8.697878734933821e-05,-0.000597470044030488,0.024932871429597225,9.830176521865543
5.5680000000000005,0,4,1,75,4777.603690892605,0,2.5300000000000002,160,7,1,2,-120,0,-0.5,2.0300000000000002,3.0300000000000002,0.5540191336477003,0.2873644116828553,-8.633562992735148e-05,6.954434082226102e-05,0.023553909026846048,9.851140937758483
5.6000000000000005,0,4,1,75,4852.603690892605,0,2.5300000000000002,160,7,1,2,-118,0,-0.49,2.04,3.0200000000000005,0.5550488411214596,0.2861229003583556,-8.537852185238129e-05,7.388449788622086e-05,0.023686291106727635,9.833741425557855
5.632,0,4,1,75,4927.603690892605,0,2.5300000000000002,160,7,1,2,-116,0,-0.48,2.0500000000000003,3.0100000000000002,0.5560918262256748,0.28489207437059116,-8.419231552847864e-05,-0.00019668320784595934,0.023807705316860127,9.819068259755067
5.664,0,4,1,75,5002.603690892605,0,2.5300000000000002,160,7,1,2,-114,0,-0.4700000000000001,2.06,3.0000000000000004,0.5571479707417702,0.2836719161122206,-8.285898897475788e-05,-0.0006907890560630186,0.023534392788026916,9.849941754677353
5.696,0,4,1,75,5077.603690892605,0,2.5300000000000002,160,7,1,2,-112,0,-0.4600000000000001,2.0700000000000003,2.99,0.5582170856131875,0.28246241779164816,-8.14487282982685e-05,-0.0013316332314926627,0.023165416950715126,9.777967475114984
5.728,0,4,1,75,5152.603690892605,0,2.5300000000000002,160,7,1,2,-110,0,-0.45000000000000007,2.08,2.9800000000000004,0.559298925543068,0.28126356960108,-8.001858929540528e-05,-0.002067168970385701,0.022874399991175003,9.800131789534484
5.76,0,4,1,75,5227.603690892605,0,2.5300000000000002,160,7,1,2,-108,0,-0.44000000000000006,2.0900000000000003,2.97,0.5603932019925961,0.2800753518829125,-7.861273301374566e-05,-0.002847559656132074,0.02224264864343114,9.830115060645255
5.792,0,4,1,75,5302.603690892605,0,2.5300000000000002,160,7,1,2,-106,0,-0.43000000000000005,2.1,2.9600000000000004,0.5614995944135431,0.2788977302807892,-7.72635493298899e-05,-0.003635763036515493,0.021569286185349437,9.817838942888999
5.824,0,4,1,75,5377.603690892605,0,2.5300000000000002,160,7,1,2,-104,0,-0.42000000000000004,2.1100000000000003,2.95,0.5626177597055343,0.2777306530668818,-7.599322908460361e-05,-0.004419243095996687,0.02102985215531207,9.83897917045243
5.856,0,4,1,75,5452.603690892605,0,2.5300000000000002,160,7,1,2,-102,0,-0.41000000000000003,2.12,2.9400000000000004,0.5637473399914378,0.27657405001196633,-7.481549284044792e-05,-0.005186600325168616,0.020459334282362514,9.791515490644544
5.888,0,4,1,75,5527.603690892605,0,2.5300000000000002,160,7,1,2,-100,0,-0.4,2.1300000000000003,2.93,0.5648879688654247,0.27542783231076184,-7.373729110182747e-05,-0.005865889843853699,0.019888787228535446,9.835266897298125
5.92,0,4,1,75,5602.603690892605,0,2.5300000000000002,160,7,1,2,-98,0,-0.39,2.14,2.9200000000000004,0.5660392762987816,0.27429189319458536,-7.276036687349843e-05,-0.006484222772785398,0.019235442148987775,9.767261212276805
5.952,0,4,1,75,5677.603690892605,0,2.5300000000000002,160,7,1,2,-96,0,-0.38,2.1500000000000004,2.91,0.5672008923977139,0.27316610895970506,-7.188262420835916e-05,-0.007112575001049306,0.01852463917827722,9.797360311655343
5.984,0,4,1,75,5752.603690892605,0,2.5300000000000002,160,7,1,2,-94,0,-0.37,2.16,2.9000000000000004,0.5683724502022273,0.27205034021602365,-7.109928186508317e-05,-0.007606491175854007,0.018164082737912736,9.748833779124293
