Time,SetPointAngle,SensorAngleRow,SensorAngleWidth,Angle,IntegralAngle,DeltaAngle,BaseSpeed,SetPointError,SensorErrorRow,SensorErrorWidth,Error,IntegralError,DeltaError,DeltaSpeed,LeftSpeed,RightSpeed,X,Y,Z,Roll,Pitch,Yaw
0.032,0,4,1,2.2906100426385936,2.2906100426385936,2.2906100426385936,6.163178887825431,160,9,1,-11,-11,-11,-0.6545000000000001,5.508678887825431,6.28,-0.021500000000000408,0.17999999999999444,-6.396425821141548e-05,-8.764646203377803e-09,-1.041238870734619e-06,9.77936650730987
0.064,0,4,1,1.7183580016555007,4.008968044294094,-0.5722520409830929,6.194654351958208,160,9,1,-5,-16,6,-0.30300000000000005,5.891654351958208,6.28,-0.025246993440947527,0.1799946238349556,-2.0963538255484165e-05,4.400146962078922,-0.02755058000756013,9.585188264667082
0.096,0,4,1,1.7183580016555007,5.727326045949595,0.0,6.1940820999172255,160,9,1,-3,-19,2,-0.23600000000000002,5.958082099917226,6.28,-0.02913161365575444,0.17994753037995817,-6.077278476532624e-05,0.5040038622194069,0.03106251647232756,9.690948318010145
0.128,0,4,1,1.1457628381751443,6.873088884124739,-0.5725951634803563,6.223284453254723,160,9,1,-1,-20,2,-0.14100000000000001,6.082284453254723,6.28,-0.033048074927110094,0.17988427717081612,-7.690110143234417e-05,0.014180380939352562,0.016008216736477232,9.861735260245604
0.16,0,4,1,1.7183580016555007,8.59144688578024,0.5725951634803563,6.193509504753745,160,9,1,0,-20,1,-0.0955,6.098009504753745,6.28,-0.03700329729474897,0.17980672002575573,-7.004250050448267e-05,0.212160886092371,0.015284790317936985,9.84642946129506
0.192,0,4,1,1.1457628381751443,9.737209723955385,-0.5725951634803563,6.223284453254723,160,9,1,2,-18,2,0.01900000000000001,6.242284453254723,6.204284453254723,-0.040957789964707905,0.17971974828745357,-7.002930502518663e-05,0.08015078726574383,0.010342062745689865,9.795556717018846
0.224,0,4,1,0.5729386976839008,10.310148421639285,-0.5728241404912435,6.251925889256296,160,9,1,3,-15,1,0.07950000000000003,6.28,6.172425889256296,-0.044939342996915335,0.1796241591129369,-6.977778467932155e-05,0.01439927896944611,0.010759750286753888,9.81673629044968
0.256,0,4,1,0.5729386976839008,10.883087119323186,0.0,6.251353065115805,160,9,1,3,-12,0,0.09000000000000002,6.28,6.161353065115805,-0.048922787030411724,0.17953146435645462,-6.838485102011321e-05,-0.010368966532781685,0.0006829334841721814,9.791292429717995
0.28800000000000003,0,4,1,0.5729386976839008,11.456025817007086,0.0,6.251353065115805,160,9,1,3,-9,0,0.10500000000000002,6.28,6.146353065115805,-0.05290287939052972,0.179445330804546,-6.760738967149377e-05,-0.014761575804614227,-0.0021356614934114216,9.78954890659161
0.32,0,4,1,1.1457628381751443,12.601788655182231,0.5728241404912435,6.222139033950752,160,9,1,2,-7,-1,0.060500000000000005,6.28,6.161639033950752,-0.05687836770617909,0.17936624974996668,-6.696108393929034e-05,-0.01566353591032956,-0.002324820565533412,9.775845124395266
0.352,0,4,1,0.5729386976839008,13.174727352866132,-0.5728241404912435,6.251925889256296,160,9,1,2,-5,0,0.07500000000000001,6.28,6.176925889256296,-0.060858933918782374,0.1792945939841581,-6.64362236415545e-05,-0.004240581760693064,-0.0029613287008319034,9.859706332848583
0.384,0,4,1,0.5729386976839008,13.747666050550032,0.0,6.251353065115805,160,9,1,2,-3,0,0.085,6.28,6.166353065115805,-0.06484453061362813,0.17922939540424773,-6.601106243645134e-05,-0.0008222494680258649,-0.002386014302097569,9.803561019352012
0.41600000000000004,0,4,1,0.5729386976839008,14.320604748233933,0.0,6.251353065115805,160,9,1,2,-1,0,0.095,6.28,6.156353065115805,-0.06882685586298151,0.17916978148554075,-6.566148848320685e-05,-0.0058302365308872395,-0.002036928648959674,9.878241486826312
0.448,0,4,1,0.0,14.320604748233933,-0.5729386976839008,6.280572938697684,160,9,1,2,1,0,0.10500000000000001,6.28,6.175572938697684,-0.07280608524449625,0.17911600758919657,-6.537632065354432e-05,-0.0030843708308381013,-0.0030665056086620996,9.752586023364232
0.48,0,4,1,0.5729386976839008,14.893543445917834,0.5729386976839008,6.250780126418121,160,9,1,1,2,-1,0.05550000000000001,6.28,6.195280126418121,-0.07679154730275346,0.1790682165437966,-6.514324952453313e-05,0.009699110991959704,-0.004162582343275745,9.735754571755532
0.512,0,4,1,0.5729386976839008,15.466482143601734,0.0,6.251353065115805,160,9,1,1,3,0,0.065,6.28,6.186353065115805,-0.08078337052308941,0.1790252924779656,-6.494667891884624e-05,0.014723451577250421,-0.003928456341099572,9.74463331821147
0.544,0,4,1,0.5729386976839008,16.039420841285636,0.0,6.251353065115805,160,9,1,1,4,0,0.07,6.28,6.181353065115805,-0.08477238382320323,0.17898622704718403,-6.47821021674249e-05,0.009428657786434513,-0.0036639174838738087,9.852041544257203
0.5760000000000001,0,4,1,0.0,16.039420841285636,-0.5729386976839008,6.280572938697684,160,9,1,1,5,0,0.07500000000000001,6.28,6.205572938697684,-0.08875984170505198,0.1789513328724513,-6.464533118335884e-05,0.01325915897443491,-0.004657813308174452,9.814001107050034
0.608,0,4,1,0.0,16.039420841285636,0.0,6.28,160,9,1,1,6,0,0.08,6.28,6.2,-0.09275508265119727,0.17892069962794013,-6.451955035384309e-05,0.021700524220966386,-0.005434634773934929,9.845495602933664
0.64,0,4,1,0.0,16.039420841285636,0.0,6.28,160,9,1,1,7,0,0.085,6.28,6.195,-0.09674856854684355,0.17889318948271246,-6.443470950796663e-05,0.010479197045128225,-0.004768643590219349,9.802226051514483
0.672,0,4,1,0.5729386976839008,16.61235953896954,0.5729386976839008,6.250780126418121,160,9,1,0,7,-1,0.030500000000000003,6.28,6.220280126418121,-0.10074048138800291,0.17886906119063126,-6.436581130403289e-05,0.007693096420181327,-0.00534017822263332,9.789057707764252
0.704,0,4,1,0.0,16.61235953896954,-0.5729386976839008,6.280572938697684,160,9,1,0,7,0,0.035,6.28,6.245572938697684,-0.10474050424117025,0.1788485131793158,-6.430129749659085e-05,0.015325005797067703,-0.005925742720903358,9.826775436029902
0.736,0,4,1,0.0,16.61235953896954,0.0,6.28,160,9,1,0,7,0,0.035,6.28,6.245,-0.10874863228241179,0.17883034200101475,-6.424130873235699e-05,0.014426715538796295,-0.004909367393703481,9.79338442314134
0.768,0,4,1,0.0,16.61235953896954,0.0,6.28,160,9,1,0,7,0,0.035,6.28,6.245,-0.1127565858535904,0.17881338058744337,-6.419108698489141e-05,0.005232709281883836,-0.0038079179586053753,9.824283559442478
0.8,0,4,1,0.0,16.61235953896954,0.0,6.28,160,9,1,0,7,0,0.035,6.28,6.245,-0.11676454782433514,0.17879770047888288,-6.41488744583859e-05,0.0039082149679972155,-0.0038341072647454697,9.871979122029808
0.8320000000000001,0,4,1,0.0,16.61235953896954,0.0,6.28,160,9,1,0,7,0,0.035,6.28,6.245,-0.12077251775835537,0.17878335676538046,-6.411331851151163e-05,0.0021907565116164353,-0.003812267331624569,9.84212342579321
0.864,0,4,1,0.0,16.61235953896954,0.0,6.28,160,9,1,0,7,0,0.035,6.28,6.245,-0.12478049501657872,0.17877040715607737,-6.40833162069681e-05,0.0003259134577053348,-0.0037201883216855026,9.818114387858515
0.896,0,4,1,0.0,16.61235953896954,0.0,6.28,160,9,1,0,7,0,0.035,6.28,6.245,-0.12878847880616393,0.17875890643432832,-6.405801186859517e-05,-0.001557463886737498,-0.003622223759828641,9.798244672909005
0.928,0,4,1,0.0,16.61235953896954,0.0,6.28,160,9,1,0,7,0,0.035,6.28,6.245,-0.13279646822853294,0.17874890296450308,-6.403678616077359e-05,-0.0033586263104949643,-0.00346958355484342,9.803390965111392
0.96,0,4,1,0.5729386976839008,17.18529823665344,0.5729386976839008,6.250780126418121,160,9,1,0,7,0,0.035,6.28,6.215780126418121,-0.1368044623265689,0.1787404368619627,-6.401922309975591e-05,-0.004920697258680975,-0.0033290122944497893,9.804804549698483
0.992,0,4,1,0.5729386976839008,17.758236934337344,0.0,6.251353065115805,160,9,1,-1,6,-1,-0.024500000000000004,6.226853065115805,6.275853065115805,-0.14080311118851083,0.17873355136681685,-6.400366835345936e-05,-0.017086873582738263,-0.00317343844617843,9.814859926908866
1.024,0,4,1,1.7183580016555007,19.476594935992843,1.1454193039715999,6.192936680613254,160,9,1,0,6,1,0.034499999999999996,6.227436680613255,6.158436680613254,-0.14480397548782362,0.17872971255620804,-6.398678759222606e-05,-0.008129544599246344,-0.004474254353457725,9.866027434130011
1.056,0,4,1,2.862405226111651,22.339000162104494,1.1440472244561504,6.135735691469962,160,9,1,-1,5,-1,-0.029500000000000002,6.106235691469962,6.165235691469961,-0.14876745602053562,0.17872333305867638,-6.395560606112065e-05,-0.05578263780381333,0.001167100200308053,9.765137796448748
1.088,0,4,1,5.142764557884225,27.481764719988718,2.2803593317725737,6.020581412774017,160,9,1,0,5,1,0.029500000000000002,6.050081412774016,5.991081412774017,-0.15269432942292507,0.17872028572470755,-6.388554748727043e-05,-0.053782764363412866,-0.004404776674312257,9.856172962224868
1.12,0,4,1,6.277298489597548,33.759063209586266,1.1345339317133236,5.9650005415884095,160,9,1,-1,4,-1,-0.0345,5.930500541588409,5.99950054158841,-0.15654750434782658,0.17871431825348547,-6.38445915101659e-05,-0.08950994317127028,0.0018660859069051748,9.833252180861923
1.1520000000000001,0,4,1,7.969610394321354,41.72867360390762,1.6923119047238053,5.879827168379209,160,9,1,0,4,1,0.0245,5.904327168379209,5.855327168379209,-0.16036510720792108,0.17871115383540934,-6.38403353689556e-05,-0.05146962210506578,-0.0035932020669435442,9.84608571777291
1.184,0,4,1,9.648045316098152,51.37671892000577,1.6784349217767982,5.795919299273316,160,9,1,0,4,0,0.02,5.8159192992733155,5.775919299273316,-0.1641281957313719,0.17870469751218357,-6.38241948761626e-05,-0.06944236883239449,0.0025011690030600224,9.841605372186967
1.216,0,4,1,10.757967088390043,62.13468600839582,1.1099217722918908,5.740991723808206,160,9,1,-1,3,-1,-0.0395,5.701491723808206,5.780491723808207,-0.16783758660402823,0.17870053738797756,-6.381136403420598e-05,-0.06853522197525237,-0.0028599357600650375,9.814218430813613
1.248,0,4,1,12.407418527400745,74.54210453579657,1.6494514390107025,5.657979622190952,160,9,1,0,3,1,0.0195,5.677479622190952,5.638479622190952,-0.17151182067656323,0.17869825407861517,-6.381528309230139e-05,-0.05003496414280275,-0.0023149925772163646,9.802019372179968
1.28,0,4,1,12.407418527400745,86.94952306319732,0.0,5.659629073629963,160,9,1,-3,0,-3,-0.16350000000000003,5.496129073629963,5.823129073629963,-0.17513292591938454,0.1786923864023018,-6.380483115346093e-05,-0.0673032921434214,0.003118130710560323,9.79356705317865
1.312,0,4,1,11.859779120947966,98.80930218414528,-0.5476394064527792,5.687558683359055,160,9,1,-5,-5,-2,-0.28400000000000003,5.403558683359055,5.971558683359055,-0.17875508778681673,0.1786883783176493,-6.383853919286579e-05,-0.013022151197764318,-0.002200109423093676,9.80936271342248
1.344,0,4,1,10.757967088390043,109.56726927253533,-1.1018120325579233,5.743203457613056,160,9,1,-7,-12,-2,-0.41900000000000004,5.324203457613056,6.162203457613057,-0.18239525271507528,0.17866969139101752,-6.389174449051606e-05,0.009500003845002877,0.013853058428143316,9.770083582964862
1.3760000000000001,0,4,1,9.648045316098152,119.21531458863348,-1.1099217722918908,5.798707655967385,160,9,1,-7,-19,0,-0.44500000000000006,5.353707655967384,6.243707655967385,-0.18607125946716066,0.17862503390398174,-6.401196481310191e-05,0.04074244927756538,0.02459262658839108,9.756435526120196
1.408,0,4,1,9.648045316098152,128.86335990473162,0.0,5.797597734195093,160,9,1,-6,-25,1,-0.42050000000000004,5.377097734195093,6.2180977341950925,-0.1897827200540721,0.17854149456071314,-6.423423474757883e-05,0.0611029009316289,0.03749148698521073,9.811452904738207
1.44,0,4,1,8.530765609948096,137.39412551467973,-1.1172797061500557,5.854578999208746,160,9,1,-5,-30,1,-0.3955,5.459078999208746,6.250078999208746,-0.193492639378465,0.17841750685100483,-6.464801014187914e-05,0.022298158502091145,0.04093702585263576,9.842377503662567
1.472,0,4,1,8.530765609948096,145.92489112462783,0.0,5.8534617195025955,160,9,1,-4,-34,1,-0.3655,5.487961719502596,6.2189617195025955,-0.19723752912525983,0.17825458112985795,-6.533179653542102e-05,0.05498421157414711,0.03898999588476033,9.808197528909206
1.504,0,4,1,7.969610394321354,153.8945015189492,-0.5611552156267425,5.882080635499559,160,9,1,-3,-37,1,-0.3305,5.551580635499559,6.212580635499559,-0.20097975908337695,0.17805667806096168,-6.614562014878485e-05,0.013317842935614888,0.03869371009463943,9.810057124202435
1.536,0,4,1,6.842773412630916,160.73727493158012,-1.1268369816904373,5.9389881663501445,160,9,1,-3,-40,0,-0.35000000000000003,5.588988166350145,6.28,-0.2047380689104475,0.17782597618864718,-6.694494449292765e-05,0.028983499520538247,0.03742710230127905,9.808318799587697
1.568,0,4,1,6.842773412630916,167.58004834421104,0.0,5.937861329368454,160,9,1,-2,-42,1,-0.3055,5.632361329368454,6.2433613293684544,-0.20852775330302664,0.17756476629920306,-6.769985883559211e-05,0.04149044570125989,0.035853659505385715,9.816651568071926
1.6,0,4,1,6.277298489597548,173.85734683380858,-0.565474923033368,5.966700550443156,160,9,1,-1,-43,1,-0.2605,5.706200550443156,6.227200550443157,-0.2123170771349169,0.17727381703643466,-6.832442854010426e-05,0.007563397414884967,0.038882923756275896,9.799714470272932
1.6320000000000001,0,4,1,6.277298489597548,180.13464532340612,0.0,5.966135075520123,160,9,1,0,-43,1,-0.2105,5.755635075520123,6.176635075520123,-0.21612238771452413,0.17695588710966792,-6.873676222024679e-05,0.021678748812544286,0.03659617074521413,9.778723871092476
1.6640000000000001,0,4,1,5.710593137499568,185.84523846090568,-0.5667053520979799,5.995037048477119,160,9,1,0,-43,0,-0.215,5.780037048477119,6.210037048477119,-0.2199251800847438,0.17661671870284318,-6.891618424674333e-05,0.0007335295007560575,0.03397355634962076,9.82856624363059
1.696,0,4,1,5.710593137499568,191.55583159840523,0.0,5.9944703431250215,160,9,1,0,-43,0,-0.215,5.779470343125022,6.209470343125021,-0.22374476843038368,0.17625920879514517,-6.894555367361992e-05,0.01988317967493806,0.030510648277387715,9.807155534613244
1.728,0,4,1,5.142764557884225,196.69859615628945,-0.5678285796153437,6.023429600685404,160,9,1,0,-43,0,-0.215,5.808429600685404,6.238429600685404,-0.22756232447901992,0.17588449459762567,-6.883121426488371e-05,0.0008914111288378852,0.031785779531392826,9.857532106381319
1.76,0,4,1,5.142764557884225,201.84136071417367,0.0,6.022861772105789,160,9,1,1,-42,1,-0.15549999999999997,5.867361772105789,6.178361772105789,-0.231396616965753,0.17549053725317235,-6.859858781550765e-05,0.018998858267933752,0.03201630307756736,9.834556835320377
1.792,0,4,1,5.710593137499568,207.55195385167323,0.5678285796153437,5.993902514545407,160,9,1,1,-41,0,-0.15500000000000003,5.838902514545406,6.148902514545407,-0.23522868909940273,0.17507904964924773,-6.822192856952534e-05,-0.00015628094823854198,0.03243211767321811,9.791919258128555
1.824,0,4,1,7.406912128495223,214.95886598016847,1.6963189909956542,5.9079580745842435,160,9,1,1,-40,0,-0.15000000000000002,5.757958074584243,6.057958074584244,-0.23904108074527994,0.17465737872918474,-6.780525242280552e-05,-0.022389454324000014,0.02700808017315848,9.817265402132744
1.856,0,4,1,10.203973721731703,225.16283970190017,2.7970615932364806,5.767004252320179,160,9,1,1,-39,0,-0.14500000000000002,5.622004252320179,5.912004252320179,-0.24279753210043178,0.17422961286827465,-6.730475894673772e-05,-0.057895989179661905,0.026804788599192726,9.803682734327092
1.8880000000000001,0,4,1,12.95276451337554,238.1156042152757,2.7487907916438363,5.629612983539579,160,9,1,1,-38,0,-0.14,5.48961298353958,5.769612983539579,-0.24646310872446425,0.17380042468564288,-6.681030751581711e-05,-0.09240271175657458,0.02582648591194462,9.777769527013522
1.92,0,4,1,16.17215901578257,254.28776323105828,3.219394502407029,5.468172654708464,160,9,1,2,-36,1,-0.07549999999999998,5.3926726547084645,5.543672654708464,-0.25004012662725017,0.17337038444259795,-6.635167875935176e-05,-0.0910325315641752,0.024276817028862287,9.815008138645041
1.952,0,4,1,18.262889942194125,272.5506531732524,2.090730926411556,5.364764771963882,160,9,1,1,-35,-1,-0.1295,5.235264771963882,5.494264771963882,-0.25351331097455304,0.17294220845252295,-6.587718845117545e-05,-0.10634656717754978,0.02284776630118851,9.806956822152591
1.984,0,4,1,20.80679101271124,293.35744418596363,2.5439010705171157,5.237116548293921,160,9,1,1,-34,0,-0.12000000000000001,5.117116548293921,5.357116548293921,-0.25692027487595404,0.17251688099967072,-6.553748773939494e-05,-0.0710011306533401,0.01656317507142859,9.818038961081335
2.016,0,4,1,23.26770481005697,316.6251489960206,2.4609137973457287,5.114153845699806,160,9,1,2,-32,1,-0.0555,5.058653845699806,5.1696538456998065,-0.26024503488485445,0.17209245614371155,-6.522619344324215e-05,-0.0870398595837139,0.01962713841279163,9.813493039676523
2.048,0,4,1,25.641005824305285,342.2661548203259,2.373301014248316,4.995576407770487,160,9,1,2,-30,0,-0.04999999999999999,4.945576407770488,5.045576407770487,-0.2634906217242271,0.1716694244420202,-6.493151552537484e-05,-0.08419023116874827,0.017819796917964686,9.743629400252363
2.08,0,4,1,27.474431626277134,369.740586446603,1.833425801971849,4.904444992884172,160,9,1,1,-29,-1,-0.09949999999999999,4.804944992884172,5.003944992884172,-0.2666605187759236,0.17125269225060186,-6.468931846067942e-05,-0.0819129015934805,0.011913713271266765,9.803420191574874
2.112,0,4,1,27.474431626277134,397.2150180728801,0.0,4.906278418686144,160,9,1,-3,-32,-4,-0.32800000000000007,4.578278418686144,5.234278418686144,-0.2697722233830183,0.17084063122296742,-6.452724584830698e-05,-0.06617813940430815,0.010465675653194647,9.786176401978858
2.144,0,4,1,25.641005824305285,422.8560238971854,-1.833425801971849,4.999783134586708,160,9,1,-9,-41,-6,-0.682,4.3177831345867075,5.681783134586708,-0.2728843031401552,0.17042161102724002,-6.452905610439957e-05,-0.0073703727933527065,0.013340690894755869,9.759872371083773
2.176,0,4,1,24.22774531795417,447.08376921513957,-1.413260506351115,5.070025994608643,160,9,1,-10,-51,-1,-0.7595,4.310525994608643,5.829525994608643,-0.27605292638004963,0.16996958402164533,-6.46989998212763e-05,0.06369854445359024,0.029424297467988733,9.789597612137582
2.208,0,4,1,22.782405730481685,469.86617494562125,-1.4453395874724855,5.142325053063388,160,9,1,-11,-62,-1,-0.8645,4.277825053063388,6.0068250530633875,-0.2792594348639167,0.16945722214007286,-6.50336965036212e-05,0.07229625418399188,0.057407775865482194,9.81047799752789
2.24,0,4,1,21.305783617828766,491.17195856345,-1.4766221126529189,5.216187441221215,160,9,1,-10,-72,1,-0.8555,4.360687441221215,6.071687441221215,-0.28250167431511736,0.168877039987773,-6.580674374310688e-05,0.06944115559222001,0.06393688866970447,9.807449822901058
2.2720000000000002,0,4,1,20.304473709960448,511.47643227341047,-1.0013099078683183,5.265777624409846,160,9,1,-8,-80,2,-0.791,4.474777624409846,6.056777624409847,-0.28577806033287534,0.16821994990789635,-6.73317579418433e-05,0.06690032911271197,0.07295107409464469,9.791147316711434
2.3040000000000003,0,4,1,19.79887635452493,531.2753086279354,-0.5055973554355191,5.290561779629189,160,9,1,-6,-86,2,-0.721,4.569561779629189,6.011561779629189,-0.2890715718231278,0.16748915080102256,-6.942408389313225e-05,0.04702828897813709,0.07424300947955292,9.782537849297242
2.336,0,4,1,17.744671625056924,549.0199802529924,-2.0542047294680046,5.3948206234766225,160,9,1,-6,-92,0,-0.76,4.634820623476623,6.154820623476622,-0.2923663579899818,0.1666935212624493,-7.185158642262698e-05,0.026636036912911016,0.07143044970898257,9.781808265947335
2.368,0,4,1,17.22343619113144,566.2434164441238,-0.521235433925483,5.419349425877353,160,9,1,-4,-96,2,-0.6709999999999999,4.748349425877353,6.090349425877354,-0.29571202525753354,0.16582664160330352,-7.45278791140537e-05,0.07187607082026806,0.06667352684671156,9.78112321709172
2.4,0,4,1,16.699244233993618,582.9426606781174,-0.5241919571378233,5.445561980257457,160,9,1,-2,-98,2,-0.581,4.864561980257458,6.026561980257457,-0.29905650804225253,0.16489766750901844,-7.705604879344394e-05,0.017252902848752714,0.0733194153055018,9.819024419003352
2.432,0,4,1,15.642246457208763,598.5849071353261,-1.0569977767848542,5.498944674916347,160,9,1,-1,-99,1,-0.5405000000000001,4.958444674916347,6.039444674916346,-0.3023697483259538,0.16392344120438124,-7.667099869482566e-05,-0.015022786625479645,0.06796963351000979,9.791590403842683
2.464,0,4,1,14.036243467926484,612.6211506032527,-1.6060029892822794,5.579793829592958,160,9,1,0,-99,1,-0.4905,5.089293829592958,6.070293829592958,-0.3057043528587692,0.16289215850114921,-7.611677414517265e-05,0.03782143265472946,0.06553217992630607,9.856344461207991
2.496,0,4,1,12.407418527400745,625.0285691306534,-1.628824940525739,5.661257898570489,160,9,1,1,-98,1,-0.4355,5.225757898570489,6.096757898570489,-0.3090779283597489,0.16180152256159056,-7.536304251722949e-05,0.05580610127470947,0.06328974181026273,9.827575105108648
2.528,0,4,1,9.090276920822312,634.1188460514758,-3.317141606578433,5.8288032955654625,160,9,1,1,-97,0,-0.435,5.393803295565463,6.263803295565462,-0.3124916599783847,0.1606548869111569,-7.441246582391356e-05,0.055681389418817874,0.06097984825455856,9.802088594650776
2.56,0,4,1,5.142764557884225,639.26161060936,-3.9475123629380873,6.026809284468727,160,9,1,1,-96,0,-0.43,5.596809284468727,6.28,-0.31599506486078377,0.15943940175886698,-7.33804875958869e-05,0.10650169070097668,0.05719878482450635,9.851463636903558
2.592,0,4,1,2.2906100426385936,641.5522206519986,-2.852154515245631,6.168321652383316,160,9,1,1,-95,0,-0.42500000000000004,5.743321652383316,6.28,-0.31955784001514814,0.15816352489914148,-7.214048552672651e-05,0.07550460764682132,0.059510963815965205,9.818277910527591
2.624,0,4,1,1.1457628381751443,642.6979834901738,-1.1448472044634492,6.223856705295706,160,9,1,0,-95,-1,-0.47950000000000004,5.744356705295706,6.28,-0.3231673782583138,0.15684022906162665,-7.080816658073044e-05,0.05961403572560855,0.0519648572951763,9.797996370910152
2.656,0,4,1,4.573921259900898,647.2719047500747,3.4281584217257532,6.047875778583229,160,9,1,-1,-96,-1,-0.5345,5.51337577858323,6.28,-0.3267702651219778,0.1554973791541771,-6.962358840354073e-05,0.0011348092053768484,0.04497617387571488,9.819394414475099
2.688,0,4,1,7.969610394321354,655.241515144396,3.395689134420456,5.878123791149512,160,9,1,-1,-97,0,-0.535,5.3431237911495115,6.28,-0.3302972273165764,0.15416058032471755,-6.886926162068957e-05,-0.07073483357494934,0.045700435323318196,9.832874957581321
2.72,0,4,1,10.757967088390043,665.999482232786,2.788356694068689,5.7393132888864296,160,9,1,1,-96,2,-0.421,5.318313288886429,6.16031328888643,-0.33376276331529575,0.1528135378657506,-6.84421696799855e-05,-0.05183233098532614,0.055079852152237985,9.793651761422904
2.7520000000000002,0,4,1,14.036243467926484,680.0357257007125,3.2782763795364414,5.57490955022414,160,9,1,2,-94,1,-0.3655,5.20940955022414,5.94040955022414,-0.3371714745486187,0.15144694495323657,-6.81049171171906e-05,-0.04412361948364812,0.061440675656945234,9.7885580380099
2.7840000000000003,0,4,1,14.036243467926484,694.071969168639,0.0,5.578187826603676,160,9,1,9,-85,7,0.05650000000000002,5.634687826603676,5.521687826603676,-0.34047002454223885,0.15008798966212736,-6.787003306581163e-05,-0.1021854307320017,0.0568868384329385,9.839528285914398
2.816,0,4,1,12.407418527400745,706.4793876960398,-1.628824940525739,5.661257898570489,160,9,1,14,-71,5,0.3675000000000001,6.028757898570489,5.293757898570489,-0.34375624146070954,0.1487008060251032,-6.723160987685654e-05,-0.00045080583128824335,0.05154231760531532,9.770181927561788
2.848,0,4,1,11.859779120947966,718.3391668169878,-0.5476394064527792,5.687558683359055,160,9,1,15,-56,1,0.4745,6.162058683359055,5.213058683359055,-0.3470929361413617,0.14730122557082745,-6.619082191474876e-05,0.05066215345966863,0.012923041035563632,9.804528241226214
2.88,0,4,1,10.757967088390043,729.0971339053779,-1.1018120325579233,5.743203457613056,160,9,1,15,-41,0,0.5449999999999999,6.28,5.198203457613056,-0.350460779661991,0.14592841862910652,-6.527786275659954e-05,0.01982730790909292,-0.016430479550911765,9.791646093280228
2.912,0,4,1,10.757967088390043,739.8551009937679,0.0,5.742101645580498,160,9,1,14,-27,-1,0.5605000000000001,6.28,5.181601645580498,-0.35387830474455034,0.14458527856743167,-6.477033279656506e-05,0.037455797489141185,-0.02726859414795304,9.805322101632358
2.944,0,4,1,12.288323163275352,752.1434241570432,1.5303560748853098,5.664053485761348,160,9,1,13,-14,-1,0.5755000000000001,6.2395534857613475,5.088553485761348,-0.35731106376958427,0.14329135508667876,-6.491592161111254e-05,7.59084753241304e-07,-0.03575990095073886,9.827240830223047
2.976,0,4,1,16.020292302071216,768.1637164591144,3.731969138795863,5.475253415757644,160,9,1,11,-3,-2,0.526,6.001253415757644,4.949253415757644,-0.3607246453144744,0.14205937232007854,-6.56654894669699e-05,-0.04366322920345193,-0.03952123861346253,9.836475569518122
3.008,0,4,1,21.80140948635181,789.9651259454662,5.781117184280596,5.184148408498129,160,9,1,9,6,-2,0.471,5.655148408498129,4.713148408498129,-0.3640406560296053,0.1409155677522926,-6.672756332472794e-05,-0.1261398700400463,-0.043781949442277736,9.812808164069386
3.04,0,4,1,28.810793742973065,818.7759196884392,7.009384256621253,4.832450928594726,160,9,1,6,12,-3,0.34650000000000003,5.178950928594726,4.485950928594726,-0.3671935333561455,0.13987306638258337,-6.791675792930038e-05,-0.19259185234646847,-0.041583270369833586,9.791128170054236
3.072,0,4,1,34.21570213243741,852.9916218208766,5.404908389464342,4.563809984988665,160,9,1,5,17,-1,0.3305,4.894309984988665,4.233309984988665,-0.3701428899469122,0.13893467856004785,-6.884801491442195e-05,-0.23136142094515888,-0.037365064367839,9.860079326524561
3.104,0,4,1,38.65980825409008,891.6514300749667,4.444106121652673,4.3425654811738434,160,9,1,4,21,-1,0.3005,4.643065481173844,4.042065481173843,-0.372934927133639,0.1380704863751922,-6.956958233937313e-05,-0.1791736931074778,-0.027058438701118518,9.744958582414847
3.136,0,4,1,42.614055969611194,934.2654860445779,3.954247715521113,4.145342953803919,160,9,1,3,24,-1,0.2655,4.410842953803919,3.879842953803919,-0.3755975553926833,0.13726766995737963,-7.002683473370311e-05,-0.14743087847825603,-0.026243486570029687,9.763122389911382
3.168,0,4,1,46.12330271407542,980.3887887586533,3.509246744464228,3.9703256175517647,160,9,1,2,26,-1,0.2255,4.1958256175517645,3.744825617551765,-0.37814428887830515,0.13651783782721516,-7.017959449312147e-05,-0.13101713956435643,-0.024463591381801392,9.78939080264631
3.2,0,4,1,49.236394799058836,1029.625183557712,3.113092084983414,3.815067167962075,160,9,1,1,27,-1,0.1805,3.995567167962075,3.634567167962075,-0.3805876360182199,0.13581334217963825,-7.006277538676962e-05,-0.11537948025576278,-0.022603198752741496,9.80469538793714
3.232,0,4,1,51.34019174590991,1080.9653753036218,2.1037969468510767,3.710886615757653,160,9,1,1,28,0,0.19,3.900886615757653,3.5208866157576533,-0.38293869402853364,0.1351472857100245,-6.972801170093343e-05,-0.10334661184739267,-0.01993048260938061,9.832865973343388
3.2640000000000002,0,4,1,53.33744443884673,1134.3028197424685,1.9972526929368186,3.611130525364727,160,9,1,0,28,-1,0.1355,3.746630525364727,3.475630525364727,-0.38522777808351233,0.13450750954845506,-6.933653332978108e-05,-0.0711195352948721,-0.01720246095213882,9.783437500086606
3.2960000000000003,0,4,1,54.8966719676691,1189.1994917101376,1.559227528822369,3.533607174087723,160,9,1,0,28,0,0.14,3.673607174087723,3.3936071740877227,-0.38745783913524195,0.13389356547118456,-6.881545451813305e-05,-0.06796631560181349,-0.017632935425894777,9.815611749758917
3.3280000000000003,0,4,1,55.738897100905454,1244.938388811043,0.8422251332363544,3.492212919821491,160,9,1,4,32,4,0.378,3.870212919821491,3.1142129198214907,-0.38964145648763365,0.1332984633281823,-6.829574323195461e-05,-0.05536995489500603,-0.014250588769618763,9.814643847802223
3.36,0,4,1,54.74859424168536,1299.6869830527285,-0.990302859220094,3.5435605907749523,160,9,1,11,43,7,0.7965,4.340060590774952,2.7470605907749523,-0.3918005103758519,0.1327162138707399,-6.803096956810653e-05,-0.03307202283196376,-0.01404019355775747,9.787434085832402
3.392,0,4,1,54.080072864026725,1353.7670559167552,-0.6685213776586352,3.5766648781763224,160,9,1,18,61,7,1.2365000000000002,4.813164878176322,2.3401648781763225,-0.3939953909786926,0.13214420814709948,-6.813094930766678e-05,0.031123212699176835,-0.025616290515612268,9.772108508498997
3.424,0,4,1,52.8257451664089,1406.5928010831642,-1.2543276976178248,3.639967069377173,160,9,1,23,84,5,1.5925,5.232467069377173,2.0474670693771726,-0.39622401762508586,0.13160890217610063,-6.859464503923204e-05,0.03551043473325819,-0.04909483782337993,9.750837783885762
3.456,0,4,1,75,1481.5928010831642,22.1742548335911,2.507825745166409,160,9,1,23,107,0,1.685,4.1928257451664095,0.8228257451664089,-0.39851163922366456,0.13113098848587154,-6.961755066453405e-05,0.056484711430623634,-0.07139041996185781,9.827278893646518
3.488,0,4,1,52.98011374516853,1534.5729148283328,-22.01988625483147,3.653014198996405,160,9,1,10,117,-13,1.0265,4.679514198996404,2.626514198996405,-0.40010568543596325,0.13086224306516286,-7.004042327594939e-05,-0.831189313234541,-0.11646992137473058,9.826098192898819
3.52,0,4,1,75,1609.5729148283328,22.01988625483147,2.5079801137451687,160,9,1,17,134,7,1.5515,4.059480113745169,0.9564801137451686,-0.4024325759262972,0.1305552757427282,-7.331302778265832e-05,0.651512946909988,-0.05821368016184054,9.795445590660515
3.552,0,4,1,75,1684.5729148283328,0,2.5300000000000002,160,9,1,11,145,-6,1.248,3.7780000000000005,1.2820000000000003,-0.40403870816294496,0.13038795771585293,-7.548165488001878e-05,-0.7627993608875001,-0.08878514030782554,9.797815260612744
3.584,0,4,1,75,1759.5729148283328,0,2.5300000000000002,160,9,1,7,152,-4,1.092,3.6220000000000003,1.4380000000000002,-0.40566176283503536,0.13027889040780086,-7.766174501609192e-05,-0.021763139598835492,-0.06655270454490993,9.80385425468237
3.616,0,4,1,75,1834.5729148283328,0,2.5300000000000002,160,9,1,5,157,-2,1.0260000000000002,3.5560000000000005,1.504,-0.4072850430685244,0.13021657146197724,-7.949867309546901e-05,-0.02571196322034993,-0.054594156711772965,9.834788415664331
3.648,0,4,1,75,1909.5729148283328,0,2.5300000000000002,160,9,1,2,159,-3,0.8815000000000001,3.4115,1.6485000000000003,-0.40890768898227253,0.1301938998778144,-8.103539825581041e-05,-0.017763986467862553,-0.04781811474593266,9.833004208226638
3.68,0,4,1,75,1984.5729148283328,0,2.5300000000000002,160,9,1,1,160,-1,0.8455000000000001,3.3755000000000006,1.6845,-0.4105285244170994,0.13020754327304265,-8.207371199643251e-05,-0.014223464198902797,-0.0448194118337881,9.79219224976206
3.712,0,4,1,75,2059.5729148283326,0,2.5300000000000002,160,9,1,0,160,-1,0.7955000000000001,3.3255000000000003,1.7345000000000002,-0.4121476924392554,0.13025220835830129,-8.276285412057993e-05,-0.01050139615549043,-0.03978751826069565,9.817047005617109
3.744,0,4,1,75,2134.5729148283326,0,2.5300000000000002,160,9,1,-1,159,-1,0.7405,3.2705,1.7895000000000003,-0.4137649127292449,0.1303254754981922,-8.308762892335862e-05,-0.008007115909288005,-0.03760403124611338,9.837872244206283
3.7760000000000002,0,4,1,75,2209.5729148283326,0,2.5300000000000002,160,9,1,-2,157,-1,0.6805000000000001,3.2105000000000006,1.8495000000000001,-0.4153799752930813,0.13042623729861091,-8.306529329661465e-05,-0.006211129937333378,-0.036439350265291263,9.823480808478735
3.8080000000000003,0,4,1,75,2284.5729148283326,0,2.5300000000000002,160,9,1,-2,155,0,0.675,3.205,1.8550000000000002,-0.4169927263884189,0.13055249726516674,-8.272909399062445e-05,-0.004933270253821863,-0.03420930659743127,9.793613788110177
3.84,0,4,1,75,2359.5729148283326,0,2.5300000000000002,160,9,1,-3,152,-1,0.6055,3.1355000000000004,1.9245,-0.41860334162379387,0.13070219958705978,-8.220949351886789e-05,-0.003858869085719387,-0.03220339005255393,9.808918708002693
3.872,0,4,1,75,2434.5729148283326,0,2.5300000000000002,160,9,1,-3,149,0,0.595,3.125,1.9350000000000003,-0.42021136408526805,0.13087523303024398,-8.145578966022027e-05,-0.0036910148721395427,-0.03176586062869036,9.815652535442512
3.904,0,4,1,75,2509.5729148283326,0,2.5300000000000002,160,9,1,-3,146,0,0.58,3.1100000000000003,1.9500000000000002,-0.42181703714541674,0.1310691475025314,-8.060070796381269e-05,-0.003339288955221507,-0.029056138767730756,9.805763987288627
3.936,0,4,1,75,2584.5729148283326,0,2.5300000000000002,160,9,1,0,146,3,0.7434999999999999,3.2735000000000003,1.7865000000000002,-0.42342017985795316,0.1312837222121695,-7.967351368701019e-05,-0.0033733811611438478,-0.028505269284449162,9.791682494372012
3.968,0,4,1,75,2659.5729148283326,0,2.5300000000000002,160,9,1,6,152,6,1.087,3.617,1.4430000000000003,-0.42502122103259443,0.13151883234993839,-7.891973792887794e-05,-0.002734812269098633,-0.027999017623684473,9.765476324898959
4.0,0,4,1,75,2734.5729148283326,0,2.5300000000000002,160,9,1,10,162,4,1.328,3.8580000000000005,1.2020000000000002,-0.4266196851078965,0.1317813896283983,-7.854830660304624e-05,-0.0014735345385772536,-0.03441540335147786,9.778415881606707
4.032,0,4,1,75,2809.5729148283326,0,2.5300000000000002,160,9,1,13,175,3,1.5385,4.0685,0.9915000000000003,-0.42821304976868724,0.13208493284147577,-7.848661602064856e-05,-0.00018595549321480525,-0.047416373959467746,9.81530358553277
4.064,0,4,1,75,2884.5729148283326,0,2.5300000000000002,160,9,1,15,190,2,1.709,4.239000000000001,0.8210000000000002,-0.4297986435468402,0.1324388013213673,-7.882885612941343e-05,0.0012229442535729791,-0.05704651022493374,9.809512272049515
4.096,0,4,1,75,2959.5729148283326,0,2.5300000000000002,160,9,1,17,207,2,1.894,4.424,0.6360000000000003,-0.4313729901781713,0.1328506921485552,-7.969327797484327e-05,0.0026129987164377265,-0.06522785268216412,9.807268514055457
4.128,0,4,1,75,3034.5729148283326,0,2.5300000000000002,160,9,1,17,224,0,1.9700000000000002,4.5,0.56,-0.43293385234985515,0.13332641093265582,-8.126373296050635e-05,0.005921046933449103,-0.07074106119329408,9.786890051979602
4.16,0,4,1,75,3109.5729148283326,0,2.5300000000000002,160,9,1,14,238,-3,1.8765,4.4065,0.6535000000000002,-0.43447509732895206,0.13387200141738087,-8.353787360606407e-05,0.006899599003929291,-0.07931001210818245,9.823737462823045
4.192,0,4,1,57.88818512576571,3167.4610999540982,-17.11181487423429,3.4027025585859487,160,9,1,11,249,-3,1.7815,5.184202558585949,1.6212025585859486,-0.43598466514783274,0.1344881735199844,-8.492619677802522e-05,-0.0005938071716068027,-0.08487694630617554,9.814544672130651
4.224,0,4,1,56.59217541029108,3224.0532753643893,-1.2960097154746322,3.451687239200921,160,9,1,10,259,-1,1.7905,5.242187239200921,1.661187239200921,-0.4378806149598117,0.1353519376680136,-8.712076970933749e-05,0.4463675917600147,-0.06046525057375603,9.79262285659888
4.256,0,4,1,55.738897100905454,3279.7921724652947,-0.8532783093856224,3.493908423264113,160,9,1,8,267,-2,1.726,5.219908423264113,1.767908423264113,-0.4397055055066037,0.13628616075830208,-8.975883960641445e-05,-0.027512739721817135,-0.10484397287623974,9.816141672989243
4.288,0,4,1,54.628156128486694,3334.4203285937815,-1.1107409724187605,3.549702934548084,160,9,1,18,285,10,2.37,5.919702934548084,1.179702934548084,-0.4405973373547267,0.13681154265262452,-9.26253118853932e-05,-0.9905213679370487,-0.09686314832404809,9.838885605405563
4.32,0,4,1,53.86462338841079,3388.284951982192,-0.7635327400759024,3.5875323633195366,160,9,1,26,311,8,2.891,6.28,0.6965323633195366,-0.4410249282782926,0.13709466805071577,-9.640086243803761e-05,-0.5108261984995307,-0.018340457977691793,9.855438971814188
4.352,0,4,1,52.98011374516853,3441.2650657273607,-0.8845096432422608,3.6318788223848157,160,9,1,32,343,6,3.3420000000000005,6.28,0.2898788223848152,-0.44123331304993835,0.137244877380904,-9.985532006146283e-05,-0.25086450917325437,-0.00014060773915631182,9.79142497907709
4.384,0,4,1,52.8257451664089,3494.0908108937697,-0.15436857875963028,3.6388671102583148,160,9,1,34,377,2,3.594,6.28,0.04486711025831491,-0.4413327695455109,0.13732015696724745,-0.00010183912165405949,-0.12797967010049552,-0.0009517639593514881,9.810443707622044
4.416,0,4,1,53.054414446381756,3547.1452253401512,0.22866927997285558,3.6270506084009395,160,9,1,34,411,0,3.7550000000000003,6.28,-0.12794939159906082,-0.4413448820247062,0.1373407450874156,-0.00010220012217741596,-0.10112266634812944,-0.008730341895131397,9.85139709150974
4.448,0,4,1,54.13017648227869,3601.27540182243,1.0757620358969362,3.5724154138501687,160,9,1,13,424,-21,2.6755,6.247915413850169,0.8969154138501687,-0.44275030426236,0.1382430367226851,-0.00010114894977268293,1.6164104564151838,-0.040516195696736416,9.838216284000039
4.48,0,4,1,54.42278061353509,3655.698182435965,0.2926041312563967,3.5585683651919893,160,9,1,-2,422,-15,1.9425,5.501068365191989,1.6160683651919894,-0.4445716733808283,0.13936947498966176,-9.985086155856956e-05,0.45964467298344536,0.039792807842976265,9.712839096217316
4.5120000000000005,0,4,1,54.14708038487515,3709.84526282084,-0.27570022865993593,3.5729216809849023,160,9,1,-10,412,-8,1.524,5.096921680984902,2.0489216809849022,-0.4463436064918523,0.14064741806407263,-9.923255972416924e-05,0.0536332233438981,-0.16219234065085655,9.881145681783508
4.5440000000000005,0,4,1,53.26717333551064,3763.1124361563507,-0.8799070493645118,3.6175212402738324,160,9,1,-14,398,-4,1.272,4.889521240273832,2.3455212402738326,-0.44805839826690574,0.14203217932499773,-9.944689463780958e-05,0.02518708463778766,-0.1315296884819908,9.815687556565209
4.5760000000000005,0,4,1,53.061237267710176,3816.173673424061,-0.20593606780046514,3.6271440726822917,160,9,1,-6,392,8,1.696,5.323144072682291,1.9311440726822917,-0.44918366889484007,0.14303057233908145,-0.00010009785597749586,-0.6836544633251419,-0.09885207616076594,9.797925544377572
4.6080000000000005,0,4,1,52.92073990164108,3869.0944133257017,-0.14049736606909846,3.6341035022840154,160,9,1,5,397,11,2.2845000000000004,5.918603502284016,1.349603502284015,-0.4497302315651522,0.14358734532204293,-0.00010155667627005649,-0.7114910254641723,-0.03952162369868838,9.847815620415075
4.64,0,4,1,52.34429928950268,3921.438712615204,-0.5764406121383985,3.6633614761370046,160,9,1,14,411,9,2.7955000000000005,6.28,0.867861476137004,-0.450121504130289,0.14397318247323804,-0.00010340518778102423,-0.2217334810336985,0.018389310541888415,9.78390342653175
4.672,0,4,1,51.96541849005511,3973.4041311052592,-0.3788807994475718,3.6821079562966923,160,9,1,20,431,6,3.1820000000000004,6.28,0.5001079562966919,-0.45037555093352566,0.14422094947385825,-0.00010450474521623947,-0.18888962539183798,0.005376310603323088,9.775271431433023
4.704,0,4,1,51.96541849005511,4025.3695495953143,0.0,3.6817290754972447,160,9,1,21,452,1,3.3145000000000007,6.28,0.36722907549724404,-0.45061968725854445,0.14442886661155832,-0.0001040592460627432,-0.03199721691751434,0.00680421074090425,9.858614921642252
4.736,0,4,1,52.431407971172504,4077.800957566487,0.465989481117397,3.6579636119602577,160,9,1,-1,451,-22,2.106,5.763963611960257,1.5519636119602578,-0.4521570149256029,0.1456204197290386,-0.00010225364368496824,1.576532077159601,0.11838969188852619,9.837313375517724
4.768,0,4,1,51.34019174590991,4129.141149312397,-1.0912162252625919,3.714081628929767,160,9,1,-13,438,-12,1.486,5.200081628929767,2.2280816289297674,-0.4538084355756339,0.14712134051915296,-9.993787438181828e-05,0.29420171837132775,-0.15013437557328554,9.847128011821798
4.8,0,4,1,50.659481840162485,4179.80063115256,-0.6807099057474275,3.7477066178976233,160,9,1,-19,419,-6,1.118,4.865706617897623,2.6297066178976234,-0.45542683333227535,0.14876562497354584,-9.834603822824785e-05,0.0810578115684055,-0.13417611738394666,9.841015193962756
4.832,0,4,1,50.42809718611073,4230.22872833867,-0.23138465405175168,3.758826525348515,160,9,1,-22,397,-3,0.8715,4.630326525348515,2.8873265253485147,-0.4570078796461734,0.15049982651598334,-9.739851681827942e-05,0.04238748814003776,-0.10146370606395617,9.80094372777954
4.864,0,4,1,49.95845091948537,4280.187179258156,-0.4696462666253609,3.7825471002923567,160,9,1,-22,375,0,0.7749999999999999,4.557547100292357,3.007547100292357,-0.45855129676211753,0.15229020764092502,-9.66928278432963e-05,0.01883745185548237,-0.07847657652522402,9.795190808309712
4.896,0,4,1,49.72013693104356,4329.907316189199,-0.23831398844180995,3.794231467436264,160,9,1,-21,354,1,0.7244999999999999,4.518731467436264,3.069731467436264,-0.46006786252291026,0.1541257994859874,-9.603803024694005e-05,0.018159490152612288,-0.06328414642564636,9.807491352904574
4.928,0,4,1,49.72013693104356,4379.6274531202425,0.0,3.793993153447822,160,9,1,-21,333,0,0.615,4.408993153447822,3.1789931534478217,-0.4615554413937538,0.1559949965539816,-9.527683997237121e-05,0.00886699124692376,-0.05804419861602079,9.80222241904553
4.96,0,4,1,49.72013693104356,4429.347590051286,0.0,3.793993153447822,160,9,1,-19,314,2,0.629,4.4229931534478215,3.164993153447822,-0.46301393882537817,0.15789249764722368,-9.421578688971304e-05,0.005237832374318387,-0.055122627495318245,9.883902533241734
4.992,0,4,1,48.99091309842977,4478.3385031497155,-0.7292238326137905,3.8311835689111255,160,9,1,-15,299,4,0.7630000000000001,4.5941835689111254,3.0681835689111256,-0.46444419808349463,0.15980889410393745,-9.301499138594273e-05,-0.0011405597519181321,-0.04895935941638687,9.826522597391522
5.024,0,4,1,47.98428214359338,4526.322785293309,-1.006630954836389,3.881792523775167,160,9,1,-12,287,3,0.8484999999999999,4.730292523775167,3.033292523775167,-0.4658549483777504,0.1617587630209964,-9.18894788267035e-05,0.016061751614251246,-0.05079856539205915,9.840037122620423
5.056,0,4,1,46.39718102729637,4572.719966320605,-1.5871011162970134,3.9617280497514784,160,9,1,-8,279,4,1.013,4.974728049751478,2.9487280497514785,-0.46724507093652456,0.16375688734017563,-9.079845569924874e-05,0.02817962967768607,-0.05890470850690592,9.789762945643524
5.088,0,4,1,44.71208393344291,4617.432050254048,-1.6850970938534573,4.046080900421708,160,9,1,-6,273,2,1.0739999999999998,5.120080900421708,2.972080900421708,-0.46861626566040837,0.16581869276290528,-8.991237126802776e-05,0.042746158735097184,-0.06526105873876045,9.786938725758434
5.12,0,4,1,42.614055969611194,4660.046106223659,-2.0980279638317185,4.151395229483271,160,9,1,-5,268,1,1.0945,5.2458952294832715,3.0568952294832714,-0.46996213856763497,0.1679580941895383,-8.914502341052406e-05,0.052362523980525905,-0.0766175961979002,9.84685921204739
5.152,0,4,1,41.023269024922435,4701.069375248581,-1.5907869446887588,4.230427335698568,160,9,1,-5,263,0,1.065,5.295427335698568,3.1654273356985683,-0.47128412637328443,0.17019072875782568,-8.851762660714614e-05,0.06769724439574677,-0.08175984184361433,9.805691978054842
5.184,0,4,1,39.00747255212105,4740.076847800702,-2.0157964728013837,4.3316421688667495,160,9,1,-5,258,0,1.04,5.3716421688667495,3.2916421688667494,-0.4725700370076296,0.17250503838438896,-8.799792160891183e-05,0.05406234679817829,-0.08565244616184399,9.814975664882489
5.216,0,4,1,37.23483398157467,4777.3116817822765,-1.772638570546384,4.420030939491813,160,9,1,-5,253,0,1.0150000000000001,5.4350309394918135,3.405030939491813,-0.4738247602496164,0.1749115580796631,-8.76033764338896e-05,0.06722468059615312,-0.08555390325165096,9.841724419987754
5.248,0,4,1,36.12944414324087,4813.441125925518,-1.1053898383337994,4.474633182676291,160,9,1,-6,247,-1,0.9305000000000001,5.405133182676291,3.5441331826762905,-0.475042337993652,0.17740172300528068,-8.7307011576691e-05,0.05860491947385887,-0.08563192519249557,9.861581140222327
5.28,0,4,1,34.99202019855866,4848.433146124076,-1.1374239446822045,4.531536414016749,160,9,1,-7,240,-1,0.8454999999999999,5.377036414016748,3.686036414016749,-0.4762135139274732,0.17995742677014584,-8.69543511941382e-05,0.04077218842126911,-0.08661611779253192,9.863778886644115
5.312,0,4,1,33.82208521749396,4882.25523134157,-1.1699349810647064,4.590065674106367,160,9,1,-7,233,0,0.815,5.405065674106368,3.7750656741063673,-0.4773424328211462,0.18257630481270212,-8.647985823003607e-05,0.04164459273938601,-0.08107523186552713,9.762064005872103
5.344,0,4,1,32.210927723673755,4914.466159065244,-1.6111574938202011,4.6710647713101325,160,9,1,-6,227,1,0.8394999999999999,5.510564771310133,3.8315647713101324,-0.4784321049832058,0.1852533428516831,-8.593088528383898e-05,0.039415821373932576,-0.07685393250766241,9.791039449497696
5.376,0,4,1,30.96375653207352,4945.429915597318,-1.2471711916002342,4.733059344587925,160,9,1,-6,221,0,0.8049999999999999,5.538059344587925,3.9280593445879255,-0.4794795817335003,0.18799791573480765,-8.538724062034757e-05,0.04774986402750472,-0.08272694632893737,9.832375441755756
5.408,0,4,1,30.5406048496815,4975.970520446999,-0.42315168239202094,4.7533929091983165,160,9,1,-7,214,-1,0.7155,5.468892909198317,4.037892909198316,-0.4804850534185488,0.1908022535179461,-8.472177985009884e-05,0.04206565725239366,-0.07990268916389946,9.811474731825555
5.44,0,4,1,29.683140179123296,5005.6536606261225,-0.8574646705582047,4.796700455714394,160,9,1,-6,208,1,0.7444999999999999,5.541200455714394,4.052200455714393,-0.4814489895590491,0.19364257305254967,-8.382354974739367e-05,0.02109933310174683,-0.07228587516511811,9.794014835187554
5.472,0,4,1,29.683140179123296,5035.336800805246,0.0,4.795842991043836,160,9,1,-6,202,0,0.71,5.505842991043836,4.085842991043836,-0.4823719512724225,0.1965235402532396,-8.294863100043529e-05,0.026359443863125005,-0.0728454531996221,9.805476013217557
5.5040000000000004,0,4,1,30.5406048496815,5065.877405654927,0.8574646705582047,4.752112292845367,160,9,1,-7,195,-1,0.6205,5.372612292845367,4.131612292845367,-0.4832434057321699,0.19942191832124048,-8.198406409190215e-05,0.002703259850732672,-0.07702536955638635,9.855222607536982
5.5360000000000005,0,4,1,30.96375653207352,5096.841162187001,0.42315168239202094,4.731389021713933,160,9,1,-7,188,0,0.5900000000000001,5.321389021713933,4.141389021713933,-0.48405905334529575,0.20231265278019095,-8.08513168608048e-05,-0.02128891753191694,-0.07470594017412337,9.829486488988314
5.5680000000000005,0,4,1,31.798912824294433,5128.640075011295,0.8351562922209119,4.6892192024930575,160,9,1,-7,181,0,0.5549999999999999,5.244219202493057,4.134219202493058,-0.48482901663023675,0.2052038361027267,-7.9702589026516e-05,-0.010480627446218603,-0.06740198607405122,9.850859538102553
5.6000000000000005,0,4,1,32.210927723673755,5160.851002734969,0.41201489937932223,4.669041598916933,160,9,1,-6,175,1,0.5794999999999999,5.248541598916933,4.089541598916933,-0.48555724749356444,0.20810020973186386,-7.855831405849216e-05,-0.004513094893140443,-0.064367735634989,9.833315763428633
5.632,0,4,1,33.02386755579664,5193.874870290766,0.8129398321228862,4.627993682378045,160,9,1,-6,169,0,0.5449999999999999,5.172993682378045,4.082993682378045,-0.4862465889233161,0.21099365893564354,-7.755451366422104e-05,-0.011132216177499566,-0.0601790567676029,9.818605804688612
5.664,0,4,1,33.82208521749396,5227.69695550826,0.7982176616973149,4.588097521463605,160,9,1,-7,162,-1,0.4555,5.043597521463605,4.132597521463605,-0.48689230682785145,0.213870390054539,-7.659427413393184e-05,-0.024907516280715886,-0.06143638683193476,9.849651479741864
5.696,0,4,1,34.605675551638576,5262.302631059898,0.7835903341446198,4.548932632083927,160,9,1,-6,156,1,0.4845,5.033432632083927,4.0644326320839275,-0.4874972890966231,0.2167294000804425,-7.560182162349473e-05,-0.024845771376054315,-0.058106134131401775,9.777830600424457
5.728,0,4,1,34.605675551638576,5296.908306611536,0.0,4.549716222418072,160,9,1,-5,151,1,0.5095,5.059216222418072,4.0402162224180715,-0.4880682247641955,0.21957112755213837,-7.47974578461947e-05,-0.022815805865939745,-0.05169310367035104,9.799852247430834
5.76,0,4,1,35.753887254436755,5332.662193865973,1.1482117027981786,4.491157425575365,160,9,1,-6,145,-1,0.42049999999999993,4.911657425575364,4.070657425575365,-0.4886082048960038,0.22242056630857665,-7.415103649902749e-05,0.0020625920558029064,-0.05230490495060613,9.829907111283621
5.792,0,4,1,35.37475184387608,5368.036945709849,-0.37913541056067146,4.511641543216757,160,9,1,-3,142,3,0.5734999999999999,5.085141543216757,3.938141543216757,-0.48910841018848794,0.22523900598705876,-7.350277946512572e-05,-0.0363010480444493,-0.05333795936782586,9.81781836712622
5.824,0,4,1,33.82208521749396,5401.859030927342,-1.552666626382127,4.590448405751684,160,9,1,1,143,4,0.783,5.3734484057516845,3.807448405751684,-0.48958414585526194,0.22807776760353138,-7.317498623544624e-05,0.015892187868825302,-0.046130724032814666,9.83868151058666
5.856,0,4,1,32.210927723673755,5434.069958651016,-1.6111574938202011,4.6710647713101325,160,9,1,3,146,2,0.889,5.560064771310133,3.7820647713101323,-0.49003013122714606,0.2309757636274943,-7.317912730652083e-05,0.05355827311201407,-0.05551086802723794,9.791205256479568
5.888,0,4,1,30.5406048496815,5464.610563500698,-1.670322873992255,4.754640080389917,160,9,1,4,150,1,0.9544999999999999,5.709140080389917,3.8001400803899172,-0.49042995000759554,0.23393600903216194,-7.337490864817511e-05,0.055155595704149005,-0.07022773536382018,9.835074356553996
5.92,0,4,1,29.24882633654698,5493.859389837245,-1.2917785131345205,4.818850461685785,160,9,1,4,154,0,0.97,5.788850461685785,3.8488504616857853,-0.49077366104074094,0.23696350721169288,-7.37481456609939e-05,0.05996687336117428,-0.07860164252584105,9.767071781394707
5.952,0,4,1,27.474431626277134,5521.333821463521,-1.7743947102698456,4.908052813396414,160,9,1,3,157,-1,0.9305000000000001,5.838552813396414,3.9775528133964135,-0.4910539145887421,0.24003979147392357,-7.427272622947609e-05,0.043093822659948364,-0.08246231577108287,9.797186478755538
5.984,0,4,1,26.104854009099288,5547.438675472621,-1.3695776171778462,4.976126877162214,160,9,1,2,159,-1,0.8905000000000001,5.866626877162214,4.0856268771622135,-0.49126880608289475,0.24317878321955808,-7.487244867679897e-05,0.05768882028230932,-0.08535674862605507,9.748724876386909
6.016,0,4,1,25.173524524530173,5572.612199997151,-0.9313294845691154,5.02225510325806,160,9,1,1,160,-1,0.8455000000000001,5.867755103258061,4.17675510325806,-0.49141827064740945,0.24636481102271032,-7.550588143372984e-05,0.043996273915557195,-0.08351588765300509,9.799983014791772
6.048,0,4,1,23.749494492866766,5596.361694490018,-1.4240300316634062,5.093949305388326,160,9,1,0,160,-1,0.7955000000000001,5.889449305388325,4.298449305388326,-0.49150337253749954,0.24958195062364566,-7.609894066922668e-05,0.02972774667032478,-0.08253051933371357,9.803448960327733
6.08,0,4,1,22.782405730481685,5619.144100220499,-0.9670887623850817,5.141846802238301,160,9,1,-1,159,-1,0.7405,5.882346802238301,4.401346802238301,-0.49152700931244825,0.2528450012993559,-7.656842199070188e-05,0.04537492682959916,-0.07982127409108317,9.802086252375585
6.112,0,4,1,21.305783617828766,5640.449883838328,-1.4766221126529189,5.216187441221215,160,9,1,3,162,4,0.9780000000000001,6.194187441221215,4.238187441221215,-0.4914923357003748,0.2558216339461278,-7.684531731127174e-05,-0.28046840353307195,-0.08060906080010802,9.796640762578908
6.144,0,4,1,20.304473709960448,5660.754357548289,-1.0013099078683183,5.265777624409846,160,9,1,8,170,5,1.2725,6.28,3.9932776244098465,-0.4914464749609115,0.2585879215978138,-7.74347216890292e-05,-0.20599146279936137,-0.03483581663045212,9.848457197630308
6.176,0,4,1,18.778033222445536,5679.532390770734,-1.5264404875149111,5.342624779365238,160,9,1,13,183,5,1.5875,6.28,3.755124779365238,-0.4914018937575311,0.26120007626844993,-7.812366243226294e-05,-0.15086419118543914,-0.02316893926995593,9.84839806958361
6.208,0,4,1,18.262889942194125,5697.795280712929,-0.5151432802514115,5.367370646170546,160,9,1,10,193,-3,1.4514999999999998,6.28,3.915870646170546,-0.49135246540458216,0.2641693534191032,-7.868060333412162e-05,0.34881919083090446,-0.015239573493760723,9.821602225472436
6.24,0,4,1,17.22343619113144,5715.01871690406,-1.039453751062684,5.419867644194491,160,9,1,4,197,-6,1.1580000000000001,6.28,4.26186764419449,-0.49123326893254454,0.2674300399591297,-7.880927256008474e-05,0.2870144508023995,-0.07251482816929708,9.822538631587134
6.272,0,4,1,16.17215901578257,5731.190875919842,-1.051277175348872,5.47244332638622,160,9,1,0,197,-4,0.967,6.28,4.505443326386221,-0.49101636917394326,0.27079947469228743,-7.865556282110088e-05,0.11309684191268154,-0.10772130685752636,9.786365364738744
6.304,0,4,1,15.642246457208763,5746.833122377051,-0.5299125585738054,5.4984175896981355,160,9,1,-4,193,-4,0.7469999999999999,6.245417589698135,4.751417589698136,-0.4907134911564279,0.27424117088821,-7.844704777314887e-05,0.07952920349222586,-0.09786013169845505,9.78664773468914
6.336,0,4,1,15.642246457208763,5762.47536883426,0.0,5.497887677139562,160,9,1,-7,186,-3,0.5665000000000001,6.064387677139562,4.931387677139561,-0.49033300124922846,0.27774247087320675,-7.811004784957255e-05,0.06740391673585137,-0.09013867003764979,9.798499031069463
6.368,0,4,1,16.699244233993618,5779.174613068253,1.0569977767848542,5.4439807905235345,160,9,1,-9,177,-2,0.426,5.869980790523535,5.017980790523534,-0.4898988236142726,0.2812202679250531,-7.747397861254321e-05,-0.015471257915127707,-0.07764478314823389,9.846424952894926
6.4,0,4,1,17.744671625056924,5796.91928469331,1.0454273910633063,5.391720991356091,160,9,1,-9,168,0,0.38999999999999996,5.7817209913560905,5.001720991356091,-0.4894233863308269,0.28466607490478907,-7.65320728904565e-05,-0.024987781316733668,-0.06797416085271203,9.82133590394271
6.432,0,4,1,19.79887635452493,5816.718161047835,2.0542047294680046,5.288001977544285,160,9,1,-10,158,-1,0.28550000000000003,5.573501977544285,5.002501977544285,-0.4889210042898889,0.2880779427125931,-7.548831336723523e-05,-0.028552952804935687,-0.05506364729029233,9.78587439844107
6.464,0,4,1,21.80140948635181,5838.519570534187,2.0025331318268833,5.187926992550583,160,9,1,-9,149,1,0.2995,5.487426992550583,4.888426992550583,-0.488400763997007,0.2914192664454694,-7.42853049105173e-05,-0.06524197858936692,-0.05218776447687351,9.83434864809349
6.496,0,4,1,22.782405730481685,5861.301976264668,0.980996244129873,5.139898717231786,160,9,1,-8,141,1,0.30949999999999994,5.4493987172317855,4.830398717231786,-0.48787273539311315,0.2946944327986749,-7.321706419681495e-05,-0.06209455869881734,-0.04194603340103118,9.826334685702273
6.5280000000000005,0,4,1,25.173524524530173,5886.475500789198,2.391118794048488,5.018932654979443,160,9,1,-9,132,-1,0.20550000000000002,5.224432654979442,4.813432654979443,-0.4873301025307392,0.2979362889092219,-7.230342701817528e-05,-0.02952372871978916,-0.04294576607357379,9.805336314923084
6.5600000000000005,0,4,1,26.565051177077994,5913.040551966276,1.391526652547821,4.950355914493552,160,9,1,-8,124,1,0.22449999999999998,5.174855914493552,4.725855914493552,-0.486779255767484,0.3010984627406714,-7.141204937327963e-05,-0.07532612780038417,-0.044209186547992926,9.806236856757005
6.5920000000000005,0,4,1,27.923589715138373,5940.964141681415,1.3585385380603796,4.882461975705022,160,9,1,-7,117,1,0.23949999999999994,5.121961975705021,4.642961975705022,-0.48622430599805405,0.3042156388022612,-7.07512696394609e-05,-0.04248947004163391,-0.03353375550292246,9.782903874774641
6.6240000000000006,0,4,1,29.683140179123296,5970.647281860538,1.7595504639849224,4.7940834405798505,160,9,1,-7,110,0,0.2,4.994083440579851,4.59408344057985,-0.4856628161489919,0.30728793587041603,-7.030119412042984e-05,-0.04204882525238503,-0.03484228889260355,9.796969894133678
6.656000000000001,0,4,1,30.96375653207352,6001.611038392612,1.2806163529502257,4.730531557043374,160,9,1,-6,104,1,0.22449999999999998,4.955031557043374,4.506031557043374,-0.48509620811127535,0.3103021013129749,-6.963893898659194e-05,-0.05523011220278073,-0.03469145122443969,9.80097054959753
6.688,0,4,1,30.5406048496815,6032.151643242293,-0.42315168239202094,4.7533929091983165,160,9,1,-2,102,4,0.42800000000000005,5.181392909198316,4.3253929091983165,-0.4845245572279099,0.3132742732894765,-6.897322256164788e-05,-0.040530475677791056,-0.030322232337915565,9.785226134036488
6.72,0,4,1,28.810793742973065,6060.962436985266,-1.7298111067084356,4.8411901239580555,160,9,1,3,105,5,0.6975,5.538690123958055,4.143690123958056,-0.4839353060446918,0.316258490970365,-6.856752596163043e-05,0.014890475060822788,-0.03052633769589316,9.843081381912643
6.752,0,4,1,27.474431626277134,6088.436868611543,-1.3363621166959305,4.90761478080284,160,9,1,5,110,2,0.809,5.71661478080284,4.09861478080284,-0.4833045209462443,0.3192926996419975,-6.840548912393288e-05,0.057473504888143914,-0.04385207877769746,9.840189450040405
6.784,0,4,1,26.104854009099288,6114.541722620643,-1.3695776171778462,4.976126877162214,160,9,1,5,115,0,0.8250000000000001,5.801126877162214,4.151126877162214,-0.48261356438970043,0.32235907552113097,-6.851819685745053e-05,0.04633821018876476,-0.06337435193313763,9.82717085206182
6.816,0,4,1,24.702430227771313,6139.244152848414,-1.4024237813279754,5.0462809123927626,160,9,1,5,120,0,0.85,5.896280912392762,4.196280912392763,-0.4818526602962766,0.32545550866733425,-6.902434432143854e-05,0.047738426208714206,-0.07203725741010267,9.767848248163567
6.848,0,4,1,23.26770481005697,6162.511857658471,-1.4347254177143434,5.118049484914866,160,9,1,5,125,0,0.875,5.993049484914866,4.243049484914866,-0.4810195271023515,0.328580758791188,-7.0072256135938e-05,0.04783718550211759,-0.0730634179299941,9.753518026163809
6.88,0,4,1,22.782405730481685,6185.2942633889525,-0.4852990795752845,5.141365012555491,160,9,1,3,128,-2,0.781,5.922365012555491,4.360365012555492,-0.48011109024823484,0.33173309490089686,-7.1699903287566e-05,0.04729014150167634,-0.07608180500459996,9.780953775311469
6.912,0,4,1,23.061519532293538,6208.355782921246,0.2791138018118531,5.126644909583511,160,9,1,2,130,-1,0.7455,5.872144909583511,4.3811449095835115,-0.4791338003242463,0.3348801784498579,-7.36625992907719e-05,0.014707508860749318,-0.08032683267866884,9.844701683278572
6.944,0,4,1,25.880273670068842,6234.236056591315,2.8187541377753043,4.983167562358783,160,9,1,1,131,-1,0.7005000000000001,5.683667562358783,4.2826675623587835,-0.47810316944774683,0.33799922651676234,-7.421032182818553e-05,-0.009789141731476131,-0.07361795818288953,9.824425217258552
6.976,0,4,1,29.438489674671505,6263.6745462659865,3.558216004602663,4.804517300261822,160,9,1,0,131,-1,0.6505000000000001,5.455017300261822,4.154017300261822,-0.4770499838248033,0.3410123309720926,-7.466077549302813e-05,-0.09044022083840114,-0.07233580148985826,9.810522917715746
7.008,0,4,1,33.82208521749396,6297.49663148348,4.383595542822452,4.584512143582479,160,9,1,-1,130,-1,0.5955,5.18001214358248,3.9890121435824795,-0.4759889994513329,0.3438998307296953,-7.496543602445414e-05,-0.11257691210034161,-0.06799931650986185,9.797378059023744
7.04,0,4,1,39.351752626264734,6336.848384109745,5.529667408770777,4.306882701277992,160,9,1,-3,127,-2,0.476,4.782882701277992,3.830882701277992,-0.4749370478935725,0.3466390573458707,-7.510490081386566e-05,-0.138620839543972,-0.06307355549354209,9.803910125029796
7.072,0,4,1,43.83086067209259,6380.679244781838,4.479108045827857,4.0839778583495425,160,9,1,-3,124,0,0.47,4.553977858349542,3.6139778583495428,-0.4739156507093732,0.3491979804292673,-7.498714776930232e-05,-0.17521116101485368,-0.05699279728885386,9.823501757458473
7.104,0,4,1,47.46575899499777,6428.145003776835,3.6348983229051797,3.9030771519272065,160,9,1,-4,120,-1,0.39549999999999996,4.298577151927207,3.5075771519272063,-0.47292275663467526,0.3516140369841077,-7.483539870907843e-05,-0.1406108116155467,-0.04646262934757974,9.815648345475806
7.136,0,4,1,50.19442890773481,6478.33943268457,2.7286699127370397,3.7675498847005224,160,9,1,-4,116,0,0.37999999999999995,4.147549884700522,3.3875498847005225,-0.4719511835034222,0.35391300860212505,-7.455956014235446e-05,-0.11318449564799073,-0.043935900481439895,9.761732663881796
7.168,0,4,1,52.49585763972986,6530.8352903243,2.3014287319950526,3.652905689281512,160,9,1,-5,111,-1,0.30050000000000004,3.953405689281512,3.352405689281512,-0.4709952587951503,0.3561242958058163,-7.428327351438613e-05,-0.08559926520077729,-0.037717159969467264,9.837794983086436
