Time,SetPointAngle,SensorAngleRow,SensorAngleWidth,Angle,IntegralAngle,DeltaAngle,BaseSpeed,SetPointError,SensorErrorRow,SensorErrorWidth,Error,IntegralError,DeltaError,DeltaSpeed,LeftSpeed,RightSpeed,X,Y,Z,Roll,Pitch,Yaw
0.032,0,4,1,7.199233638367641,7.199233638367641,7.199233638367641,5.5,160,9,1,-36,-36,-36,-3.2939999999999996,2.2060000000000004,6.28,-0.15738800000000028,-0.03443060000000026,-6.396809943236617e-05,9.19601302334492e-08,5.105758731186278e-09,9.779363783699711
0.064,0,4,1,7.711892412658888,14.911126051026528,0.5126587742912472,5.5,160,9,1,-24,-60,12,-2.142,3.358,6.28,-0.1567036266723911,-0.03180407194830842,-4.141431803983582e-05,3.1877353439587934,-0.09627279573086878,9.690263711974039
0.096,0,4,1,6.4043527263841025,21.315478777410632,-1.3075396862747857,5.5,160,9,1,-11,-71,13,-1.2405,4.2595,6.28,-0.15610363399420812,-0.028857053389125368,-6.17469328434185e-05,0.5584310752865196,0.10783379777809128,9.74559643828517
0.128,0,4,1,4.666858371439037,25.98233714884967,-1.7374943549450652,5.5,160,9,1,-5,-76,6,-0.891,4.609,6.28,-0.1555285371100777,-0.025518045930149266,-7.283139249507006e-05,0.42785962039442704,0.08907491261539424,9.842357018604158
0.16,0,4,1,3.503531644784471,29.48586879363414,-1.1633267266545664,5.5,160,9,1,1,-75,6,-0.4335,5.0665,5.9335,-0.15500869155829447,-0.02206102389699067,-7.655492399352183e-05,-0.0399963454989988,0.07747176729980551,9.842023808472854
0.192,0,4,1,2.9207215210003468,32.406590314634485,-0.5828101237841241,5.5,160,9,1,1,-74,0,-0.4799999999999999,5.0200000000000005,5.9799999999999995,-0.1545525255821458,-0.01857649837987496,-8.116590228950983e-05,-0.022892663271553107,0.0786207910090509,9.801576159396781
0.224,0,4,1,10.972240237811638,43.378830552446125,8.051518716811291,5.5,160,9,1,14,-60,13,0.7170000000000001,6.2170000000000005,4.7829999999999995,-0.1541323153660505,-0.015089928654607811,-8.453056178078441e-05,0.0592108085950718,0.04761029555412706,9.817442683728531
0.256,0,4,1,15.945395900922858,59.32422645336898,4.9731556631112195,5.5,160,9,1,12,-48,-2,0.5219999999999999,6.022,4.978,-0.15374356917649806,-0.01159966565290364,-8.368086461160024e-05,0.04679173743260814,0.045517267063634764,9.793982448909816
0.28800000000000003,0,4,1,18.788621982168497,78.11284843553747,2.843226081245639,5.5,160,9,1,5,-43,-7,-0.01050000000000001,5.4895,5.5105,-0.15329619016892093,-0.008112968076311775,-8.307184663130726e-05,0.03205322215634125,-0.03948917986750274,9.789971120409918
0.32,0,4,1,21.39289035198143,99.50573878751891,2.6042683698129316,5.5,160,9,1,2,-41,-3,-0.1845,5.3155,5.6845,-0.15279841086480386,-0.004631050649734444,-8.337939569909823e-05,0.006714785767694758,-0.030544976696823416,9.775177089185338
0.352,0,4,1,24.66381471246356,124.16955349998247,3.2709243604821303,5.5,160,9,1,0,-41,-2,-0.3255,5.1745,5.8255,-0.15229646001008706,-0.00116146602085122,-8.20764538448926e-05,-0.007970268776141556,0.012867326511731073,9.861358953768505
0.384,0,4,1,27.950969027890196,152.12052252787265,3.287154315426637,5.5,160,9,1,0,-41,0,-0.3075,5.1925,5.8075,-0.15180808473725094,0.002304509636303414,-8.11730038588563e-05,-0.00252286747796257,0.030090911059487926,9.803227776116696
0.41600000000000004,0,4,1,31.900156917733717,184.02067944560636,3.9491878898435218,5.5,160,9,1,0,-41,0,-0.3075,5.1925,5.8075,-0.15134744951605572,0.005774124317878854,-8.022518719440382e-05,0.0021990891595589316,0.04336867975910834,9.878300581911764
0.448,0,4,1,34.75591255354137,218.77659199914774,2.855755635807654,5.5,160,9,1,0,-41,0,-0.3075,5.1925,5.8075,-0.1509136680606628,0.009248052899532164,-7.891490749152401e-05,0.002083114404631281,0.04122355567088585,9.75294893970593
0.48,0,4,1,38.15722658736906,256.9338185865168,3.4013140338276884,5.5,160,9,1,0,-41,0,-0.3075,5.1925,5.8075,-0.15050701326681507,0.01272665643813371,-7.743792637798959e-05,0.001418043644349851,0.04022510694893983,9.735922975298257
0.512,0,4,1,40.93663400706695,297.87045259358376,2.7794074196978897,5.5,160,9,1,1,-40,1,-0.21599999999999997,5.284,5.716,-0.15012753128775444,0.01621005437854658,-7.594393496466144e-05,0.0006508702088678682,0.03922797926913162,9.744652515033733
0.544,0,4,1,42.21483357788564,340.0852861714694,1.2781995708186926,5.5,160,9,1,-5,-45,-6,-0.7665,4.7335,6.2665,-0.14977511648695913,0.019699257020564433,-7.44664334795201e-05,0.0008520801347767079,0.038420889729461484,9.852024087601361
0.5760000000000001,0,4,1,42.56335175318987,382.6486379246593,0.34851817530422835,5.5,160,9,1,-7,-52,-2,-0.933,4.567,6.28,-0.14944080519824682,0.023203766486338425,-7.35600063264362e-05,0.012860338524633615,0.029468957563558263,9.813454269955615
0.608,0,4,1,43.80651057601798,426.45514850067724,1.2431588228281072,5.5,160,9,1,-7,-59,0,-0.9675,4.5325,6.28,-0.14917515950787538,0.026667336640057177,-7.30878179123727e-05,-0.05255520092020444,0.07493775551634545,9.844989109767507
0.64,0,4,1,44.39690880561947,470.85205730629673,0.5903982296014902,5.5,160,9,1,-8,-67,-1,-1.1115,4.3885000000000005,6.28,-0.14898152237592702,0.030126353050197112,-7.325137975159116e-05,-0.01427901628701362,0.08121146025500743,9.801554252487895
0.672,0,4,1,43.46839220798899,514.3204495142858,-0.9285165976304768,5.5,160,9,1,-13,-80,-5,-1.6199999999999999,3.88,6.28,-0.14886216990114665,0.03354392467335115,-7.427546759844472e-05,-0.04661020351731993,0.08274127525370208,9.78812230318503
0.704,0,4,1,42.856239134776594,557.1766886490624,-0.6121530732123972,5.5,160,9,1,-12,-92,1,-1.581,3.919,6.28,-0.14882252476541755,0.03680279704299475,-7.633401910499965e-05,-0.15734708367311837,0.09274476238384594,9.825625526938998
0.736,0,4,1,40.2625566519899,597.4392453010523,-2.593682482786697,5.5,160,9,1,-17,-109,-5,-2.1374999999999997,3.3625000000000003,6.28,-0.14887585944919723,0.040075193057665735,-7.936825736510299e-05,0.01756053172800363,0.1056610101889969,9.792294179880109
0.768,0,4,1,39.45153370628193,636.8907790073342,-0.8110229457079683,5.5,160,9,1,-21,-130,-4,-2.586,2.914,6.28,-0.14899762140144945,0.04271198326117157,-8.061319414625658e-05,-0.6141838551853166,0.11670823510270317,9.82590192718553
0.8,0,4,1,40.155999624919325,677.0467786322536,0.7044659186373963,5.5,160,9,1,-23,-153,-2,-2.8904999999999994,2.6095000000000006,6.28,-0.14912715897282106,0.04466650896312403,-8.262765247142763e-05,-0.6622440907677403,0.06331311877898137,9.871140692316946
0.8320000000000001,0,4,1,41.22771639062016,718.2744950228737,1.0717167657008346,5.5,160,9,1,-27,-180,-4,-3.411,2.089,6.28,-0.14923664362195296,0.046216880975992775,-8.487394697849482e-05,-0.3957436550373588,0.020169048177847485,9.841877615643762
0.864,0,4,1,41.85504253530199,760.1295375581757,0.627326144681831,5.5,160,9,1,-32,-212,-5,-4.035,1.4649999999999999,6.28,-0.14932083470969565,0.04751969255495507,-8.69777535647178e-05,-0.2431665174889111,0.006981041200839683,9.818258704411807
0.896,0,4,1,41.483452503664545,801.6129900618403,-0.37159003163744586,5.5,160,9,1,-36,-248,-4,-4.595999999999999,0.9040000000000008,6.28,-0.14938472261137023,0.048539701107874166,-8.856927752392413e-05,-0.2777604466378344,0.01409336729154073,9.798730755959829
0.928,0,4,1,40.50284838533223,842.1158384471725,-0.980604118332316,5.5,160,9,1,-21,-269,15,-3.4575000000000005,2.0424999999999995,6.28,-0.14949925650479418,0.05051630026768687,-8.945087978281911e-05,0.9399657024258117,-0.0291830119122451,9.80413230604351
0.96,0,4,1,37.71104767638987,879.8268861235623,-2.791800708942361,5.5,160,9,1,-13,-282,8,-3.018,2.482,6.28,-0.1497888283537952,0.05317307195696232,-8.935898133704753e-05,0.6826302905886397,0.0864422217545274,9.80557815290557
0.992,0,4,1,35.42577211490818,915.2526582384705,-2.28527556148169,5.5,160,9,1,-7,-289,6,-2.6385,2.8615,6.28,-0.15023591927539975,0.05595842028858184,-8.987480815315918e-05,0.1525392306785392,0.143598752157618,9.814031404829443
1.024,0,4,1,36.20258929000894,951.4552475284795,0.77681717510076,5.5,160,9,1,-5,-294,2,-2.5620000000000003,2.9379999999999997,6.28,-0.15067211810116143,0.058019099135872214,-9.132824649866339e-05,-0.694678910188761,0.15205337289325166,9.864856786299113
1.056,0,4,1,37.62623363866979,989.0814811671493,1.4236443486608508,5.5,160,9,1,-10,-304,-5,-3.0749999999999997,2.4250000000000003,6.28,-0.15102343376922578,0.05950892057970733,-9.344902879601658e-05,-0.5629362432575131,0.04480787572251838,9.764478732243647
1.088,0,4,1,37.71104767638987,1026.7925288435392,0.08481403772007923,5.5,160,9,1,-16,-320,-6,-3.6539999999999995,1.8460000000000005,6.28,-0.15129771026904165,0.060761091727354395,-9.558809109520144e-05,-0.2409921179489577,-0.011894143513492153,9.856243171414986
1.12,0,4,1,38.443053501836616,1065.2355823453759,0.7320058254467483,5.5,160,9,1,-20,-340,-4,-4.085999999999999,1.4140000000000006,6.28,-0.1514975464471946,0.061727242587357796,-9.69333807787371e-05,-0.2882904291688139,-0.0027053088486353517,9.83421438185575
1.1520000000000001,0,4,1,35.53767779197439,1100.7732601373502,-2.905375709862227,5.5,160,9,1,-24,-364,-4,-4.565999999999999,0.934000000000001,6.28,-0.15171983518645193,0.06286523790237766,-9.707042980903156e-05,0.16841071604960908,0.009374802579079968,9.847385161520398
1.184,0,4,1,31.900156917733717,1132.673417055084,-3.6375208742406713,5.5,160,9,1,-10,-374,14,-3.429,2.071,6.28,-0.15214677722036674,0.065124934032067,-9.62448841760645e-05,1.10969469818954,-0.05621225256860486,9.842706706819436
1.216,0,4,1,28.902357036201796,1161.5757740912857,-2.997799881531922,5.5,160,9,1,-2,-376,8,-2.8979999999999997,2.6020000000000003,6.28,-0.1528128988092739,0.06772311782658326,-9.506014982705452e-05,0.38558083495201567,0.14463681906530004,9.814411883013658
1.248,0,4,1,27.492836951539683,1189.0686110428253,-1.4095200846621125,5.5,160,9,1,9,-367,11,-1.9785000000000001,3.5214999999999996,6.28,-0.1536344063562237,0.07035995285507755,-9.489350758164726e-05,0.08684438218849555,0.1465866394266005,9.800867081554088
1.28,0,4,1,31.900156917733717,1220.968767960559,4.407319966194034,5.5,160,9,1,14,-353,5,-1.5525,3.9475,6.28,-0.1544184932802219,0.0724743504609401,-9.572988924557053e-05,-0.493493508763192,0.15376783730067992,9.792420146947538
1.312,0,4,1,31.476839349583983,1252.445607310143,-0.4233175681497343,5.5,160,9,1,0,-353,-14,-2.7735,2.7265,6.28,-0.15510744278112928,0.07422982010354316,-9.700555949912308e-05,-0.3636654006921233,0.04000126063532981,9.808924702061287
1.344,0,4,1,31.900156917733717,1284.3457642278768,0.4233175681497343,5.5,160,9,1,-9,-362,-9,-3.4709999999999996,2.0290000000000004,6.28,-0.15555930837329765,0.07547942553001753,-9.837411157283607e-05,-0.5388948990258058,-0.05444742659099145,9.770103157360607
1.3760000000000001,0,4,1,32.16439051359856,1316.5101547414754,0.2642335958648445,5.5,160,9,1,-16,-378,-7,-4.098,1.4020000000000001,6.28,-0.15587035312478015,0.07643852078997257,-9.874351401769656e-05,-0.3119019707673639,-0.030820431919415896,9.757542964441445
1.408,0,4,1,28.85566121971652,1345.3658159611919,-3.308729293882042,5.5,160,9,1,-5,-383,11,-3.1485,2.3515,6.28,-0.15656908376814915,0.0787423749636979,-9.77950474952572e-05,1.3630410647710107,-0.06916727457564303,9.813038573386356
1.44,0,4,1,27.03086025984298,1372.3966762210348,-1.8248009598735386,5.5,160,9,1,6,-377,11,-2.2784999999999993,3.2215000000000007,6.28,-0.15747116923010288,0.08125609443227284,-9.601311335684544e-05,0.2654282336508825,0.12253829314529163,9.843233114787504
1.472,0,4,1,25.851862542060406,1398.2485387630952,-1.1789977177825754,5.5,160,9,1,14,-363,8,-1.6004999999999996,3.8995000000000006,6.28,-0.15861912922111648,0.08400361414212029,-9.48343152401103e-05,0.3081309619017561,0.1390783972221928,9.807733330166496
1.504,0,4,1,24.399435924175126,1422.6479746872703,-1.4524266178852798,5.5,160,9,1,18,-345,4,-1.2015,4.2985,6.28,-0.15997297530440605,0.08691619759189739,-9.451448321359107e-05,0.2334770448257067,0.12506142951594615,9.809156302866432
1.536,0,4,1,22.409837371493268,1445.0578120587636,-1.9895985526818585,5.5,160,9,1,10,-335,-8,-1.8344999999999998,3.6655,6.28,-0.1612222380890765,0.08936680579160265,-9.467699509286588e-05,-0.4502958428682197,0.1261358653710353,9.807684698852915
1.568,0,4,1,25.621995944606983,1470.6798080033707,3.212158573113715,5.5,160,9,1,4,-331,-6,-2.2365,3.2635,6.28,-0.16200833771172643,0.0908115896815945,-9.531143216039498e-05,-1.0822958017457933,0.02152049189953161,9.816134668883073
1.6,0,4,1,28.85566121971652,1499.5354692230871,3.233665275109537,5.5,160,9,1,0,-331,-4,-2.5185,2.9815,6.28,-0.16268851435784915,0.09213872643071991,-9.568573365817921e-05,-0.1473906121196278,-0.029016702302972208,9.7999497133304
1.6320000000000001,0,4,1,27.950969027890196,1527.4864382509772,-0.9046921918263244,5.5,160,9,1,2,-329,2,-2.2995,3.2005,6.28,-0.16368470738670562,0.09430613940305407,-9.502894608990654e-05,0.8737583631834575,-0.043348815389931995,9.779654274964182
1.6640000000000001,0,4,1,27.492836951539683,1554.9792752025169,-0.45813207635051256,5.5,160,9,1,12,-317,10,-1.3875,4.1125,6.28,-0.1649124812797329,0.09699472976060083,-9.330926556903874e-05,0.556473851091907,-0.009420661906889973,9.829422936437483
1.696,0,4,1,25.621995944606983,1580.601271147124,-1.8708410069327002,5.5,160,9,1,15,-302,3,-1.1130000000000002,4.387,6.28,-0.16639285641160675,0.0999209757450777,-9.117058742542754e-05,0.3214289839467671,0.12490201745232025,9.807231799131568
1.728,0,4,1,24.399435924175126,1605.000707071299,-1.2225600204318567,5.5,160,9,1,16,-286,1,-0.936,4.564,6.28,-0.16801766832425455,0.10292162313085308,-8.930863838615445e-05,0.13367708833823755,0.1039772902574004,9.856983051371968
1.76,0,4,1,23.90766049417249,1628.9083675654715,-0.4917754300026367,5.5,160,9,1,17,-269,1,-0.7335000000000002,4.7665,6.2335,-0.16973717068801542,0.10593117464969874,-8.772708938256137e-05,0.05491208780785335,0.09185645127148877,9.834056697313422
1.792,0,4,1,24.128402930267857,1653.0367704957393,0.22074243609536737,5.5,160,9,1,18,-251,1,-0.5235,4.9765,6.0235,-0.17152928345436466,0.10892353070062136,-8.62411489599129e-05,0.023205144523085967,0.08680482355779895,9.791581293130848
1.824,0,4,1,24.128402930267857,1677.1651734260072,0.0,5.5,160,9,1,17,-234,-1,-0.489,5.011,5.989,-0.17338079199628367,0.1118913792737472,-8.454291490847358e-05,0.011294827464945445,0.08045059398628482,9.817333445535228
1.856,0,4,1,23.90766049417249,1701.0728339201796,-0.22074243609536737,5.5,160,9,1,17,-217,0,-0.35250000000000004,5.1475,5.8525,-0.17526906544637344,0.11483587435166237,-8.279420123946668e-05,0.0008448964300867427,0.06262844375566044,9.803597492848713
1.8880000000000001,0,4,1,23.41211416930267,1724.4849480894823,-0.49554632486982086,5.5,160,9,1,16,-201,-1,-0.3164999999999999,5.1835,5.8165,-0.17719425274600273,0.11776429108319134,-8.08023276289236e-05,0.007159434486336975,0.0600868445235564,9.777973498653797
1.92,0,4,1,23.198590513648202,1747.6835386031305,-0.21352365565446618,5.5,160,9,1,16,-185,0,-0.1875,5.3125,5.6875,-0.17914464240055086,0.1206817953876176,-7.879193908244889e-05,0.005212410567864014,0.04838813927559728,9.815044767358554
1.952,0,4,1,22.70284212321281,1770.3863807263433,-0.49574839043539143,5.5,160,9,1,14,-171,-2,-0.25049999999999994,5.2495,5.7505,-0.18111669731072455,0.12359006440537042,-7.666674700268147e-05,0.004674482700711134,0.045551360391475414,9.807054015557602
1.984,0,4,1,21.19405648154228,1791.5804372078856,-1.5087856416705314,5.5,160,9,1,11,-160,-3,-0.402,5.098,5.902,-0.18309920477457464,0.12649219466676162,-7.487627586951276e-05,0.0010471638748083983,0.034990863438868876,9.817843913253183
2.016,0,4,1,20.361603275386152,1811.9420404832717,-0.8324532061561278,5.5,160,9,1,10,-150,-1,-0.384,5.116,5.884,-0.18509724797639365,0.12938508068803822,-7.358462186505578e-05,0.0014958192080515595,0.04053197469905806,9.813039434887704
2.048,0,4,1,18.788621982168497,1830.7306624654402,-1.572981293217655,5.5,160,9,1,8,-142,-2,-0.483,5.017,5.983,-0.18712134224288227,0.13226077488809854,-7.247575995894713e-05,0.001263184696686694,0.05260177527531518,9.743448608362238
2.08,0,4,1,18.788621982168497,1849.5192844476087,0.0,5.5,160,9,1,9,-133,1,-0.3135,5.1865,5.8135,-0.18917071090136162,0.13511985993442555,-7.169762568842372e-05,0.0015711516781069647,0.05130201638171702,9.803132512991226
2.112,0,4,1,14.452428251092973,1863.9717126987016,-4.336193731075523,5.5,160,9,1,0,-133,-9,-1.0785,4.4215,6.28,-0.19125157191981565,0.13795649629374224,-7.087004396325383e-05,0.000802452525418762,0.05853468152324426,9.786261249228433
2.144,0,4,1,12.652556500557937,1876.6242691992595,-1.7998717505350363,5.5,160,9,1,1,-132,1,-0.906,4.594,6.28,-0.1932972838577993,0.14070340293960543,-7.097561630149511e-05,-0.0906496379466984,0.04640664904150553,9.759060838531367
2.176,0,4,1,13.339248903363371,1889.9635181026229,0.6866924028054342,5.5,160,9,1,5,-127,4,-0.5415,4.9585,6.0415,-0.1954383263588938,0.14344987372369597,-7.107397567561978e-05,0.05808296626454302,0.0922046343273361,9.78963710872688
2.208,0,4,1,14.311041262606391,1904.2745593652292,0.97179235924302,5.5,160,9,1,8,-119,3,-0.26549999999999996,5.2345,5.7655,-0.1976584149806697,0.14618427449234148,-7.096757096108214e-05,0.040046779923456635,0.08612408279390676,9.810855427122391
2.24,0,4,1,14.311041262606391,1918.5856006278354,0.0,5.5,160,9,1,9,-110,1,-0.14100000000000001,5.359,5.641,-0.19991056268850346,0.14888946007120954,-7.057417626344167e-05,-0.0017547283793611212,0.061479835561919154,9.80826005133779
2.2720000000000002,0,4,1,13.760785111791225,1932.3463857396266,-0.5502561508151658,5.5,160,9,1,8,-102,-1,-0.17400000000000004,5.326,5.674,-0.2021765107426024,0.15158119789279698,-7.001601130520417e-05,-0.0013260879635465749,0.037871405527040714,9.792140205003937
2.3040000000000003,0,4,1,13.20792846277913,1945.5543142024057,-0.5528566490120959,5.5,160,9,1,8,-94,0,-0.10499999999999998,5.395,5.605,-0.20444884356537743,0.1542671787904123,-6.95564012619769e-05,-0.00021615095935003807,0.02757904408868102,9.783074910948223
2.336,0,4,1,12.652556500557937,1958.2068707029637,-0.5553719622211926,5.5,160,9,1,7,-87,-1,-0.13649999999999995,5.3635,5.6365,-0.2067295793871748,0.15694544285044257,-6.910231236475876e-05,-0.0003794429715744916,0.03037150352494801,9.782179234671448
2.368,0,4,1,12.215719134130879,1970.4225898370946,-0.43683736642705817,5.5,160,9,1,6,-81,-1,-0.16649999999999998,5.3335,5.6665,-0.2090148652239752,0.15961999229206755,-6.882446701892558e-05,0.00016352434147156298,0.024548883141307886,9.781281906014852
2.4,0,4,1,12.90740867126582,1983.3299985083604,0.6916895371349412,5.5,160,9,1,5,-76,-1,-0.20399999999999996,5.296,5.704,-0.21130707898996254,0.1622888844118987,-6.871705546640863e-05,0.0002598995184375832,0.026801546894754582,9.818784715504979
2.432,0,4,1,8.702223789946824,1992.0322222983073,-4.205184881318996,5.5,160,9,1,-4,-80,-9,-0.9809999999999999,4.519,6.28,-0.21360850254722782,0.1649502028765852,-6.853045234768429e-05,7.078741419371973e-05,0.028917370721650862,9.788895282576904
2.464,0,4,1,8.130102354156005,2000.1623246524632,-0.5721214357908195,5.5,160,9,1,-1,-81,3,-0.6554999999999999,4.8445,6.1555,-0.21588125893956717,0.16755355142039527,-6.893051299746225e-05,-0.061415231361726566,0.033584324321597345,9.85566728335063
2.496,0,4,1,8.790543182813987,2008.9528678352772,0.6604408286579826,5.5,160,9,1,4,-77,5,-0.23250000000000004,5.2675,5.7325,-0.21825249635047256,0.17015758102301215,-6.908522624851123e-05,0.06675993112577241,0.08518861094452862,9.827613591688424
2.528,0,4,1,8.130102354156005,2017.0829701894331,-0.6604408286579826,5.5,160,9,1,5,-72,1,-0.15600000000000003,5.344,5.656,-0.22066295837679586,0.1727236964217831,-6.908490171914257e-05,-0.0009379894854991293,0.06847773532775649,9.802070361445205
2.56,0,4,1,8.130102354156005,2025.213072543589,0.0,5.5,160,9,1,6,-66,1,-0.03600000000000004,5.4639999999999995,5.5360000000000005,-0.22308569591563626,0.1752769238713714,-6.909920935876598e-05,-0.0012991670130747647,0.03217627407890134,9.851446688601609
2.592,0,4,1,8.04906170167456,2033.2621342452637,-0.08104065248144465,5.5,160,9,1,6,-60,0,0.0,5.5,5.5,-0.225515693599366,0.1778220124801416,-6.893935719013908e-05,-0.0014042857186939992,0.025258129953994454,9.818338673378928
2.624,0,4,1,8.130102354156005,2041.3922365994197,0.08104065248144465,5.5,160,9,1,5,-55,-1,-0.04649999999999998,5.4535,5.5465,-0.22794664217316413,0.1803665630928281,-6.866943596784206e-05,-0.0005030084684006613,0.015457052008309435,9.798104434698999
2.656,0,4,1,8.702223789946824,2050.0944603893663,0.5721214357908195,5.5,160,9,1,6,-49,1,0.09149999999999996,5.5915,5.4085,-0.23037509837195602,0.18291278640341074,-6.839096903232984e-05,-0.001648502306600733,0.011218312211156245,9.819623537696797
2.688,0,4,1,8.212780189285867,2058.307240578652,-0.48944360066095705,5.5,160,9,1,4,-45,-2,-0.05549999999999998,5.4445,5.5555,-0.23280590181625954,0.18545881164624609,-6.789860224704417e-05,-0.0001347807696780217,0.015251685583345382,9.833575503684932
2.72,0,4,1,8.212780189285867,2066.5200207679377,0.0,5.5,160,9,1,4,-41,0,-0.007500000000000007,5.4925,5.5075,-0.2352303874699265,0.18801069467780882,-6.753814178348666e-05,-0.0022427767708187553,0.004164432686208877,9.793949166971794
2.7520000000000002,0,4,1,1.7534048600716274,2068.273425628009,-6.4593753292142395,5.5,160,9,1,-7,-48,-11,-0.984,4.516,6.28,-0.23765658601387216,0.19056032195271672,-6.710962806102602e-05,-0.003310507742272977,0.014147287702321166,9.788818680877862
2.7840000000000003,0,4,1,0.5906572146464071,2068.8640828426555,-1.1627476454252204,5.5,160,9,1,-2,-50,5,-0.48000000000000004,5.02,5.98,-0.240037246212689,0.19306311157507888,-6.710615285910639e-05,-0.08020141592894357,0.010769445831406356,9.839203386065652
2.816,0,4,1,0.5906572146464071,2069.454740057302,0.0,5.5,160,9,1,2,-48,4,-0.174,5.326,5.674,-0.24251835101060723,0.19556235011142042,-6.700237283928379e-05,0.052645896594226124,0.08128806012103046,9.769978883064823
2.848,0,4,1,1.181188913326966,2070.635928970629,0.5905316986805589,5.5,160,9,1,4,-44,2,-0.011999999999999972,5.488,5.512,-0.24502776289644662,0.19803205140618463,-6.703169390104118e-05,-0.013593873709310202,0.04866826680121696,9.803964251033157
2.88,0,4,1,1.7714697400340056,2072.4073987106626,0.5902808267070396,5.5,160,9,1,4,-40,0,0.0,5.5,5.5,-0.24754644784759017,0.20049113804780389,-6.705931811958055e-05,-0.012058110340096387,0.02240421983083104,9.791700850962359
2.912,0,4,1,2.3373058591238247,2074.7447045697863,0.5658361190898191,5.5,160,9,1,4,-36,0,0.02999999999999997,5.53,5.47,-0.2500647672970654,0.20295032375649158,-6.706552290127246e-05,-0.009433110260502251,0.008410208614764592,9.805676866113783
2.944,0,4,1,4.085616779974888,2078.830321349761,1.7483109208510634,5.5,160,9,1,4,-32,0,0.06,5.56,5.44,-0.2525817479325626,0.20541057941416088,-6.699430537406882e-05,-0.007295529075641696,0.007045301181608921,9.827886314697366
2.976,0,4,1,4.714754518704886,2083.545075868466,0.6291377387299981,5.5,160,9,1,4,-28,0,0.09,5.59,5.41,-0.2550956664449308,0.20787305370837972,-6.684071462814516e-05,-0.0055883398343092045,0.004891925057157401,9.837112437798655
3.008,0,4,1,4.170436524842141,2087.715512393308,-0.5443179938627454,5.5,160,9,1,4,-24,0,0.12,5.62,5.38,-0.25760488509883883,0.21034036555647923,-6.662309397960885e-05,-0.002750848284647175,0.0015967385311693573,9.813249165497817
3.04,0,4,1,1.7714697400340056,2089.486982133342,-2.3989667848081355,5.5,160,9,1,2,-22,-2,-0.03299999999999999,5.467,5.533,-0.26010778455727024,0.21281425953264088,-6.637092617676338e-05,-0.0005396708905697748,-0.001315872595527182,9.791480536178186
3.072,0,4,1,1.169139327907133,2090.656121461249,-0.6023304121268727,5.5,160,9,1,3,-19,1,0.09149999999999998,5.5915,5.4085,-0.2626031367408249,0.21529685431964954,-6.617932420518308e-05,0.0021734131530644074,-0.0044498022309289115,9.860081074586331
3.104,0,4,1,0.5906572146464071,2091.2467786758953,-0.5784821132607258,5.5,160,9,1,2,-17,-1,0.013499999999999993,5.5135,5.4865,-0.265099745822659,0.21777831544660717,-6.593142168964672e-05,0.0034343787767542175,0.00748737349280324,9.745003320909012
3.136,0,4,1,0.0,2091.2467786758953,-0.5906572146464071,5.5,160,9,1,1,-16,-1,-0.054,5.446,5.554,-0.2675904949065367,0.2202648335271733,-6.57037035265446e-05,0.00428652217296545,-0.002715759706185162,9.762986430433953
3.168,0,4,1,1.7534048600716274,2093.0001835359667,1.7534048600716274,5.5,160,9,1,-2,-18,-3,-0.31200000000000006,5.188,5.812,-0.2700806493120091,0.22275265167263833,-6.547612880480717e-05,0.006564327371602811,0.0024819910004605724,9.789200536540564
3.2,0,4,1,1.7534048600716274,2094.753588396038,0.0,5.5,160,9,1,1,-17,3,-0.02550000000000001,5.4745,5.5255,-0.2725736177438314,0.2252369810451894,-6.522676290346939e-05,0.006328831193779366,0.007256825948886425,9.804538222327883
3.232,0,4,1,6.4043527263841025,2101.157941122422,4.650947866312475,5.5,160,9,1,-6,-23,-7,-0.6855,4.8145,6.1855,-0.27508607059395923,0.22770220479877026,-6.503731600116837e-05,0.00763758605573628,0.028676375481885175,9.832659783165017
3.2640000000000002,0,4,1,6.981057406829782,2108.1389985292517,0.5767046804456797,5.5,160,9,1,-1,-24,5,-0.21000000000000002,5.29,5.71,-0.27760058223135053,0.23016583251069625,-6.488648600392818e-05,0.007468914541609345,0.004239100734675977,9.783393095258377
3.2960000000000003,0,4,1,6.469819985173149,2114.608818514425,-0.5112374216566336,5.5,160,9,1,4,-20,5,0.195,5.695,5.305,-0.2801570029161071,0.23258728528528097,-6.495478231299638e-05,0.008108166264578453,0.05963315711123995,9.815309388330009
3.3280000000000003,0,4,1,3.503531644784471,2118.112350159209,-2.9662883403886777,5.5,160,9,1,10,-10,6,0.7290000000000001,6.229,4.771,-0.2827246795480783,0.23499514710509592,-6.504213718439185e-05,0.003991513001100743,0.019338364505241755,9.814664178470249
3.36,0,4,1,4.127591702511717,2122.239941861721,0.6240600577272462,5.5,160,9,1,6,-4,-4,0.38399999999999995,5.884,5.116,-0.28527961964850357,0.23741498103139727,-6.482859852628697e-05,0.002147432061761702,-0.014401850883736661,9.788008269991757
3.392,0,4,1,4.085616779974888,2126.325558641696,-0.041974922536828885,5.5,160,9,1,4,0,-2,0.282,5.782,5.218,-0.28779152729257385,0.23988287262990693,-6.493879105089889e-05,0.004000818124288894,-0.06013593959744418,9.772178707958796
3.424,0,4,1,4.666858371439037,2130.992417013135,0.5812415914641491,5.5,160,9,1,2,2,-2,0.147,5.647,5.353,-0.2902793219219777,0.24237484268870485,-6.532958336361375e-05,-0.0019541469877269397,-0.030695959449167014,9.750985214512554
3.456,0,4,1,5.885987833028316,2136.878404846163,1.2191294615892785,5.5,160,9,1,0,2,-2,-0.002999999999999999,5.497,5.503,-0.2927491447292466,0.2448836253725491,-6.58328597079056e-05,-0.005918637707635488,-0.02207888011705166,9.82782635934443
3.488,0,4,1,7.6333305872312645,2144.5117354333943,1.7473427542029487,5.5,160,9,1,0,2,0,0.015,5.515,5.485,-0.2952095805792697,0.24740071712665343,-6.624449286288941e-05,-0.009521487959664928,-0.011640104879773742,9.834760690284437
3.52,0,4,1,9.36650995701213,2153.8782453904064,1.7331793697808662,5.5,160,9,1,0,2,0,0.015,5.515,5.485,-0.29767059988497563,0.24991730172856724,-6.651606025900869e-05,-0.012360618853336615,0.00023389376186675297,9.795370133082098
3.552,0,4,1,10.40771131249005,2164.2859567028963,1.04120135547792,5.5,160,9,1,-1,1,-1,-0.0765,5.4235,5.5765,-0.3001312790600777,0.2524334370949724,-6.664143083401179e-05,-0.01637473464517868,-0.0015670217016322027,9.80101543941288
3.584,0,4,1,12.094757077012089,2176.3807137799085,1.687045764522038,5.5,160,9,1,-1,0,0,-0.075,5.425,5.575,-0.3025910680234929,0.25494984114383795,-6.657787796389945e-05,-0.014712709579197042,-0.003335663607785571,9.804104982967143
3.616,0,4,1,13.20792846277913,2189.5886422426875,1.1131713857670409,5.5,160,9,1,2,2,3,0.19199999999999998,5.692,5.308,-0.30505652023090374,0.25746083620416077,-6.64414453744027e-05,-0.012186785235043856,0.004503108391294403,9.834602069818564
3.648,0,4,1,9.841131759634363,2199.4297740023217,-3.3667967031447663,5.5,160,9,1,10,12,8,0.9119999999999999,6.28,4.588,-0.3075280561889588,0.2599668630582726,-6.636811844497326e-05,-0.008870796779307756,0.004165327437375633,9.832707774128137
3.68,0,4,1,11.08256946302967,2210.5123434653515,1.241437703395306,5.5,160,9,1,3,15,-7,0.27449999999999997,5.7745,5.2255,-0.3099591910832675,0.2624536247051543,-6.64486107019753e-05,-0.055429065713720686,-0.019393035440909073,9.791531098305654
3.712,0,4,1,13.20792846277913,2223.7202719281304,2.1253589997494604,5.5,160,9,1,0,15,-3,0.08549999999999999,5.5855,5.4145,-0.3123682083882897,0.26502188667762666,-6.648345836280344e-05,0.03288797176032905,-0.07392665328686417,9.816802934961135
3.744,0,4,1,13.897176315015338,2237.6174482431456,0.6892478522362087,5.5,160,9,1,-1,14,-1,0.020999999999999998,5.521,5.479,-0.3147597481593694,0.2676051273387035,-6.658841542492647e-05,-0.0074754623936756975,-0.026906853077021203,9.837468391161133
3.7760000000000002,0,4,1,10.40771131249005,2248.0251595556356,-3.4894650025252876,5.5,160,9,1,9,23,10,0.9374999999999999,6.28,4.5625,-0.3171463407220513,0.2701920849734405,-6.666461727263678e-05,-0.0033761888912994613,-0.011092084134676689,9.82319722322247
3.8080000000000003,0,4,1,12.652556500557937,2260.6777160561937,2.2448451880678864,5.5,160,9,1,2,25,-7,0.2745,5.7745,5.2255,-0.3194992558821583,0.27274341722636464,-6.734667546419264e-05,-0.05597580346173582,-0.0071336325452434875,9.792700274843902
3.84,0,4,1,15.154068050312574,2275.8317841065063,2.501511549754637,5.5,160,9,1,-2,23,-4,-0.013500000000000005,5.4865,5.5135,-0.3218323840181413,0.27538079929516346,-6.770696751000338e-05,0.045447434675845375,-0.0768008728303037,9.809052229844102
3.872,0,4,1,10.40771131249005,2286.2394954189963,-4.7463567378225235,5.5,160,9,1,9,32,11,1.014,6.28,4.486,-0.3241480434463849,0.2780319697253982,-6.785449499568767e-05,-0.002284714097030389,-0.029109360946157414,9.815637283299806
3.904,0,4,1,11.534620653644708,2297.774116072641,1.1269093411546578,5.5,160,9,1,1,33,-8,0.2505,5.7505,5.2495,-0.32641797405473233,0.2806257577795456,-6.892752621391607e-05,-0.08412478034165063,-0.006295411554630792,9.804692000932786
3.936,0,4,1,14.858614447924657,2312.6327305205655,3.3239937942799482,5.5,160,9,1,-4,29,-5,-0.1275,5.3725,5.6275,-0.3286794846214586,0.2833242978174858,-6.937641105862064e-05,0.06424374489144458,-0.08129948155372334,9.792224795094326
3.968,0,4,1,9.841131759634363,2322.4738622801997,-5.017482688290293,5.5,160,9,1,8,37,12,0.9854999999999999,6.28,4.5145,-0.33092575130113255,0.28603435091672036,-6.932906408675145e-05,-0.007826731317863978,-0.02893688625234433,9.766118659666033
4.0,0,4,1,12.215719134130879,2334.6895814143304,2.3745873744965156,5.5,160,9,1,-1,36,-9,0.11400000000000002,5.614,5.386,-0.33314079289652915,0.2886864353266066,-7.04831002326066e-05,-0.06858858378899735,0.0006009283048321333,9.777613730104623
4.032,0,4,1,15.554571270074414,2350.244152684405,3.338852135943535,5.5,160,9,1,-5,31,-4,-0.17850000000000002,5.3215,5.6785,-0.33534013835863374,0.29143426805138395,-7.060506619661726e-05,0.07148813914333411,-0.08183899657562749,9.816512584820517
4.064,0,4,1,12.215719134130879,2362.4598718185357,-3.338852135943535,5.5,160,9,1,7,38,12,0.918,6.28,4.582,-0.33753158058664884,0.2941865657792053,-7.021839466298842e-05,0.00528068485944402,-0.021195754511625423,9.810408742981053
4.096,0,4,1,13.20792846277913,2375.6678002813146,0.9922093286482507,5.5,160,9,1,-1,37,-8,0.13049999999999995,5.6305,5.3695,-0.3397116139807964,0.29689426972413047,-7.122737753647787e-05,-0.04491181582071353,0.005137206354757415,9.806468621839167
4.128,0,4,1,10.40771131249005,2386.0755115938045,-2.800217150289079,5.5,160,9,1,7,44,8,0.9269999999999999,6.28,4.573,-0.34186370306681285,0.29967895641515524,-7.114163365128275e-05,0.03969818826307509,-0.08029290089443357,9.788602998771097
4.16,0,4,1,12.094757077012089,2398.1702686708168,1.687045764522038,5.5,160,9,1,-2,42,-9,0.08400000000000002,5.584,5.416,-0.3439805529270699,0.3024340558852283,-7.196870268898897e-05,-0.04611781346363396,-0.023800799750737307,9.823565029293825
4.192,0,4,1,12.094757077012089,2410.265025747829,0.0,5.5,160,9,1,1,43,3,0.4245,5.9245,5.0755,-0.34606829998124755,0.30526685778430546,-7.185655247650587e-05,0.05065286344435754,-0.08170581952351316,9.814543903500132
4.224,0,4,1,11.534620653644708,2421.7996464014736,-0.5601364233673802,5.5,160,9,1,0,43,-1,0.3135,5.8135,5.1865,-0.34815223797330247,0.30810342367295235,-7.219062187761686e-05,0.005459802001452682,-0.019207592362306118,9.793021435825134
4.256,0,4,1,13.20792846277913,2435.0075748642525,1.6733078091344211,5.5,160,9,1,-3,40,-3,0.048000000000000015,5.548,5.452,-0.3502082691507882,0.3109592792022565,-7.233035892863053e-05,0.0012377817839976366,-0.047246462582366096,9.816822472477568
4.288,0,4,1,11.534620653644708,2446.542195517897,-1.6733078091344211,5.5,160,9,1,1,41,4,0.4185,5.9185,5.0815,-0.3522438126087215,0.31382790941335303,-7.19651298207516e-05,-0.00403555198826865,-0.038232072326975806,9.839710289009226
4.32,0,4,1,10.972240237811638,2457.5144357557087,-0.5623804158330703,5.5,160,9,1,1,42,0,0.39,5.89,5.11,-0.35427842586735675,0.3166986859033875,-7.198770039284347e-05,-0.0006840254429008048,-0.01663483459712891,9.85598133935202
4.352,0,4,1,12.094757077012089,2469.609192832721,1.1225168392004505,5.5,160,9,1,-2,40,-3,0.123,5.623,5.377,-0.35628550841579504,0.3195888979359643,-7.18514217765507e-05,-0.00094157124421057,-0.04781351168980724,9.79120922130908
4.384,0,4,1,9.36650995701213,2478.975702789733,-2.728247119999958,5.5,160,9,1,4,44,6,0.6839999999999999,6.184,4.816,-0.3582664555116606,0.32249600155561786,-7.12838942324278e-05,-0.0019973252716545854,-0.045062408449047416,9.809367165627126
4.416,0,4,1,12.778733188406045,2491.754435978139,3.4122232313939147,5.5,160,9,1,-5,39,-9,-0.1635,5.3365,5.6635,-0.3602410882310185,0.32540976400010985,-7.142149424265928e-05,0.001144992195129801,-0.023196275883954807,9.849096795665522
4.448,0,4,1,8.702223789946824,2500.456659768086,-4.076509398459221,5.5,160,9,1,6,45,11,0.8864999999999998,6.28,4.6135,-0.3621689972388109,0.32835463340173526,-7.046201759177556e-05,-0.0010401238746116609,-0.06885913356621076,9.837962625775996
4.48,0,4,1,12.652556500557937,2513.109216268644,3.9503327106111126,5.5,160,9,1,-6,39,-12,-0.26549999999999996,5.2345,5.7655,-0.36409179409860215,0.3312633916416033,-7.083171210369582e-05,-0.03346207408518972,0.0005884624875744259,9.71128163722614
4.5120000000000005,0,4,1,9.272601777200324,2522.3818180458443,-3.3799547233576135,5.5,160,9,1,7,46,13,0.987,6.28,4.513,-0.36597533453971826,0.33423728375284273,-6.991503402761085e-05,0.03734976878417369,-0.08092646927139018,9.883205816997169
4.5440000000000005,0,4,1,12.094757077012089,2534.4765751228565,2.822155299811765,5.5,160,9,1,-6,40,-13,-0.26699999999999996,5.233,5.767,-0.36784419335266605,0.3371433836110424,-7.058690672914932e-05,-0.0666524682594532,0.008763145665468604,9.815152185298945
4.5760000000000005,0,4,1,8.130102354156005,2542.6066774770125,-3.964654722856084,5.5,160,9,1,6,46,12,0.9029999999999999,6.28,4.597,-0.36968664513478006,0.34014337281949036,-6.993532819225476e-05,0.06568250392149141,-0.08406142334154464,9.79966460351252
4.6080000000000005,0,4,1,10.972240237811638,2553.578917714824,2.8421378836556332,5.5,160,9,1,-6,40,-12,-0.25799999999999995,5.242,5.758,-0.37152965201990995,0.34309783513146697,-7.078025609791837e-05,-0.039775604240980415,0.009691529602712844,9.847235744210757
4.64,0,4,1,8.790543182813987,2562.369460897638,-2.1816970549976507,5.5,160,9,1,3,43,9,0.6285,6.1285,4.8715,-0.37333363544316056,0.34612107183103596,-7.035147581993875e-05,0.03831730712698129,-0.08061399471993323,9.785377732879896
4.672,0,4,1,10.512627169921368,2572.8820880675594,1.7220839871073803,5.5,160,9,1,-4,39,-7,-0.07050000000000001,5.4295,5.5705,-0.37515823353050526,0.34913287672433047,-7.105437386259982e-05,0.0013431925570985847,0.009671543500099591,9.77344472013671
4.704,0,4,1,9.1805419576262,2582.0626300251856,-1.3320852122951674,5.5,160,9,1,3,42,7,0.603,6.103,4.897,-0.376938429241576,0.3521700544088235,-7.089776381657455e-05,-0.0016104523778567316,-0.06307547919332655,9.85783864242151
4.736,0,4,1,9.36650995701213,2591.4291399821977,0.18596799938593023,5.5,160,9,1,-2,40,-5,0.105,5.605,5.395,-0.37872505003808765,0.3552041140211064,-7.146481942274518e-05,-0.0024345784493603135,-0.005988066086559466,9.835158121082488
4.768,0,4,1,5.247138901616463,2596.676278883814,-4.119371055395668,5.5,160,9,1,7,47,9,0.9584999999999999,6.28,4.5415,-0.38046789619662524,0.3582603445630844,-7.135538065951991e-05,-0.00511114493668793,-0.06059841472614023,9.847469228687745
4.8,0,4,1,9.36650995701213,2606.0427888408262,4.119371055395668,5.5,160,9,1,-8,39,-15,-0.4425,5.0575,5.9425,-0.3821767057376724,0.36127365099598674,-7.197640957524142e-05,-0.05487885241162404,-0.021741450065556802,9.841176992132684
4.832,0,4,1,5.826342029555814,2611.869130870382,-3.5401679274563165,5.5,160,9,1,6,45,14,0.9134999999999999,6.28,4.5865,-0.38385017385540354,0.3643694375744925,-7.117820767041025e-05,0.06076862517274057,-0.08273864964663517,9.802969057780004
4.864,0,4,1,9.272601777200324,2621.141732647582,3.4462597476445094,5.5,160,9,1,-9,36,-15,-0.5399999999999999,4.96,6.04,-0.38553807482414987,0.3674110900013841,-7.191491037770309e-05,-0.0341704162637673,0.024696172738247292,9.794093741539186
4.896,0,4,1,6.4043527263841025,2627.546085373966,-2.868249050816221,5.5,160,9,1,5,41,14,0.8085,6.28,4.6915,-0.3871852253057045,0.3705215646224535,-7.104439753044534e-05,0.04486617354689826,-0.07954249749166699,9.809081129644616
4.928,0,4,1,10.512627169921368,2638.0587125438874,4.108274443537265,5.5,160,9,1,-8,33,-13,-0.4695,5.0305,5.9695,-0.38887036608568426,0.37360308007690124,-7.184643135058066e-05,-0.005222079735114641,0.033623960534397944,9.800619211435494
4.96,0,4,1,5.826342029555814,2643.885054573443,-4.686285140365554,5.5,160,9,1,4,37,12,0.6854999999999999,6.1855,4.8145,-0.3905020372080989,0.3767224604605695,-7.126852700713518e-05,0.007547357889783672,-0.07561674895172904,9.884955916520795
4.992,0,4,1,8.790543182813987,2652.675597756257,2.9642011532581733,5.5,160,9,1,-4,33,-8,-0.12449999999999999,5.3755,5.6245,-0.3921704298283174,0.37982343615813197,-7.195118869678802e-05,-0.0029067346676549164,0.028267735076547073,9.82526121727229
5.024,0,4,1,5.247138901616463,2657.9227366578734,-3.5434042811975246,5.5,160,9,1,4,37,8,0.6494999999999999,6.1495,4.8505,-0.39378865707967037,0.3829501976594022,-7.178619036394586e-05,-0.003983215662945929,-0.06670364625725567,9.840940182568566
5.056,0,4,1,9.272601777200324,2667.1953384350736,4.025462875583861,5.5,160,9,1,-5,32,-9,-0.216,5.284,5.716,-0.3954168888412123,0.38607244796209966,-7.226643639216164e-05,-0.0029999390002451833,-0.00011248224839925781,9.78925829963295
5.088,0,4,1,6.981057406829782,2674.1763958419033,-2.2915443703705414,5.5,160,9,1,2,34,7,0.468,5.968,5.032,-0.39699709018053686,0.3892177030690868,-7.193743151986953e-05,-0.005018980241813521,-0.062276854034999135,9.787961255176903
5.12,0,4,1,12.094757077012089,2686.2711529189155,5.1136996701823065,5.5,160,9,1,-8,26,-10,-0.495,5.005,5.995,-0.3985945022924098,0.3923558047959295,-7.210115264508904e-05,-0.002471821942169361,0.008103441457394967,9.846622376543761
5.152,0,4,1,9.272601777200324,2695.5437546961157,-2.822155299811765,5.5,160,9,1,4,30,12,0.6329999999999999,6.133,4.867,-0.40015769465555767,0.3955087217957812,-7.138157944766924e-05,-0.006437278153172061,-0.045995195811386766,9.806774942153563
5.184,0,4,1,4.666858371439037,2700.2106130675547,-4.605743405761286,5.5,160,9,1,7,37,3,0.8295,6.28,4.6705,-0.4017597870992765,0.3986438087864563,-7.150565038565627e-05,-0.0030800746602685693,0.03255207397285733,9.814426504960915
5.216,0,4,1,9.841131759634363,2710.051744827189,5.174273388195326,5.5,160,9,1,-6,31,-13,-0.33449999999999996,5.1655,5.8345,-0.4033073844131038,0.4017876120785074,-7.161777125283889e-05,-0.019497905286741557,-0.060985396374803186,9.841938777144236
5.248,0,4,1,8.702223789946824,2718.753968617136,-1.1389079696875388,5.5,160,9,1,1,32,7,0.378,5.878,5.122,-0.4048004180121501,0.4049752085431757,-7.11456450139137e-05,0.012652312271401818,-0.07511011418978773,9.862337477175432
5.28,0,4,1,12.652556500557937,2731.406525117694,3.9503327106111126,5.5,160,9,1,-6,26,-7,-0.31799999999999995,5.182,5.818,-0.40632050577472506,0.4081522395158548,-7.125269747919848e-05,0.0008975688881380868,0.01975493488381947,9.86332658214512
5.312,0,4,1,9.272601777200324,2740.679126894894,-3.3799547233576135,5.5,160,9,1,6,32,12,0.7979999999999999,6.28,4.702,-0.4078128302834675,0.4113398541080361,-7.077455758717349e-05,-0.003090587124216184,-0.037301846549671835,9.762629905827094
5.344,0,4,1,13.760785111791225,2754.4399120066855,4.488183334590902,5.5,160,9,1,-6,26,-12,-0.36299999999999993,5.1370000000000005,5.8629999999999995,-0.4093282003644464,0.4145113667504431,-7.115054158182005e-05,-0.0067499463373636975,0.018393922855664328,9.790294335569714
5.376,0,4,1,12.094757077012089,2766.5346690836977,-1.6660280347791367,5.5,160,9,1,3,29,9,0.5235,6.0235,4.9765,-0.4107862287825328,0.41771514709892416,-7.061577145540607e-05,0.0019279467724812361,-0.07241948548835488,9.83337356195929
5.408,0,4,1,10.512627169921368,2777.047296253619,-1.5821299070907209,5.5,160,9,1,8,37,5,0.9225,6.28,4.5775,-0.4122735614776152,0.420907068341277,-7.079872200045981e-05,-0.0028869935963294255,0.022436696121038924,9.810834511381012
5.44,0,4,1,18.08344538304867,2795.1307416366676,7.570818213127302,5.5,160,9,1,-9,28,-17,-0.618,4.882,6.118,-0.4137024485696799,0.4240764595039572,-7.116970712482684e-05,-0.05731319388972581,-0.052004643099898745,9.79363976731831
5.472,0,4,1,15.403424962469613,2810.5341665991373,-2.6800204205790568,5.5,160,9,1,5,33,14,0.7485,6.2485,4.7515,-0.41508345272961666,0.4273131152065084,-7.055176590434718e-05,0.027955448218177366,-0.0776133619314544,9.806584770022361
5.5040000000000004,0,4,1,15.403424962469613,2825.937591561607,0.0,5.5,160,9,1,0,33,-5,0.2025,5.7025,5.2975,-0.41651572385823077,0.4305306005990997,-7.119328426741754e-05,-0.007749343323300096,0.044796840428899046,9.854098237551495
5.5360000000000005,0,4,1,17.5535448263399,2843.491136387947,2.1501198638702856,5.5,160,9,1,-3,30,-3,-0.026999999999999996,5.473,5.527,-0.41788950339925013,0.4337708098052158,-7.141676443352118e-05,-0.010175841846049303,-0.07013668670783925,9.82981929209854
5.5680000000000005,0,4,1,15.945395900922858,2859.43653228887,-1.6081489254170407,5.5,160,9,1,6,36,9,0.8009999999999999,6.28,4.699,-0.41924788336657326,0.43701792798042427,-7.1438740682786e-05,-0.006992419986002819,-0.025570318386083136,9.85115530624958
5.6000000000000005,0,4,1,14.858614447924657,2874.2951467367943,-1.086781452998201,5.5,160,9,1,7,43,1,0.8565,6.28,4.6434999999999995,-0.4206079240050413,0.44025868995389017,-7.21256695810548e-05,-0.011348284724305302,-0.005508488951894891,9.832791824646854
5.632,0,4,1,22.203478532057403,2896.498625268852,7.344864084132746,5.5,160,9,1,-9,34,-16,-0.564,4.936,6.064,-0.4219001016272844,0.44350781538161904,-7.279952717568171e-05,-0.021040494032352367,-0.07477062225763101,9.81879335643342
5.664,0,4,1,21.700536739317474,2918.1991620081694,-0.5029417927399287,5.5,160,9,1,3,37,12,0.6104999999999999,6.1105,4.8895,-0.4231368970044128,0.44680143638559233,-7.211988092841425e-05,0.01915572203023184,-0.07650966753975343,9.851068645545904
5.696,0,4,1,20.684080267946797,2938.883242276116,-1.0164564713706774,5.5,160,9,1,6,43,3,0.7995,6.28,4.7005,-0.4244212642993264,0.4500810928794545,-7.281203514067705e-05,0.00603261464134882,0.03742498864955624,9.77661694601633
5.728,0,4,1,20.1706534118504,2959.0538956879664,-0.5134268560963982,5.5,160,9,1,7,50,1,0.909,6.28,4.591,-0.42565609012905814,0.45337162991444274,-7.366963924117752e-05,-0.0046969064421779,-0.060895706385887295,9.799900578454336
5.76,0,4,1,22.988716802080624,2982.042612490047,2.8180633902302255,5.5,160,9,1,0,50,-7,0.312,5.812,5.188,-0.4268173435939181,0.4566529071359341,-7.471518291738734e-05,-0.03862376402303579,-0.077375828159964,9.82985987810588
5.792,0,4,1,28.40524643347077,3010.4478589235177,5.416529631390144,5.5,160,9,1,-6,44,-6,-0.174,5.326,5.674,-0.42792505946687465,0.4599921006772454,-7.522625693186756e-05,0.03244475456806708,-0.08014731436325272,9.81834322659472
5.824,0,4,1,30.439724380643128,3040.8875833041607,2.034477947172359,5.5,160,9,1,1,45,7,0.4755,5.9755,5.0245,-0.4290104053000871,0.46333920682253754,-7.487015435944655e-05,-0.002724380581407206,-0.037073293832020335,9.839873839565088
5.856,0,4,1,31.639781555235523,3072.527364859396,1.200057174592395,5.5,160,9,1,4,49,3,0.6945,6.1945,4.8055,-0.43011206419128845,0.46668130571771704,-7.541206520528601e-05,-0.001156224489989894,0.0017992937796600982,9.790755211670717
5.888,0,4,1,33.146995832255996,3105.674360691652,1.5072142770204735,5.5,160,9,1,5,54,1,0.789,6.28,4.711,-0.4311773342486528,0.470034294040166,-7.517945065955121e-05,-0.0011853312822262666,-0.052491703217149153,9.836063306175163
5.92,0,4,1,34.75591255354137,3140.4302732451933,1.6089167212853752,5.5,160,9,1,5,59,0,0.8175,6.28,4.6825,-0.43218722267090987,0.4734025964268778,-7.507393681319315e-05,-0.0012097116270680208,-0.07173849851070455,9.767145290073016
5.952,0,4,1,37.79394299861673,3178.22421624381,3.038030445075357,5.5,160,9,1,4,63,-1,0.7635,6.2635,4.7365,-0.43313232231823234,0.4767810814649447,-7.502953580340067e-05,-0.007228975499004146,-0.07927366071991673,9.797290299047855
5.984,0,4,1,41.268603000839555,3219.4928192446496,3.4746600022228264,5.5,160,9,1,3,66,-1,0.711,6.211,4.789,-0.43401686569003983,0.4801883212331114,-7.499188064935026e-05,0.012612267390239257,-0.08128394486076773,9.748807532295274
6.016,0,4,1,45.29083902235055,3264.783658267,4.022236021510999,5.5,160,9,1,2,68,-1,0.651,6.151,4.849,-0.43484035976800034,0.48360992744640985,-7.49168935147166e-05,1.3373736870585661e-05,-0.07853822893202712,9.80006761939929
6.048,0,4,1,49.06631877480598,3313.849977041806,3.775479752455425,5.5,160,9,1,1,69,-1,0.5834999999999999,6.0835,4.9165,-0.4356072237837213,0.4870429877880788,-7.475060831451698e-05,-0.000855548967075685,-0.07504651378480502,9.80351711152528
6.08,0,4,1,50.63068275763526,3364.4806597994416,1.5643639828292848,5.5,160,9,1,9,78,8,1.3319999999999999,6.28,4.168,-0.4363225714415625,0.49048490042293375,-7.443989927218529e-05,-0.0015367127707094288,-0.07053503028023723,9.802128753968033
6.112,0,4,1,51.39895662736892,3415.8796164268106,0.7682738697336546,5.5,160,9,1,11,89,2,1.5105,6.28,3.9895,-0.4369581172949046,0.4937690134796475,-7.498731237804389e-05,-0.1662484509571997,-0.07058224148128002,9.79563560823998
6.144,0,4,1,53.2758928270752,3469.1555092538856,1.8769361997062788,5.5,160,9,1,7,96,-4,1.209,6.28,4.291,-0.4375032289740796,0.49701489444700486,-7.576057922544129e-05,-0.05016467497185124,-0.10192791323654263,9.84839962741664
6.176,0,4,1,55.00797980144134,3524.163489055327,1.7320869743661405,5.5,160,9,1,8,104,1,1.3889999999999998,6.28,4.111000000000001,-0.4379704005050793,0.5003371242357258,-7.634129088211587e-05,0.06451538734072482,-0.1071482437184355,9.84850126087986
6.208,0,4,1,56.78818329910763,3580.9516723544343,1.7802034976662924,5.5,160,9,1,8,112,0,1.44,6.28,4.0600000000000005,-0.43833227720016477,0.503364554553771,-7.720740670607955e-05,-0.2975221496065905,-0.09328779273045798,9.821011590949022
6.24,0,4,1,75,3655.9516723544343,18.21181670089237,5.5,160,9,1,23,135,15,2.8724999999999996,6.28,2.6275000000000004,-0.4385910398831916,0.5059508509626512,-7.815729155525968e-05,-0.43742175538996286,-0.07665271094055748,9.822008866196441
6.272,0,4,1,75,3730.9516723544343,0,5.5,160,9,1,25,160,2,3.093,6.28,2.407,-0.4387563516652232,0.5076254115125468,-8.053871091047785e-05,-0.8888233642413532,-0.01747372693799107,9.784819329141618
6.304,0,4,1,75,3805.9516723544343,0,5.5,160,9,1,26,186,1,3.3539999999999996,6.28,2.1460000000000004,-0.4389327784714122,0.5093481375840464,-8.245906731113584e-05,0.04750252017875192,-0.016964060718171185,9.787227392391905
6.336,0,4,1,75,3880.9516723544343,0,5.5,160,9,1,32,218,6,4.089,6.28,1.4109999999999996,-0.4391371154702321,0.5114517271160909,-8.382307636194825e-05,0.37406522495429584,-0.022867994240802755,9.799080272463286
6.368,0,4,1,75,3955.9516723544343,0,5.5,160,9,1,16,234,-16,2.811,6.28,2.689,-0.4393127122245929,0.5139122722852781,-8.525236287784677e-05,0.3466646732366867,-0.056109853872986594,9.846125054148326
6.4,0,4,1,75,4030.9516723544343,0,5.5,160,9,1,16,250,0,3.075,6.28,2.425,-0.43935212098422316,0.5167979779793672,-8.608447163547216e-05,0.41831594838285746,-0.1457514437311881,9.821464084581422
6.432,0,4,1,75,4105.951672354435,0,5.5,160,9,1,24,274,8,3.9269999999999996,6.28,1.5730000000000004,-0.4392911290583482,0.5184208740047274,-8.802993713654707e-05,-1.2285993133226625,-0.14609162305895987,9.784450843399199
6.464,0,4,1,75,4180.951672354435,0,5.5,160,9,1,29,303,5,4.4925,6.28,1.0075000000000003,-0.43924637864808613,0.5193817536347851,-9.102859387888525e-05,-0.6480862554295255,-0.01770417524841606,9.833191061527828
6.496,0,4,1,75,4255.951672354435,0,5.5,160,9,1,32,335,3,4.9395,6.28,0.5605000000000002,-0.43921549610642646,0.5199977598313837,-9.387137516340266e-05,-0.3359893359895614,-0.013182861927965295,9.82665687242152
6.5280000000000005,0,4,1,75,4330.951672354435,0,5.5,160,9,1,33,368,1,5.244,6.28,0.2560000000000002,-0.4391946094309495,0.5203392084112517,-9.586912112338579e-05,-0.26841164678619256,-0.014955041567887992,9.806354117844627
6.5600000000000005,0,4,1,75,4405.951672354435,0,5.5,160,9,1,32,400,-1,5.391,6.28,0.10899999999999999,-0.43917983377029085,0.5205256104587743,-9.673488699906731e-05,-0.15240790132571033,-0.015913116832748347,9.807415814278414
6.5920000000000005,0,4,1,75,4480.951672354435,0,5.5,160,9,1,22,422,-10,4.725,6.28,0.7750000000000004,-0.4391502810492535,0.5216426859654867,-9.647985516089523e-05,0.9066742751375104,0.018217096435909977,9.78432502468404
6.6240000000000006,0,4,1,75,4555.951672354435,0,5.5,160,9,1,11,433,-11,3.9734999999999996,6.28,1.5265000000000004,-0.4390150075366908,0.5239002033679899,-9.557559175554786e-05,1.1208384773142395,0.011117299538381236,9.797822798502233
6.656000000000001,0,4,1,75,4630.951672354435,0,5.5,160,9,1,10,443,-1,4.0634999999999994,6.28,1.4365000000000006,-0.4386994934372082,0.5263982377637674,-9.529089204984506e-05,0.2613382430962952,-0.14964921669477638,9.799960073704817
6.688,0,4,1,75,4705.951672354435,0,5.5,160,9,1,9,452,-1,4.055999999999999,6.28,1.4440000000000008,-0.43845797729139785,0.5276204098643439,-9.661997978878921e-05,-1.236649544917601,-0.1716603752322568,9.783397072833157
6.72,0,4,1,75,4780.951672354435,0,5.5,160,9,1,18,470,9,4.956,6.28,0.5439999999999996,-0.43829044585351645,0.5283593238726982,-9.913345745518089e-05,-0.47664274718956656,-0.029124638171041738,9.84215509553194
6.752,0,4,1,75,4855.951672354435,0,5.5,160,9,1,22,492,4,5.3759999999999994,6.28,0.12400000000000055,-0.438236447738484,0.5285174484258958,-0.00010177856788841366,-0.5780514730678198,-0.00488521351543155,9.840326473500662
6.784,0,4,1,75,4930.951672354435,0,5.5,160,9,1,22,514,0,5.505,6.28,-0.004999999999999893,-0.4382108277617977,0.5285703793339094,-0.00010348010769486125,-0.10699130967580199,-0.008479573734181886,9.828444766423411
6.816,0,4,1,75,5005.951672354435,0,5.5,160,9,1,22,536,0,5.67,6.28,-0.16999999999999993,-0.4381985293493751,0.5285694776463867,-0.00010385210474233436,-0.054534623513493335,-0.014410184645513845,9.769607450195753
6.848,0,4,1,75,5080.951672354435,0,5.5,160,9,1,21,557,-1,5.7435,6.28,-0.24350000000000005,-0.4381947743747212,0.5285316073643245,-0.00010299926524305614,-0.03738405352285143,-0.015513846821838486,9.755315851014084
6.88,0,4,1,75,5155.951672354435,0,5.5,160,9,1,7,564,-14,4.629,6.28,0.8710000000000004,-0.43786385291889757,0.5303966209261401,-0.00010118650924156175,1.8819034582038539,0.12118240312840263,9.782623150847389
6.912,0,4,1,75,5230.951672354435,0,5.5,160,9,1,-9,555,-16,3.3434999999999997,6.28,2.1565000000000003,-0.43729726130218827,0.5326276575912267,-9.950614920131891e-05,0.40938808555591066,-0.1281151341199007,9.844780101096708
6.944,0,4,1,75,5305.951672354435,0,5.5,160,9,1,-2,553,7,4.0605,6.28,1.4394999999999998,-0.43645748405321105,0.5350431647026007,-9.93917867735273e-05,0.2601086125299146,-0.2036430596544045,9.821280253801165
6.976,0,4,1,75,5380.951672354435,0,5.5,160,9,1,3,556,5,4.4399999999999995,6.28,1.0600000000000005,-0.4361813804085713,0.5356529412111711,-0.00010220214462754867,-1.8437021373906897,-0.0906609953082728,9.807467449133913
7.008,0,4,1,75,5455.951672354435,0,5.5,160,9,1,6,562,3,4.692,6.28,0.8079999999999998,-0.4360197323985655,0.5359708280341497,-0.00010466555559699754,-0.3061094376721382,-0.004830083327457897,9.797677538689928
7.04,0,4,1,75,5530.951672354435,0,5.5,160,9,1,8,570,2,4.892999999999999,6.28,0.6070000000000011,-0.43589961807097705,0.5362131662342831,-0.00010654765801026457,-0.08332819622247349,-0.0036265996282848685,9.804430336965966
7.072,0,4,1,75,5605.951672354435,0,5.5,160,9,1,9,579,1,5.0265,6.28,0.4734999999999996,-0.43578808151013143,0.5364777718812664,-0.00010707317866168013,0.01769217781698853,-0.004166289072325783,9.824687055182022
7.104,0,4,1,75,5680.951672354435,0,5.5,160,9,1,9,588,0,5.085,6.28,0.41500000000000004,-0.4356807556967879,0.5367618474733301,-0.00010612125293084883,0.016566960505043988,-0.008553990614273872,9.817137666327971
7.136,0,4,1,75,5755.951672354435,0,5.5,160,9,1,2,590,-7,4.5120000000000005,6.28,0.9879999999999995,-0.4350140865380849,0.5385353225152434,-0.00010394821682683034,1.545385337385958,0.01882893654190518,9.762806793849252
7.168,0,4,1,75,5830.951672354435,0,5.5,160,9,1,-8,582,-10,3.6750000000000003,6.28,1.8249999999999997,-0.43413762696393576,0.5406965168090538,-0.00010172945975625049,0.4335568309625115,-0.039317906738645665,9.837807933246898
7.2,0,4,1,62.768748852738874,5893.720421207174,-12.231251147261126,5.5,160,9,1,-18,564,-10,2.79,6.28,2.71,-0.433055230598534,0.5429372141544723,-0.00010086832707044066,0.1650270505690701,-0.1551620974129647,9.778956719048164
7.232,0,4,1,75,5968.720421207174,12.231251147261126,5.5,160,9,1,-3,561,15,4.1175,6.28,1.3825000000000003,-0.4324551576538284,0.5439628798516168,-0.00010290869313551304,-1.262252408969427,-0.14510144734362693,9.80764880107763
7.264,0,4,1,75,6043.720421207174,0,5.5,160,9,1,5,566,8,4.692,6.28,0.8079999999999998,-0.43213307022315994,0.5444777428503199,-0.00010466591863889096,-0.5677094737949835,-0.0006604960433810035,9.77170233778715
7.296,0,4,1,75,6118.720421207174,0,5.5,160,9,1,9,575,4,5.023499999999999,6.28,0.4765000000000006,-0.431943470708608,0.5447779599338434,-0.00010591948527303996,-0.2450696666772463,0.003935678033922327,9.822041423641254
7.328,0,4,1,75,6193.720421207174,0,5.5,160,9,1,11,586,2,5.2379999999999995,6.28,0.26200000000000045,-0.4318294866212804,0.5449528378656637,-0.00010599862818799592,-0.14362745307978186,-0.006352420568606398,9.776224768833751
7.36,0,4,1,75,6268.720421207174,0,5.5,160,9,1,6,592,-5,4.845,6.28,0.6550000000000002,-0.43150329754481725,0.5455836760590913,-0.00010480799947390831,0.4922230540321161,0.004701208677782101,9.771464040478694
7.392,0,4,1,60.57254359681026,6329.292964803984,-14.427456403189737,5.5,160,9,1,0,592,-6,4.385999999999999,6.28,1.1140000000000008,-0.4305523026755751,0.5474049963075756,-0.00010281471869768785,1.3098384948406747,0.07033617268569423,9.800654961622131
7.424,0,4,1,59.83270438961559,6389.1256691936,-0.7398392071946702,5.5,160,9,1,-12,580,-12,3.3419999999999996,6.28,2.1580000000000004,-0.42937407205067646,0.5493013978608527,-0.00010132328597351782,0.18887575960605635,-0.15518341459798335,9.806035012954576
7.456,0,4,1,60.06023585081917,6449.185905044419,0.2275314612035757,5.5,160,9,1,-5,575,7,4.0005,6.28,1.4995000000000003,-0.4288299949668772,0.5500131689420823,-0.00010282499181642028,-1.3091452271758686,-0.1543328923283192,9.820053916903317
7.488,0,4,1,60.13583550374805,6509.321740548167,0.07559965292887938,5.5,160,9,1,2,577,7,4.5405,6.28,0.9595000000000002,-0.42843246778819155,0.5505000857152115,-0.00010392212751008344,-0.26327543081114496,-0.019082751137491725,9.810715989709434
7.5200000000000005,0,4,1,75,6584.321740548167,14.864164496251952,5.5,160,9,1,7,584,5,4.95,6.28,0.5499999999999998,-0.42817887323857007,0.5508139902925974,-0.00010468287737524021,-0.21923500667530332,0.008137582047126099,9.795955499774196
7.5520000000000005,0,4,1,75,6659.321740548167,0,5.5,160,9,1,10,594,3,5.232,6.28,0.2679999999999998,-0.4280401516499352,0.5509983871727565,-0.00010440219209373325,-0.16726658716477313,0.008385624002382498,9.808032496821035
7.5840000000000005,0,4,1,60.37094559280718,6719.692686140975,-14.629054407192818,5.5,160,9,1,-10,584,-20,3.4499999999999997,6.28,2.0500000000000003,-0.42697276567241027,0.5525264748669833,-0.00010294748888316566,1.5951788561173919,0.04246723435047926,9.835911288738393
7.6160000000000005,0,4,1,58.76521531200765,6778.457901452983,-1.6057302807995342,5.5,160,9,1,-9,575,1,3.6465,6.28,1.8535,-0.42543639672732336,0.5545729994168893,-0.0001013241842071095,0.6841133211545881,-0.04410614036650069,9.859710288965164
7.648000000000001,0,4,1,57.30392355405991,6835.761825007043,-1.4612917579477411,5.5,160,9,1,-12,563,-3,3.2955,6.28,2.2045,-0.4238271484790399,0.5564798356607012,-0.00010098333605276961,-0.05066457823784492,-0.16107562823912175,9.805805458370294
7.68,0,4,1,56.864390451281125,6892.626215458324,-0.4395331027787819,5.5,160,9,1,0,563,12,4.3305,6.28,1.1695000000000002,-0.4232126025407777,0.5570892950171299,-0.00010324695582794932,-1.5993838984539304,-0.13640063209683603,9.834565564035808
7.712,0,4,1,56.77802483328855,6949.404240291612,-0.08636561799257692,5.5,160,9,1,6,569,6,4.7715000000000005,6.28,0.7284999999999995,-0.4228844520410725,0.5574132974935092,-0.00010515227544644588,-0.39481882177704375,0.00870784785916245,9.848427566031958
7.744,0,4,1,56.21491468465357,7005.619154976265,-0.5631101486349763,5.5,160,9,1,10,579,4,5.1285,6.28,0.37150000000000016,-0.4226783750548132,0.5576162764989213,-0.00010640504107286078,-0.1677994412422293,-0.0057068744310405034,9.81085278854549
7.776,0,4,1,56.309932474020215,7061.929087450286,0.09501778936664351,5.5,160,9,1,12,591,2,5.350499999999999,6.28,0.14950000000000063,-0.4225698709392585,0.5577230016543061,-0.00010641378848562366,-0.13375982373791173,-0.007554655836436198,9.83273254867454
7.808,0,4,1,55.64921965924494,7117.578307109531,-0.6607128147752732,5.5,160,9,1,7,598,-5,4.965,6.28,0.5350000000000001,-0.4220685059329286,0.5582842669198878,-0.00010511223572975265,0.5854980872071767,-0.0035211811565498156,9.836073305733379
7.84,0,4,1,54.97992114574456,7172.558228255276,-0.6692985135003795,5.5,160,9,1,-6,592,-13,3.8729999999999993,6.28,1.6270000000000007,-0.4207177164246751,0.5597716584953895,-0.00010305924155874432,1.2283960453501992,0.06285275528475884,9.813265868638556
7.872,0,4,1,53.05910390287096,7225.617332158147,-1.9208172428736034,5.5,160,9,1,-14,578,-8,3.213,6.28,2.287,-0.4189672919708071,0.5614280725052003,-0.00010157333243892425,0.405326777500233,-0.14348350011096583,9.87378588704493
7.904,0,4,1,53.765128094207114,7279.382460252355,0.7060241913361551,5.5,160,9,1,-3,575,11,4.1865000000000006,6.28,1.3134999999999994,-0.41822726569694024,0.5620119769259054,-0.00010305613802452998,-1.4475335961751365,-0.14796697008449392,9.81362224313324
7.936,0,4,1,53.765128094207114,7333.147588346562,0.0,5.5,160,9,1,4,579,7,4.7055,6.28,0.7945000000000002,-0.4178199043486601,0.5623738977579812,-0.0001041147256710482,-0.3880237539592626,0.03951622939546875,9.818937096174343
7.968,0,4,1,53.55555824341289,7386.7031465899745,-0.20956985079422452,5.5,160,9,1,8,587,4,5.038499999999999,6.28,0.4615000000000009,-0.41757195247129203,0.5625930233374629,-0.00010477235118350539,-0.20873660819016324,-0.01529671859251879,9.830461963216562
8.0,0,4,1,53.417657177013155,7440.120803766988,-0.13790106639973487,5.5,160,9,1,10,597,2,5.2455,6.28,0.25450000000000017,-0.41735400611702944,0.5627707815078885,-0.00010439550673620353,-0.049134358747129334,-0.027607949209012085,9.8192787145031
8.032,0,4,1,51.571922654315884,7491.692726421304,-1.8457345226972706,5.5,160,9,1,-7,590,-17,3.747,6.28,1.7530000000000001,-0.41595591810347793,0.5640378187414261,-0.0001029381373735018,1.5518055187790796,0.1016032413804063,9.821318632701063
