Time,SetPointAngle,SensorAngleRow,SensorAngleWidth,Angle,IntegralAngle,DeltaAngle,BaseSpeed,SetPointError,SensorErrorRow,SensorErrorWidth,Error,IntegralError,DeltaError,DeltaSpeed,LeftSpeed,RightSpeed,X,Y,Z,Roll,Pitch,Yaw
0.032,0,4,1,0.5729386976839008,0.5729386976839008,0.5729386976839008,5,160,9,1,0,0,0,0.0,5.0,5.0,-0.561500000000001,0.12999999999999848,-6.397066024614768e-05,-4.362072260548527e-07,1.0325598529030157e-07,9.779364405955523
0.064,0,4,1,0.5729386976839008,1.1458773953678016,0.0,5,160,9,1,0,0,0,0.0,5.0,5.0,-0.5614999967390569,0.12680109296498546,-3.263869481305581e-05,3.757949765292576,8.897182491851182e-08,9.645127453368794
0.096,0,4,1,0.5729386976839008,1.7188160930517025,0.0,5,160,9,1,0,0,0,0.0,5.0,5.0,-0.5614999947000866,0.1236003150930616,-6.0605261534514565e-05,0.31919018330982585,-1.8210926472943523e-06,9.729227442966424
0.128,0,4,1,0.5729386976839008,2.2917547907356033,0.0,5,160,9,1,0,0,0,0.0,5.0,5.0,-0.5614999911226087,0.12040014458699926,-7.257729060829166e-05,-0.01721441451878732,1.0166537079545206e-06,9.854175329348381
0.16,0,4,1,0.5729386976839008,2.864693488419504,0.0,5,160,9,1,0,0,0,0.0,5.0,5.0,-0.5614999889363261,0.11720022556427807,-6.72585632749672e-05,0.14824921209386632,-1.778999200070388e-06,9.844176185808506
0.192,0,4,1,0.5729386976839008,3.4376321861034045,0.0,5,160,9,1,0,0,0,0.0,5.0,5.0,-0.5614999867967564,0.11400028608187225,-6.71431166429301e-05,0.06788146197355184,-5.386634363600062e-07,9.797799246130214
0.224,0,4,1,0.5729386976839008,4.010570883787305,0.0,5,160,9,1,0,0,0,0.0,5.0,5.0,-0.5614999830096898,0.11080031163524726,-6.704587916987227e-05,-0.016631262475407426,1.2122607838718677e-06,9.816505092446047
0.256,0,4,1,0.5729386976839008,4.583509581471206,0.0,5,160,9,1,0,0,0,0.0,5.0,5.0,-0.5614999807239675,0.10760033650091558,-6.608096956121044e-05,-0.016656117488314876,-1.7548905638152157e-06,9.791127606025825
0.28800000000000003,0,4,1,0.5729386976839008,5.156448279155106,0.0,5,160,9,1,0,0,0,0.0,5.0,5.0,-0.5614999771061885,0.10440035409361383,-6.565446913056952e-05,-0.01543732874402672,1.0676984235153004e-06,9.789620637530618
0.32,0,4,1,0.5729386976839008,5.729386976839007,0.0,5,160,9,1,0,0,0,0.0,5.0,5.0,-0.5614999735657258,0.10120036817207284,-6.53170767266776e-05,-0.013467841601470612,-2.6323200206541807e-07,9.775886405608317
0.352,0,4,1,0.5729386976839008,6.3023256745229075,0.0,5,160,9,1,0,0,0,0.0,5.0,5.0,-0.5614999700863457,0.09800037944032837,-6.504949055848204e-05,-0.01063105426715202,-2.14021948899211e-07,9.859748669899314
0.384,0,4,1,0.5729386976839008,6.875264372206808,0.0,5,160,9,1,0,0,0,0.0,5.0,5.0,-0.5614999666549922,0.09480038846152493,-6.483626774824239e-05,-0.007155804284490888,-1.7314086769748748e-07,9.803599422945894
0.41600000000000004,0,4,1,0.5729386976839008,7.448203069890709,0.0,5,160,9,1,0,0,0,0.0,5.0,5.0,-0.561499963261198,0.09160039568665107,-6.466485946584125e-05,-0.0032383530450812814,-1.423416548381769e-07,9.87827447545933
0.448,0,4,1,0.5729386976839008,8.02114176757461,0.0,5,160,9,1,0,0,0,0.0,5.0,5.0,-0.5614999598965751,0.0884004014771112,-6.452542485566211e-05,0.0008565859819960178,-1.1853598758985513e-07,9.752616641163263
0.48,0,4,1,0.5729386976839008,8.59408046525851,0.0,5,160,9,1,0,0,0,0.0,5.0,5.0,-0.5614999565544129,0.08520040612227628,-6.441063656838567e-05,0.004862345516738243,-9.984348140901785e-08,9.735781464282997
0.512,0,4,1,0.5729386976839008,9.167019162942411,0.0,5,160,9,1,0,0,0,0.0,5.0,5.0,-0.5614999532293571,0.08200040985313391,-6.431539701652611e-05,0.008677764954216429,-8.52305710329046e-08,9.744653754932358
0.544,0,4,1,0.5729386976839008,9.739957860626312,0.0,5,160,9,1,0,0,0,0.0,5.0,5.0,-0.5614999499171557,0.0788004128531563,-6.423643166070941e-05,0.011898206093746493,-7.36132747723789e-08,9.852054266315601
0.5760000000000001,0,4,1,0.5729386976839008,10.312896558310213,0.0,5,160,9,1,0,0,0,0.0,5.0,5.0,-0.5614999466144567,0.07560041526733169,-6.417177467285366e-05,0.014410621451245565,-6.353973685468608e-08,9.81401302455402
0.608,0,4,1,0.5729386976839008,10.885835255994113,0.0,5,160,9,1,0,0,0,0.0,5.0,5.0,-0.5614999434333634,0.07240041741577467,-6.411852076249579e-05,0.014384844335814719,-1.6386065459007815e-07,9.845506378998694
0.64,0,4,1,0.5729386976839008,11.458773953678014,0.0,5,160,9,1,0,0,0,0.0,5.0,5.0,-0.5614999401126024,0.06920041894011683,-6.408547721684262e-05,0.013470219176152745,9.482815364843147e-08,9.80224299677744
0.672,0,4,1,0.5729386976839008,12.031712651361914,0.0,5,160,9,1,0,0,0,0.0,5.0,5.0,-0.5614999368002696,0.06600042015818709,-6.406149778470129e-05,0.011746892274103877,-4.5590792389258095e-08,9.789060980149069
0.704,0,4,1,0.5729386976839008,12.604651349045815,0.0,5,160,9,1,0,0,0,0.0,5.0,5.0,-0.5614999334943067,0.0628004211292555,-6.404409654867105e-05,0.00939729394251514,-4.0541037270234156e-08,9.826779270601467
0.736,0,4,1,0.5729386976839008,13.177590046729716,0.0,5,160,9,1,0,0,0,0.0,5.0,5.0,-0.56149993019316,0.059600421900941856,-6.403087703321653e-05,0.006346991257374623,-3.522196885240491e-08,9.793391614929739
0.768,0,4,1,0.5729386976839008,13.750528744413616,0.0,5,160,9,1,0,0,0,0.0,5.0,5.0,-0.5614999268956969,0.05640042251124875,-6.401975740967167e-05,0.0030222406253422483,-3.0205629363134324e-08,9.824292777062746
0.8,0,4,1,0.5729386976839008,14.323467442097517,0.0,5,160,9,1,0,0,0,0.0,5.0,5.0,-0.5614999236011313,0.05320042299038859,-6.4009200502195e-05,-0.000501383457596832,-2.5083694010521754e-08,9.87198792434035
0.8320000000000001,0,4,1,0.5729386976839008,14.896406139781417,0.0,5,160,9,1,0,0,0,0.0,5.0,5.0,-0.5614999203089573,0.05000042336256429,-6.399836764201493e-05,-0.004010135968146882,-2.031690519308277e-08,9.842130225176069
0.864,0,4,1,0.5729386976839008,15.469344837465318,0.0,5,160,9,1,0,0,0,0.0,5.0,5.0,-0.5614999170188953,0.046800423647649275,-6.398714975108799e-05,-0.007274951204513449,-1.5480392197254058e-08,9.818117959041354
0.896,0,4,1,0.5729386976839008,16.04228353514922,0.0,5,160,9,1,0,0,0,0.0,5.0,5.0,-0.5614999137308408,0.04360042386257447,-6.39760600337335e-05,-0.01011818494813012,-1.079854356298658e-08,9.798244418888936
0.928,0,4,1,0.5729386976839008,16.615222232833123,0.0,5,160,9,1,0,0,0,0.0,5.0,5.0,-0.5614999104448238,0.04040042402222906,-6.396600686217786e-05,-0.01239449620621885,-6.079092607720693e-09,9.8033870665148
0.96,0,4,1,0.5729386976839008,17.188160930517025,0.0,5,160,9,1,0,0,0,0.0,5.0,5.0,-0.5614999071609693,0.03720042413980748,-6.395799497702429e-05,-0.013806058105984648,-1.514339632106036e-09,9.804797938398009
0.992,0,4,1,0.5729386976839008,17.761099628200927,0.0,5,160,9,1,0,0,0,0.0,5.0,5.0,-0.5614999038794658,0.03400042422672383,-6.395282103698052e-05,-0.014388844495697155,2.886756065225306e-09,9.8148589531498
1.024,0,4,1,0.5729386976839008,18.33403832588483,0.0,5,160,9,1,0,0,0,0.0,5.0,5.0,-0.5614999006005349,0.03080042429235921,-6.39508317405238e-05,-0.014277546220903459,7.065467584173733e-09,9.86601661914446
1.056,0,4,1,0.5729386976839008,18.906977023568732,0.0,5,160,9,1,0,0,0,0.0,5.0,5.0,-0.5614998973244072,0.02760042434393407,-6.395179870342764e-05,-0.013221288520829383,1.0950840594432918e-08,9.765196611843526
1.088,0,4,1,0.5729386976839008,19.479915721252635,0.0,5,160,9,1,0,0,0,0.0,5.0,5.0,-0.5614998940513004,0.024400424386688685,-6.395493734322188e-05,-0.01132692017252966,1.4441381316321227e-08,9.856217052676191
1.12,0,4,1,0.5729386976839008,20.052854418936537,0.0,5,160,9,1,0,0,0,0.0,5.0,5.0,-0.561499890781402,0.021200424424364355,-6.395906359423463e-05,-0.008867877837847303,1.7510243312076274e-08,9.833420112641013
1.1520000000000001,0,4,1,0.5729386976839008,20.62579311662044,0.0,5,160,9,1,0,0,0,0.0,5.0,5.0,-0.5614998875148538,0.018000424459801326,-6.396285017680643e-05,-0.005803010267335972,2.002505186287736e-08,9.846195099187232
1.184,0,4,1,0.5729386976839008,21.19873181430434,0.0,5,160,9,1,0,0,0,0.0,5.0,5.0,-0.561499884251742,0.014800424495397878,-6.396512102749448e-05,-0.0024115561341885193,2.212682921375822e-08,9.841697371723676
1.216,0,4,1,0.5729386976839008,21.771670511988244,0.0,5,160,9,1,0,0,0,0.0,5.0,5.0,-0.5614998809920875,0.011600424533241515,-6.396511371962836e-05,0.0011295311422046823,2.3469287060281325e-08,9.814322240058067
1.248,0,4,1,0.5729386976839008,22.344609209672146,0.0,5,160,9,1,0,0,0,0.0,5.0,5.0,-0.5614998777358419,0.00840042457489334,-6.396264742500671e-05,0.004610932855539358,2.4138889401452188e-08,9.802104087834438
1.28,0,4,1,0.5729386976839008,22.91754790735605,0.0,5,160,9,1,0,0,0,0.0,5.0,5.0,-0.5614998744828839,0.005200424620989952,-6.3958156331324e-05,0.007810361331554304,2.4497288746571177e-08,9.79364470691828
1.312,0,4,1,0.5729386976839008,23.49048660503995,0.0,5,160,9,1,0,0,0,0.0,5.0,5.0,-0.5614998712330213,0.0020004246709265606,-6.395258019359709e-05,0.010583972723132584,2.406221736258185e-08,9.809409477107636
1.344,0,4,1,0.5729386976839008,24.063425302723854,0.0,5,160,9,1,0,0,0,0.0,5.0,5.0,-0.5614998679859908,-0.0011995752771480274,-6.39471374028408e-05,0.01259520060891942,2.2733319532683832e-08,9.77007995118176
1.3760000000000001,0,4,1,0.5729386976839008,24.636364000407756,0.0,5,160,9,1,0,0,0,0.0,5.0,5.0,-0.561499864741466,-0.004399575225950777,-6.394303367353651e-05,0.013999089220459776,2.1046806401528704e-08,9.75649816660117
1.408,0,4,1,0.5729386976839008,25.20930269809166,0.0,5,160,9,1,0,0,0,0.0,5.0,5.0,-0.5614998614990613,-0.007599575178416649,-6.394117464675504e-05,0.01449443437742174,1.8905974306041013e-08,9.811649489001297
1.44,0,4,1,0.5729386976839008,25.78224139577556,0.0,5,160,9,1,0,0,0,0.0,5.0,5.0,-0.5614998582583419,-0.010799575137039672,-6.394194983794059e-05,0.014142244552915812,1.616978311672825e-08,9.84261413443162
1.472,0,4,1,0.5729386976839008,26.355180093459463,0.0,5,160,9,1,0,0,0,0.0,5.0,5.0,-0.561499855018835,-0.013999575103464043,-6.394513860921193e-05,0.012963374987630583,1.2911182475916801e-08,9.808549336837933
1.504,0,4,1,0.5729386976839008,26.928118791143365,0.0,5,160,9,1,0,0,0,0.0,5.0,5.0,-0.5614998517800375,-0.017199575078462703,-6.394996016411553e-05,0.010959228876707939,9.43679391785916e-09,9.810201609487613
1.536,0,4,1,0.5729386976839008,27.501057488827268,0.0,5,160,9,1,0,0,0,0.0,5.0,5.0,-0.5614998485414304,-0.02039957506224653,-6.39552557105405e-05,0.008381241174015144,5.732750529943719e-09,9.808351160988991
1.568,0,4,1,0.5729386976839008,28.07399618651117,0.0,5,160,9,1,0,0,0,0.0,5.0,5.0,-0.5614998453024916,-0.023599575054889264,-6.395975985673888e-05,0.00524171604890672,1.8340747822139057e-09,9.816667838009357
1.6,0,4,1,0.5729386976839008,28.646934884195073,0.0,5,160,9,1,0,0,0,0.0,5.0,5.0,-0.5614998420627085,-0.026799575056605688,-6.396239733172035e-05,0.001803690747357177,-2.1046038126107687e-09,9.79962675006766
1.6320000000000001,0,4,1,0.5729386976839008,29.219873581878975,0.0,5,160,9,1,0,0,0,0.0,5.0,5.0,-0.5614998388215899,-0.0299995750677107,-6.396253517093609e-05,-0.0017434450647491944,-6.00113216155668e-09,9.778564807443527
1.6640000000000001,0,4,1,0.5729386976839008,29.792812279562877,0.0,5,160,9,1,0,0,0,0.0,5.0,5.0,-0.5614998355786796,-0.03319957508827046,-6.396013099956889e-05,-0.005184372009982842,-9.747539682517663e-09,9.828376039798085
1.696,0,4,1,0.5729386976839008,30.36575097724678,0.0,5,160,9,1,0,0,0,0.0,5.0,5.0,-0.5614998323335683,-0.03639957511763001,-6.395574249648713e-05,-0.00830804213660948,-1.3291224345695317e-08,9.80704516711549
1.728,0,4,1,0.5729386976839008,30.938689674930682,0.0,5,160,9,1,0,0,0,0.0,5.0,5.0,-0.5614998290859022,-0.03959957515408303,-6.395039578451119e-05,-0.010986407525527733,-1.6427553861281917e-08,9.857422750376884
1.76,0,4,1,0.5729386976839008,31.511628372614584,0.0,5,160,9,1,0,0,0,0.0,5.0,5.0,-0.5614998258353944,-0.04279957519489115,-6.394534369393544e-05,-0.012884492993052306,-1.9068353838584934e-08,9.834471763749656
1.792,0,4,1,0.5729386976839008,32.08456707029848,0.0,5,160,9,1,0,0,0,0.0,5.0,5.0,-0.5614998225818306,-0.04599957523669006,-6.394177075598126e-05,-0.014025513515016283,-2.135168683734671e-08,9.791805671025008
1.824,0,4,1,0.5729386976839008,32.657505767982386,0.0,5,160,9,1,0,0,0,0.0,5.0,5.0,-0.5614998193250751,-0.04919957527613178,-6.39405143158956e-05,-0.014512731554585143,-2.303614891377296e-08,9.817250778025857
1.856,0,4,1,0.5729386976839008,33.23044446566629,0.0,5,160,9,1,0,0,0,0.0,5.0,5.0,-0.5614998160650749,-0.052399575310494245,-6.394186736775193e-05,-0.0140059751197591,-2.4219592545738474e-08,9.803643513595542
1.8880000000000001,0,4,1,0.5729386976839008,33.80338316335019,0.0,5,160,9,1,0,0,0,0.0,5.0,5.0,-0.5614998128018591,-0.05559957533800932,-6.394550949442683e-05,-0.012652974815829172,-2.476865449435056e-08,9.777833496499314
1.92,0,4,1,0.5729386976839008,34.37632186103409,0.0,5,160,9,1,0,0,0,0.0,5.0,5.0,-0.5614998095355405,-0.05879957535780262,-6.395058214266752e-05,-0.010607534457473138,-2.4503405625266296e-08,9.815104935464053
1.952,0,4,1,0.5729386976839008,34.949260558717995,0.0,5,160,9,1,0,0,0,0.0,5.0,5.0,-0.561499806266309,-0.06199957536953357,-6.39558905270194e-05,-0.007837752401483619,-2.3923778200021935e-08,9.80701816909086
1.984,0,4,1,0.5729386976839008,35.5221992564019,0.0,5,160,9,1,0,0,0,0.0,5.0,5.0,-0.5614998029944307,-0.06519957537296918,-6.39601846549858e-05,-0.004669971868481088,-2.257530881256521e-08,9.818226200990704
2.016,0,4,1,0.5729386976839008,36.0951379540858,0.0,5,160,9,1,0,0,0,0.0,5.0,5.0,-0.5614997997202373,-0.06839957536774662,-6.396245335401306e-05,-0.0011851502036627757,-2.0621967999223192e-08,9.81359652763902
2.048,0,4,1,0.5729386976839008,36.6680766517697,0.0,5,160,9,1,0,0,0,0.0,5.0,5.0,-0.5614997964441197,-0.07159957535346857,-6.396216212597484e-05,0.0023559607345025177,-1.8083661147086136e-08,9.743722280121734
2.08,0,4,1,0.5729386976839008,37.241015349453605,0.0,5,160,9,1,0,0,0,0.0,5.0,5.0,-0.5614997931665171,-0.07479957533008638,-6.395937886456877e-05,0.0057334284270154886,-1.5310909750938235e-08,9.803544601253014
2.112,0,4,1,0.5729386976839008,37.81395404713751,0.0,5,160,9,1,0,0,0,0.0,5.0,5.0,-0.5614997898879065,-0.07799957529836318,-6.395475785916233e-05,0.008871174887493383,-1.195227462082979e-08,9.786312722322668
2.144,0,4,1,0.5729386976839008,38.38689274482141,0.0,5,160,9,1,0,0,0,0.0,5.0,5.0,-0.5614997866087891,-0.08119957526015092,-6.394938584514988e-05,0.011400063848477469,-8.366927828521692e-09,9.760035010899012
2.176,0,4,1,0.5729386976839008,38.95983144250531,0.0,5,160,9,1,0,0,0,0.0,5.0,5.0,-0.5614997833296796,-0.08439957521829831,-6.39445263188286e-05,0.013202789621373102,-4.57358824289015e-09,9.789781511895509
2.208,0,4,1,0.5729386976839008,39.532770140189214,0.0,5,160,9,1,0,0,0,0.0,5.0,5.0,-0.5614997800510925,-0.08759957517618543,-6.394132227303083e-05,0.014242385525300539,-6.377623690490102e-10,9.810790828715954
2.24,0,4,1,0.5729386976839008,40.10570883787312,0.0,5,160,9,1,0,0,0,0.0,5.0,5.0,-0.561499776773528,-0.0907995751245045,-6.394026320373329e-05,0.014297916579297899,2.304128628681933e-09,9.80806732080938
2.2720000000000002,0,4,1,0.5729386976839008,40.67864753555702,0.0,5,160,9,1,0,0,0,0.0,5.0,5.0,-0.56149977349746,-0.09399957509378462,-6.394285461134262e-05,0.013397116711734634,6.34204127097676e-09,9.792022169087463
2.3040000000000003,0,4,1,0.5729386976839008,41.25158623324092,0.0,5,160,9,1,0,0,0,0.0,5.0,5.0,-0.5614997702233245,-0.09719957507020943,-6.394733331852379e-05,0.011718960128071351,1.0164800089159328e-08,9.783197521083897
2.336,0,4,1,0.5729386976839008,41.824524930924824,0.0,5,160,9,1,0,0,0,0.0,5.0,5.0,-0.5614997669515132,-0.10039957505439297,-6.395268569092498e-05,0.009321078754552183,1.3752620062328721e-08,9.782219931864676
2.368,0,4,1,0.5729386976839008,42.397463628608726,0.0,5,160,9,1,0,0,0,0.0,5.0,5.0,-0.5614997636823583,-0.10359957504661155,-6.395768609011171e-05,0.006403676660260064,1.6862561994931996e-08,9.781480983690996
2.4,0,4,1,0.5729386976839008,42.97040232629263,0.0,5,160,9,1,0,0,0,0.0,5.0,5.0,-0.5614997604161244,-0.10679957504716102,-6.396118499049121e-05,0.0030956299508962982,1.9449836539319396e-08,9.818985622115806
2.432,0,4,1,0.5729386976839008,43.54334102397653,0.0,5,160,9,1,0,0,0,0.0,5.0,5.0,-0.5614997571530013,-0.10999957505644982,-6.3962380759423e-05,-0.0004012703214171312,2.167350984248076e-08,9.78885623397594
2.464,0,4,1,0.5729386976839008,44.11627972166043,0.0,5,160,9,1,0,0,0,0.0,5.0,5.0,-0.5614997538930997,-0.11319957507476587,-6.396100932363341e-05,-0.0038717309911153654,2.335486417059042e-08,9.856291332617177
2.496,0,4,1,0.5729386976839008,44.689218419344336,0.0,5,160,9,1,0,0,0,0.0,5.0,5.0,-0.5614997506364477,-0.11639957510183936,-6.395740715105062e-05,-0.007181318547083255,2.428847575912895e-08,9.827494397071714
2.528,0,4,1,0.5729386976839008,45.26215711702824,0.0,5,160,9,1,0,0,0,0.0,5.0,5.0,-0.5614997473829897,-0.11959957513644569,-6.395243277292073e-05,-0.009935830847087695,2.4761632727196025e-08,9.802006983747765
2.56,0,4,1,0.5729386976839008,45.83509581471214,0.0,5,160,9,1,0,0,0,0.0,5.0,5.0,-0.5614997441325884,-0.12279957517628613,-6.394726534884355e-05,-0.012237367904946976,2.4436053108884823e-08,9.851490603069337
2.592,0,4,1,0.5729386976839008,46.40803451239604,0.0,5,160,9,1,0,0,0,0.0,5.0,5.0,-0.5614997408850285,-0.1259995752182525,-6.394312768425413e-05,-0.013682353072435777,2.3426007186086557e-08,9.81818452503065
2.624,0,4,1,0.5729386976839008,46.980973210079945,0.0,5,160,9,1,0,0,0,0.0,5.0,5.0,-0.5614997376400216,-0.12919957525899575,-6.394099889871913e-05,-0.014358118600062154,2.182259484499521e-08,9.797996697005308
2.656,0,4,1,0.5729386976839008,47.55391190776385,0.0,5,160,9,1,0,0,0,0.0,5.0,5.0,-0.5614997343972141,-0.13239957529556598,-6.394138435176361e-05,-0.014160074404923756,1.9789335460805336e-08,9.819608571301279
2.688,0,4,1,0.5729386976839008,48.12685060544775,0.0,5,160,9,1,0,0,0,0.0,5.0,5.0,-0.5614997311561967,-0.1355995753258597,-6.394419697463953e-05,-0.013096774632616357,1.715067077792914e-08,9.8333666481125
2.72,0,4,1,0.5729386976839008,48.69978930313165,0.0,5,160,9,1,0,0,0,0.0,5.0,5.0,-0.5614997279165145,-0.13879957534870713,-6.394877793388515e-05,-0.01134572041032266,1.4065269752442047e-08,9.7940671858343
2.7520000000000002,0,4,1,0.5729386976839008,49.272728000815555,0.0,5,160,9,1,0,0,0,0.0,5.0,5.0,-0.5614997246776786,-0.14199957536361468,-6.395405177568071e-05,-0.008887549303328402,1.0699766015594035e-08,9.788758333914563
2.7840000000000003,0,4,1,0.5729386976839008,49.84566669849946,0.0,5,160,9,1,0,0,0,0.0,5.0,5.0,-0.5614997214391804,-0.14519957537034722,-6.395877955852475e-05,-0.005851948310255138,7.095878532138027e-09,9.839730563102991
2.816,0,4,1,0.5729386976839008,50.41860539618336,0.0,5,160,9,1,0,0,0,0.0,5.0,5.0,-0.5614997182005013,-0.14839957536860543,-6.396185042635387e-05,-0.002493226908837063,3.2583663476135933e-09,9.76987886241607
2.848,0,4,1,0.5729386976839008,50.99154409386726,0.0,5,160,9,1,0,0,0,0.0,5.0,5.0,-0.5614997149611295,-0.15159957535799204,-6.39625430297712e-05,0.0010209494130847367,-6.83103778465044e-10,9.804145768294294
2.88,0,4,1,0.5729386976839008,51.564482791551164,0.0,5,160,9,1,0,0,0,0.0,5.0,5.0,-0.5614997117205706,-0.15479957533829528,-6.396069529885327e-05,0.004459122408200277,-4.595269059428818e-09,9.791723975415989
2.912,0,4,1,0.5729386976839008,52.13742148923507,0.0,5,160,9,1,0,0,0,0.0,5.0,5.0,-0.5614997084783605,-0.15799957530993872,-6.395674262150465e-05,0.007646068385028472,-8.427225359054378e-09,9.805662943733536
2.944,0,4,1,0.5729386976839008,52.71036018691897,0.0,5,160,9,1,0,0,0,0.0,5.0,5.0,-0.5614997052340771,-0.1611995752743449,-6.395161545402067e-05,0.010388745675816739,-1.2002092047116334e-08,9.82781107864241
2.976,0,4,1,0.5729386976839008,53.28329888460287,0.0,5,160,9,1,0,0,0,0.0,5.0,5.0,-0.5614997019873514,-0.1643995752339908,-6.394652045372401e-05,0.012524961413040393,-1.522979112303208e-08,9.837025692384106
3.008,0,4,1,0.5729386976839008,53.856237582286774,0.0,5,160,9,1,0,0,0,0.0,5.0,5.0,-0.5614996987378759,-0.1675995751920785,-6.394265661878971e-05,0.01383981889156918,-1.8123561863834676e-08,9.813173755292558
3.04,0,4,1,0.5729386976839008,54.429176279970676,0.0,5,160,9,1,0,0,0,0.0,5.0,5.0,-0.5614996954854116,-0.17079957515193536,-6.394093323371444e-05,0.014340504549125577,-2.0685353550450892e-08,9.791430222150568
3.072,0,4,1,0.5729386976839008,55.00211497765458,0.0,5,160,9,1,0,0,0,0.0,5.0,5.0,-0.5614996922297965,-0.1739995751163897,-6.394175596465164e-05,0.013913944608209538,-2.2629272654115566e-08,9.860122667053133
3.104,0,4,1,0.5729386976839008,55.57505367533848,0.0,5,160,9,1,0,0,0,0.0,5.0,5.0,-0.5614996889709473,-0.1771995750873793,-6.394493143550145e-05,0.01289480721248294,-2.389882715690674e-08,9.744941461848386
3.136,0,4,1,0.5729386976839008,56.14799237302238,0.0,5,160,9,1,0,0,0,0.0,5.0,5.0,-0.5614996857088627,-0.1803995750659312,-6.394971273407032e-05,0.010976399156222732,-2.4630845374145816e-08,9.76299709539073
3.168,0,4,1,0.5729386976839008,56.720931070706285,0.0,5,160,9,1,0,0,0,0.0,5.0,5.0,-0.5614996824436234,-0.18359957505246455,-6.395497514181427e-05,0.008395200746790185,-2.4631266164997147e-08,9.789199323811143
3.2,0,4,1,0.5729386976839008,57.29386976839019,0.0,5,160,9,1,0,0,0,0.0,5.0,5.0,-0.5614996791753908,-0.18679957504720998,-6.395948074358788e-05,0.005262566788298528,-2.4338415445332008e-08,9.804520305075773
3.232,0,4,1,0.5729386976839008,57.86680846607409,0.0,5,160,9,1,0,0,0,0.0,5.0,5.0,-0.5614996759044021,-0.18999957505049206,-6.3962169669661e-05,0.0018852525209258036,-2.2968156155995233e-08,9.832729274943913
3.2640000000000002,0,4,1,0.5729386976839008,58.43974716375799,0.0,5,160,9,1,0,0,0,0.0,5.0,5.0,-0.5614996726309657,-0.19319957506270438,-6.396240944411477e-05,-0.0016346740834244451,-2.1371825637161795e-08,9.783436458311668
3.2960000000000003,0,4,1,0.5729386976839008,59.012685861441895,0.0,5,160,9,1,0,0,0,0.0,5.0,5.0,-0.5614996693554519,-0.19639957508398156,-6.39601437855946e-05,-0.005022197436795505,-1.901709898339802e-08,9.815538048870783
3.3280000000000003,0,4,1,0.5729386976839008,59.5856245591258,0.0,5,160,9,1,0,0,0,0.0,5.0,5.0,-0.5614996660782849,-0.19959957511374538,-6.395590584376554e-05,-0.008219912713977404,-1.6310203006007575e-08,9.81468569285606
3.36,0,4,1,0.5729386976839008,60.1585632568097,0.0,5,160,9,1,0,0,0,0.0,5.0,5.0,-0.5614996627999315,-0.20279957515038208,-6.395069276669656e-05,-0.01078139985747702,-1.3133506526987577e-08,9.78770565169062
3.392,0,4,1,0.5729386976839008,60.7315019544936,0.0,5,160,9,1,0,0,0,0.0,5.0,5.0,-0.5614996595208884,-0.20599957519125417,-6.394573110300728e-05,-0.012710228421700961,-9.620312556947588e-09,9.772467028088446
3.424,0,4,1,0.5729386976839008,61.304440652177504,0.0,5,160,9,1,0,0,0,0.0,5.0,5.0,-0.5614996562416708,-0.2091995752330904,-6.394218823399522e-05,-0.014087056341991448,-5.850983884626469e-09,9.75123771780915
3.456,0,4,1,1.1457628381751443,62.45020349035265,0.5728241404912435,5,160,9,1,0,0,0,0.0,5.0,5.0,-0.5614996529627975,-0.2123995752726099,-6.394089773126624e-05,-0.014361973558006112,-1.935391777824457e-09,9.827920808463134
3.488,0,4,1,1.7183580016555007,64.16856149200815,0.5725951634803563,5,160,9,1,0,0,0,0.0,5.0,5.0,-0.5614996496847794,-0.2155995753071221,-6.394216324426619e-05,-0.013825830646630944,2.0127780871740844e-09,9.83466220076327
3.52,0,4,1,2.862405226111651,67.0309667181198,1.1440472244561504,5,160,9,1,0,0,0,0.0,5.0,5.0,-0.5614996464081039,-0.21879957533485817,-6.394568706186501e-05,-0.012518142653914658,5.8770873754901264e-09,9.79523125519527
3.552,0,4,1,4.573921259900898,71.6048879780207,1.7115160337892465,5,160,9,1,0,0,0,0.0,5.0,5.0,-0.5614996431332243,-0.22199957535492615,-6.39506401549448e-05,-0.010556539114898178,9.680126945845389e-09,9.800879779320958
3.584,0,4,1,6.277298489597548,77.88218646761825,1.7033772296966507,5,160,9,1,0,0,0,0.0,5.0,5.0,-0.5614996398605483,-0.22519957536696966,-6.395585721791913e-05,-0.007829488450871872,1.3161350542823981e-08,9.803929739304609
3.616,0,4,1,9.090276920822312,86.97246338844056,2.8129784312247637,5,160,9,1,0,0,0,0.0,5.0,5.0,-0.5614996365904266,-0.2283995753707544,-6.396011082500375e-05,-0.0047095089936941064,1.6314632278697778e-08,9.83453620817053
3.648,0,4,1,11.309932474020227,98.28239586246079,2.2196555531979154,5,160,9,1,0,0,0,0.0,5.0,5.0,-0.5614996333231441,-0.23159957536593206,-6.396240020265127e-05,-0.0012633363754277558,1.9042974865322876e-08,9.832773219311173
3.68,0,4,1,14.574216198038746,112.85661206049953,3.2642837240185187,5,160,9,1,0,0,0,0.0,5.0,5.0,-0.5614996300589141,-0.23479957535212417,-6.396218668032992e-05,0.00224511400571103,2.1336889868310295e-08,9.791760154267044
3.712,0,4,1,18.262889942194125,131.11950200269365,3.6886737441553787,5,160,9,1,0,0,0,0.0,5.0,5.0,-0.5614996267978724,-0.23799957532928845,-6.395952042506994e-05,0.005617151429923524,2.3030535871175488e-08,9.816746488518481
3.744,0,4,1,21.80140948635181,152.92091148904547,3.538519544157687,5,160,9,1,-1,-1,-1,-0.0595,4.9405,5.0595,-0.5614996235400734,-0.24119957529816885,-6.395502864253375e-05,0.008618662840210067,2.4246590981314523e-08,9.837548707613076
3.7760000000000002,0,4,1,25.641005824305285,178.56191731335076,3.8395963379534734,5,160,9,1,-1,-2,0,-0.060000000000000005,4.94,5.06,-0.5614995940675985,-0.24439957522919264,-6.3949767832399e-05,0.011218054636987522,2.64886700962233e-05,9.823168304375827
3.8080000000000003,0,4,1,28.810793742973065,207.37271105632382,3.1697879186677795,5,160,9,1,-3,-5,-2,-0.18400000000000002,4.816,5.184,-0.5614948472914019,-0.247599585969607,-6.394620248533107e-05,0.012960811880535628,0.004601992616174841,9.793326789682588
3.84,0,4,1,31.798912824294433,239.17162388061826,2.9881190813213685,5,160,9,1,-4,-9,-1,-0.2495,4.7505,5.2495,-0.5614853042038269,-0.2507996270379679,-6.395034265929342e-05,0.014044612568041239,0.0047561584046567525,9.80874810951089
3.872,0,4,1,34.99202019855866,274.16364407917695,3.1931073742642297,5,160,9,1,-6,-15,-2,-0.38400000000000006,4.616,5.384,-0.5614612489272591,-0.25399974841195094,-6.397879938868124e-05,0.01429299647488683,0.014337101347126749,9.815414721553253
3.904,0,4,1,37.95423087513251,312.11787495430946,2.9622106765738465,5,160,9,1,-7,-22,-1,-0.4645,4.5355,5.4645,-0.5614175982255462,-0.2571999754466261,-6.407494178907978e-05,0.013630533399426296,0.01954273886176725,9.805610885745267
3.936,0,4,1,41.023269024922435,353.1411439792319,3.0690381497899253,5,160,9,1,-8,-30,-1,-0.5545,4.4455,5.5545,-0.5613439656392286,-0.260400167525169,-6.429655610226681e-05,0.012424638207697026,0.030092257077332825,9.791500679233451
3.968,0,4,1,42.92282523483718,396.06396921406906,1.899556209914742,5,160,9,1,-9,-39,-1,-0.6495,4.3505,5.6495,-0.5612342984434125,-0.2635999604069783,-6.47229937674066e-05,0.010307752473982185,0.03667851885999764,9.765454735770776
4.0,0,4,1,44.71208393344291,440.77605314751196,1.7892586986057353,5,160,9,1,-10,-49,-1,-0.7494999999999999,4.2505,5.7495,-0.5610818844777742,-0.2667987670156831,-6.54391928675644e-05,0.007625373337218364,0.04415672775457905,9.778516275369668
4.032,0,4,1,45.85509739626673,486.6311505437787,1.1430134628238164,5,160,9,1,-11,-60,-1,-0.8545,4.1455,5.8545,-0.5608797612028966,-0.2699957153230286,-6.65351034603457e-05,0.004308884809635936,0.05201882561192284,9.815248426894286
4.064,0,4,1,46.68468431789629,533.315834861675,0.8295869216295628,5,160,9,1,-12,-72,-1,-0.9645,4.0355,5.9645,-0.5606206769069698,-0.2731895835886373,-6.810412367576346e-05,0.0004278897368917697,0.061070424943954066,9.809453158054108
4.096,0,4,1,47.489552921999156,580.8053877836741,0.8048686041028645,5,160,9,1,-12,-84,0,-1.02,3.98,6.02,-0.560296666549156,-0.27638079890194533,-7.024205028086962e-05,-0.0016112522971711374,0.07065318185603214,9.807221352994514
4.128,0,4,1,48.01278750418334,628.8181752878575,0.5232345821841875,5,160,9,1,-13,-97,-1,-1.1395,3.8605,6.1395,-0.5598993752869538,-0.2795623869442949,-7.290959083717553e-05,-0.0028970240239764313,0.08100761307690127,9.787041285817857
4.16,0,4,1,49.06631877480598,677.8844940626634,1.053531270622635,5,160,9,1,-13,-110,0,-1.2000000000000002,3.8,6.2,-0.559424934215635,-0.28273649722568334,-7.631263830933446e-05,0.005081953656919366,0.08730593226345036,9.823676032376689
4.192,0,4,1,49.80795396303047,727.6924480256939,0.7416351882244925,5,160,9,1,-13,-123,0,-1.2650000000000001,3.735,6.265000000000001,-0.5588648508945022,-0.2859001411750107,-8.032317257150763e-05,0.009750973266794794,0.09856449380405803,9.813025584146605
4.224,0,4,1,50.29008120537127,777.9825292310652,0.48212724234080184,5,160,9,1,-12,-135,1,-1.2705000000000002,3.7295,6.2705,-0.5582443099984495,-0.28889958913008,-8.142223976936695e-05,-0.14064032548525512,0.11018751543587686,9.796190903072088
4.256,0,4,1,49.398705354995535,827.3812345860607,-0.8913758503757379,5,160,9,1,-25,-160,-13,-2.1085,2.8915,6.28,-0.557730071720295,-0.2910190717749051,-8.278572518378643e-05,-0.8579021110763786,0.10172228874330635,9.81641095395928
4.288,0,4,1,48.43363036245053,875.8148649485113,-0.9650749925450057,5,160,9,1,-38,-198,-13,-2.9485,2.0515,6.28,-0.5573725164045873,-0.2924786968053457,-8.49754846821097e-05,-0.6603450651760521,0.0008356090395865616,9.838536346276276
4.32,0,4,1,47.36137465817562,923.1762396066869,-1.0722557042749088,5,160,9,1,-48,-246,-10,-3.6750000000000003,1.3249999999999997,6.28,-0.5571304651276671,-0.29353384858028847,-8.718624267543655e-05,-0.407998773231916,-0.01355526235820357,9.85642758745598
4.352,0,4,1,47.950779109006355,971.1270187156932,0.5894044508307346,5,160,9,1,-48,-294,0,-3.87,1.13,6.28,-0.5568890232683193,-0.29470149744070717,-8.864205729849049e-05,0.10805573814437695,-0.003770290878491653,9.791871581966852
4.384,0,4,1,49.9937439858234,1021.1207627015166,2.042964876817045,5,160,9,1,-33,-327,15,-3.2175000000000002,1.7824999999999998,6.28,-0.5563995928132289,-0.2970161252662012,-8.897056280047708e-05,1.1392267127126394,-0.04163586275146154,9.810072274676136
4.416,0,4,1,51.45881637871865,1072.5795790802351,1.4650723928952516,5,160,9,1,-23,-350,10,-2.8550000000000004,2.1449999999999996,6.28,-0.5557073415380798,-0.29951436062504516,-8.877616181915404e-05,0.23366509148177214,0.15028901310464396,9.850047327830264
4.448,0,4,1,52.76516601842533,1125.3447450986605,1.3063496397066814,5,160,9,1,-14,-364,9,-2.4795,2.5205,6.28,-0.5548548329056301,-0.3020470877557925,-8.94938582102333e-05,0.08842327184070559,0.15097622691084428,9.835824865522502
4.48,0,4,1,52.38604315126727,1177.7307882499279,-0.37912286715805976,5,160,9,1,-22,-386,-8,-3.0660000000000003,1.9339999999999997,6.28,-0.5542467487107922,-0.30354389351806993,-9.141771744019742e-05,-1.0320652860917023,0.15491334473040422,9.711138175755632
4.5120000000000005,0,4,1,51.581944655178006,1229.3127329051058,-0.8040984960892672,5,160,9,1,-33,-419,-11,-3.7945,1.2054999999999998,6.28,-0.5538796801796865,-0.3043720373171189,-9.443403515228821e-05,-0.6943163046628341,0.02351651113571239,9.88093511082187
4.5440000000000005,0,4,1,50.84892164592896,1280.1616545510349,-0.7330230092490453,5,160,9,1,-40,-459,-7,-4.3265,0.6734999999999998,6.28,-0.553652906126118,-0.30489406082319814,-9.730166240891e-05,-0.3281120016604479,-0.008397909516717325,9.816864526772077
4.5760000000000005,0,4,1,50.9061411137705,1331.0677956648053,0.057219467841541416,5,160,9,1,-43,-502,-3,-4.6735,0.32650000000000023,6.28,-0.5535243545535368,-0.3051858431127684,-9.904490162064572e-05,-0.24464871562821047,0.00409678506159994,9.799590443579408
4.6080000000000005,0,4,1,51.155168343274006,1382.2229640080793,0.2490272295035041,5,160,9,1,-42,-544,1,-4.8155,0.1844999999999999,6.28,-0.5533773294662433,-0.3055636548790007,-9.93632003509163e-05,0.08483400287500864,0.0068609773195307516,9.850092726527118
4.64,0,4,1,53.350752532331406,1435.5737165404107,2.1955841890573993,5,160,9,1,-21,-565,21,-3.7805,1.2195,6.28,-0.5526696110833474,-0.3074827366297285,-9.848257614685808e-05,1.5895556470796628,-0.0901191280783021,9.785479991977649
4.672,0,4,1,54.58294472353257,1490.1566612639433,1.2321921912011646,5,160,9,1,-5,-570,16,-3.028,1.972,6.28,-0.5517416803403764,-0.3095512455056979,-9.737380505916819e-05,0.2289784911199723,0.14054859774362113,9.774508487824571
4.704,0,4,1,55.850104629797386,1546.0067658937407,1.2671599062648156,5,160,9,1,6,-564,11,-2.4704999999999995,2.5295000000000005,6.28,-0.550551090885522,-0.31177884334992,-9.759065196369467e-05,0.2648943063265398,0.15873253801465895,9.855495556760786
4.736,0,4,1,54.86580694308437,1600.8725728368252,-0.9842976867130133,5,160,9,1,-8,-572,-14,-3.323,1.677,6.28,-0.5499303717414253,-0.3126702897969391,-0.00010046226776958857,-1.405761302267069,0.17336725521908536,9.83292886938148
4.768,0,4,1,54.13017648227869,1655.002749319104,-0.7356304608056803,5,160,9,1,-19,-591,-11,-3.9545000000000003,1.0454999999999997,6.28,-0.5495723713456038,-0.3131729069024581,-0.0001030773686761053,-0.45796732356818154,-0.026142058192269522,9.847174806606633
4.8,0,4,1,53.350752532331406,1708.3535018514353,-0.7794239499472866,5,160,9,1,-27,-618,-8,-4.475999999999999,0.5240000000000009,6.28,-0.5493520790923905,-0.31348706207993365,-0.00010502743788062298,-0.22518283834824082,-0.013619779484296591,9.84261134714769
4.832,0,4,1,53.20470619156868,1761.558208043004,-0.14604634076272305,5,160,9,1,-30,-648,-3,-4.7535,0.24650000000000016,6.28,-0.549223858934348,-0.31367606727850605,-0.00010547055605071402,-0.15003543789240814,-0.0037991570786902644,9.803205011074573
4.864,0,4,1,53.99925104583929,1815.5574590888432,0.7945448542706046,5,160,9,1,-22,-670,8,-4.414000000000001,0.5859999999999994,6.28,-0.548845440387341,-0.3143724194726271,-0.00010433407793823853,0.5512326340303653,-0.008931778787412943,9.797115882029653
4.896,0,4,1,55.091057238888915,1870.648516327732,1.091806193049628,5,160,9,1,-2,-672,20,-3.37,1.63,6.28,-0.5478592005056652,-0.3161488994236578,-0.00010225028451434776,1.2009100486030446,-0.06067221872140854,9.80859801428343
4.928,0,4,1,55.762537223142466,1926.4110535508746,0.6714799842535513,5,160,9,1,10,-662,12,-2.7560000000000002,2.2439999999999998,6.28,-0.5465319641627949,-0.3181661676306146,-0.00010060926826990432,0.38833147403160095,0.14527972233340608,9.801506797321014
4.96,0,4,1,55.85950323532199,1982.2705567861965,0.0969660121795215,5,160,9,1,16,-646,6,-2.4029999999999996,2.5970000000000004,6.28,-0.5450266265518547,-0.32015352612817516,-0.00010059309866481021,0.08708592655132341,0.1701657283068673,9.88180385220798
4.992,0,4,1,54.619727799698865,2036.8902845858954,-1.2397754356231232,5,160,9,1,0,-646,-16,-3.302,1.698,6.28,-0.5442924397415811,-0.3209099346078958,-0.00010312656396578752,-1.4169989977185147,0.15421258050163697,9.823648601499809
5.024,0,4,1,53.689750289139575,2090.580034875035,-0.92997751055929,5,160,9,1,-11,-657,-11,-3.8845,1.1155,6.28,-0.5438306146794235,-0.32139939019289676,-0.00010524058335816336,-0.36994945657903056,-0.03869531110864638,9.84066698070994
5.056,0,4,1,52.91416450904766,2143.4941993840825,-0.7755857800919159,5,160,9,1,-19,-676,-8,-4.366,0.6340000000000003,6.28,-0.5435205589804463,-0.3217397128887967,-0.00010655879460461787,-0.20644114008069023,-0.014227858033749569,9.79069417351204
5.088,0,4,1,52.47573738554823,2195.9699367696307,-0.43842712349943014,5,160,9,1,-23,-699,-4,-4.663,0.33699999999999974,6.28,-0.5433428408750023,-0.32193216551115766,-0.00010640043697244042,-0.19343625004629836,-0.0010394861872088258,9.788683467624127
5.12,0,4,1,53.408911732600714,2249.3788485022314,0.9331743470524856,5,160,9,1,-8,-707,15,-3.8675,1.1324999999999998,6.28,-0.5424766327581104,-0.32310974268711873,-0.00010475250842196908,1.1699922829969307,-0.06182905571981284,9.848651978278356
5.152,0,4,1,53.94758475481564,2303.326433257047,0.5386730222149225,5,160,9,1,6,-701,14,-3.142,1.858,6.28,-0.5410771913631347,-0.32484425387498084,-0.00010251064540476792,0.7498117795504927,0.033977788523082815,9.806439975242135
5.184,0,4,1,54.14708038487515,2357.473513641922,0.19949563005951632,5,160,9,1,15,-686,9,-2.6395,2.3605,6.28,-0.5393817882174783,-0.32667453482320175,-0.00010124987337930581,0.272076458534156,0.15211888721332814,9.813995058625785
5.216,0,4,1,52.49585763972986,2409.969371281652,-1.65122274514529,5,160,9,1,0,-686,-15,-3.4975,1.5025,6.28,-0.5387086959275901,-0.3273491230875697,-0.00010290647328651051,-1.5041679741033775,0.09414219095099413,9.838925776569786
5.248,0,4,1,51.170175095029606,2461.1395463766817,-1.325682544700257,5,160,9,1,-11,-697,-11,-4.0845,0.9154999999999998,6.28,-0.5382814400183646,-0.3277753093557018,-0.00010413330749697858,-0.339888933999388,0.011538212872922267,9.862222817580149
5.28,0,4,1,50.241819946979554,2511.381366323661,-0.928355148050052,5,160,9,1,-17,-714,-6,-4.447,0.5529999999999999,6.28,-0.5380202332287342,-0.32803507392923575,-0.00010486288041224728,-0.23075940898897707,0.011168017029812998,9.864346513289393
5.312,0,4,1,49.76364169072618,2561.1450080143873,-0.47817825625337207,5,160,9,1,-20,-734,-3,-4.6834999999999996,0.31650000000000045,6.28,-0.5377910026985738,-0.3282545329485925,-0.00010443907097540221,-0.05074610781852612,0.021883379579114584,9.76318556610401
5.344,0,4,1,51.620776082314975,2612.765784096702,1.8571343915887937,5,160,9,1,1,-733,21,-3.5205,1.4794999999999998,6.28,-0.5364806229635422,-0.32963711557986114,-0.00010284632732048861,1.5555397920287106,-0.09920207882370771,9.792344411817627
5.376,0,4,1,50.659481840162485,2663.425265936865,-0.9612942421524906,5,160,9,1,14,-719,13,-2.8365,2.1635,6.28,-0.5347471477853913,-0.3312340796653141,-0.00010112607234381323,0.45088055596973337,0.11651489539866203,9.832450816675996
5.408,0,4,1,48.49259316085606,2711.917859097721,-2.1668886793064246,5,160,9,1,21,-698,7,-2.4085000000000005,2.5914999999999995,6.28,-0.5327236220544116,-0.3328512450232665,-0.0001008120126444502,0.24028648181886744,0.1684564515657063,9.809855102441754
5.44,0,4,1,48.239700296102136,2760.157559393823,-0.2528928647539246,5,160,9,1,6,-692,-15,-3.2275,1.7725,6.28,-0.5318420088156692,-0.33351279116776983,-0.00010315240599157414,-1.4522929729569454,0.07501938871927047,9.791185759056546
5.472,0,4,1,47.98428214359338,2808.141841537416,-0.2554181525087529,5,160,9,1,-6,-698,-12,-3.844,1.1560000000000001,6.28,-0.5313095443639104,-0.3339365768014309,-0.00010513830867602512,-0.40937241451900386,-0.01296815165807799,9.806014507793362
5.5040000000000004,0,4,1,47.46575899499777,2855.607600532414,-0.5185231485956123,5,160,9,1,-13,-711,-7,-4.2365,0.7634999999999996,6.28,-0.5309266702002067,-0.33424193234345645,-0.00010639535782734112,-0.1871168440770869,0.016460831149153494,9.855985051346087
5.5360000000000005,0,4,1,46.95568139752289,2902.5632819299367,-0.5100775974748828,5,160,9,1,-18,-729,-5,-4.5675,0.4325000000000001,6.28,-0.5306732940859513,-0.33444425458426985,-0.00010622301417925403,-0.16232397608571716,0.015975247710973518,9.83085298892257
5.5680000000000005,0,4,1,46.12330271407542,2948.6865846440123,-0.832378683447466,5,160,9,1,-2,-731,16,-3.6830000000000003,1.3169999999999997,6.28,-0.5294837417415088,-0.33540832186730285,-0.00010459717427081447,1.1807145835041675,-0.036334323062721594,9.852451738967043
5.6000000000000005,0,4,1,44.421274434392245,2993.1078590784045,-1.7020282796831765,5,160,9,1,13,-718,15,-2.8725,2.1275,6.28,-0.5276428527169897,-0.3367697548448311,-0.00010238802367673432,0.7447368814327431,0.037845345592030136,9.833916583508136
5.632,0,4,1,42.92282523483718,3036.0306843132416,-1.4984491995550684,5,160,9,1,24,-694,11,-2.2205,2.7795,6.28,-0.5254673447901008,-0.3381667927066944,-0.0001011279943532277,0.30150552479466647,0.15055422768874754,9.817670436891522
5.664,0,4,1,41.66908261954995,3077.6997669327916,-1.25374261528723,5,160,9,1,16,-678,-8,-2.626,2.374,6.28,-0.5239054131048199,-0.3390264821983466,-0.00010139906196142585,-0.7836465217817394,0.17132847734841863,9.848043108148476
5.696,0,4,1,41.023269024922435,3118.723035957714,-0.6458135946275121,5,160,9,1,4,-674,-12,-3.2239999999999998,1.7760000000000002,6.28,-0.5229924460316866,-0.3395615035078442,-0.0001027621336399543,-0.7064844218254591,-0.03718769630586593,9.776904574623863
5.728,0,4,1,40.36453657309736,3159.087572530811,-0.6587324518250739,5,160,9,1,-6,-680,-10,-3.745,1.255,6.28,-0.522320557394935,-0.3399722526791819,-0.00010395638627660152,-0.26429881336767075,-0.002414916961462827,9.800300986706594
5.76,0,4,1,40.36453657309736,3199.4521091039082,0.0,5,160,9,1,-12,-692,-6,-4.087000000000001,0.9129999999999994,6.28,-0.5218505175426923,-0.34026729348818213,-0.00010407632342814173,-0.2272037679864767,0.008570263698775947,9.831193208672445
5.792,0,4,1,39.00747255212105,3238.4595816560295,-1.3570640209763098,5,160,9,1,1,-691,13,-3.3465000000000003,1.6534999999999997,6.28,-0.5204357828460137,-0.34114673522488076,-0.00010282652512640794,1.0820669156149314,-0.021707970633968798,9.819268660834421
5.824,0,4,1,37.95423087513251,3276.413812531162,-1.0532416769885415,5,160,9,1,17,-674,16,-2.448,2.552,6.28,-0.5183473484247735,-0.34233546414394234,-0.00010085824157841407,0.7239981846976532,0.03881018523681827,9.839671192261637
5.856,0,4,1,36.50144112050633,3312.915253651668,-1.4527897546261812,5,160,9,1,27,-647,10,-1.8399999999999999,3.16,6.28,-0.5158972551139346,-0.34353799768634397,-9.955002097050171e-05,0.3308079744574357,0.1463677572357817,9.790721181389234
5.888,0,4,1,35.37475184387608,3348.2900054955444,-1.1266892766302448,5,160,9,1,31,-616,4,-1.512,3.488,6.28,-0.5134437761709684,-0.34457953998243257,-9.946310415737993e-05,-0.05579370605643202,0.16387129057451166,9.833920618719771
5.92,0,4,1,34.605675551638576,3382.895681047183,-0.7690762922375072,5,160,9,1,18,-598,-13,-2.1485000000000003,2.8514999999999997,6.28,-0.5118840988212218,-0.3451767322309575,-0.00010027906398561888,-0.9699847809586557,0.07079605058726834,9.766371610870145
5.952,0,4,1,33.424811182603804,3416.320492229787,-1.1808643690347722,5,160,9,1,5,-593,-13,-2.7735,2.2265,6.28,-0.5106525588155466,-0.3457140900215692,-0.00010142314593870015,-0.317067132586324,-0.05969984229373274,9.797269683457879
5.984,0,4,1,32.61924307119282,3448.9397353009795,-0.8055681114109845,5,160,9,1,-5,-598,-10,-3.285,1.7149999999999999,6.28,-0.5097072819579279,-0.34615025339264455,-0.00010185088866956037,-0.29450848666038026,-0.010247112991770987,9.749656167842067
6.016,0,4,1,32.210927723673755,3481.150663024653,-0.4083153475190642,5,160,9,1,-2,-600,3,-3.0865,1.9135,6.28,-0.5083711768722138,-0.3467635156030433,-0.0001010177592620249,0.4193701739401064,0.017256556890551052,9.80137324348043
6.048,0,4,1,30.96375653207352,3512.1144195567267,-1.2471711916002342,5,160,9,1,13,-587,15,-2.2175000000000002,2.7824999999999998,6.28,-0.5061089930398252,-0.34778945320141297,-9.903284421578992e-05,0.9908389549181428,-0.03181984849759712,9.804693640061117
6.08,0,4,1,30.5406048496815,3542.6550244064083,-0.42315168239202094,5,160,9,1,25,-562,12,-1.506,3.4939999999999998,6.28,-0.503493631802618,-0.34879705797955024,-9.693276694420702e-05,0.32208778530534954,0.14418772237169356,9.801972970241321
6.112,0,4,1,29.683140179123296,3572.3381645855316,-0.8574646705582047,5,160,9,1,33,-529,8,-0.9589999999999999,4.041,5.959,-0.5005940430390664,-0.3497629603130604,-9.567254854266766e-05,0.2560150605714925,0.13511323731099475,9.795555274431134
6.144,0,4,1,28.810793742973065,3601.1489583285047,-0.8723464361502309,5,160,9,1,37,-492,4,-0.5919999999999999,4.408,5.592,-0.4975692231270332,-0.35065006482573335,-9.490556303996811e-05,0.09850489525077556,0.12225428376934723,9.848132809591565
6.176,0,4,1,27.474431626277134,3628.623389954782,-1.3363621166959305,5,160,9,1,37,-455,0,-0.4249999999999998,4.575,5.425,-0.4945078112378793,-0.3514537477818295,-9.396042256966212e-05,0.01478962038011659,0.10614662939847522,9.848523266731853
6.208,0,4,1,26.565051177077994,3655.18844113186,-0.9093804491991406,5,160,9,1,32,-423,-5,-0.5375000000000001,4.4625,5.5375,-0.4916630145550417,-0.3521553821891271,-9.26242606435531e-05,-0.22937256439476508,0.06246491227685917,9.821773765104002
6.24,0,4,1,25.641005824305285,3680.8294469561656,-0.9240453527727084,5,160,9,1,27,-396,-5,-0.6524999999999999,4.3475,5.6525,-0.48889215361181776,-0.3528444905506209,-9.129421242895855e-05,-0.07238050017357682,0.013981746527772492,9.822253451780345
6.272,0,4,1,24.702430227771313,3705.531877183937,-0.9385755965339726,5,160,9,1,22,-374,-5,-0.7925,4.2075,5.7925,-0.48615949648745227,-0.35353014852091025,-8.997106645794797e-05,-0.03650337233030675,0.014994992034613517,9.786290397762775
6.304,0,4,1,23.749494492866766,3729.2813716768037,-0.9529357349045462,5,160,9,1,25,-349,3,-0.4815000000000001,4.5184999999999995,5.4815000000000005,-0.4831098212993878,-0.3543096138052093,-8.867222039609865e-05,0.324457665222896,0.0032686881305609636,9.786768174984203
6.336,0,4,1,22.782405730481685,3752.063777407285,-0.9670887623850817,5,160,9,1,24,-325,-1,-0.4294999999999998,4.5705,5.4295,-0.4800258572415376,-0.3550337916898632,-8.668948425497904e-05,0.021262585771170954,0.08096382415162909,9.799068290802435
6.368,0,4,1,22.293629159694085,3774.357406566979,-0.48877657078759995,5,160,9,1,24,-301,0,-0.30499999999999994,4.695,5.305,-0.4769290191717541,-0.35572308873435576,-8.463252916068864e-05,0.005422962027391537,0.0566904294569122,9.84625919024801
6.4,0,4,1,21.305783617828766,3795.6631901848077,-0.9878455418653189,5,160,9,1,22,-279,-2,-0.30399999999999994,4.696,5.304,-0.4738188755701465,-0.3563798769073835,-8.247607937772634e-05,0.006541396686396853,0.05425541549882271,9.821175917988255
6.432,0,4,1,19.79887635452493,3815.4620665393327,-1.5069072633038374,5,160,9,1,20,-259,-2,-0.30399999999999994,4.696,5.304,-0.4707037069943673,-0.3570155815296127,-8.045960840748038e-05,0.0009732815381915306,0.041007086997243945,9.785680330029978
6.464,0,4,1,19.290046219188728,3834.7521127585214,-0.5088301353362006,5,160,9,1,19,-240,-1,-0.2544999999999999,4.7455,5.2545,-0.46758350740866467,-0.35762987328298035,-7.862513681187837e-05,0.0010409714122624387,0.040579189428866076,9.834052117288415
6.496,0,4,1,18.262889942194125,3853.0150027007157,-1.027156276994603,5,160,9,1,17,-223,-2,-0.2739999999999999,4.726,5.274,-0.4644542423998053,-0.358221936633729,-7.694017925508057e-05,0.004848415761362099,0.041262858571241734,9.826332999945883
6.5280000000000005,0,4,1,17.744671625056924,3870.7596743257727,-0.518218317137201,5,160,9,1,16,-207,-1,-0.23949999999999988,4.7605,5.2395,-0.4613224632794737,-0.3587954588702677,-7.54969132104339e-05,-0.0006807642605116737,0.035801366691011194,9.8052775257784
6.5600000000000005,0,4,1,16.699244233993618,3887.4589185597665,-1.0454273910633063,5,160,9,1,14,-193,-2,-0.2739999999999999,4.726,5.274,-0.4581849766415758,-0.3593488435793277,-7.40319851300162e-05,0.002169512369172301,0.03721252257017252,9.80630647433144
6.5920000000000005,0,4,1,16.17215901578257,3903.631077575549,-0.5270852182110488,5,160,9,1,13,-180,-1,-0.2545,4.7455,5.2545,-0.45504189705211556,-0.3598847373621834,-7.270675529170989e-05,0.0027754013527947954,0.03378956293956303,9.78300057342874
6.6240000000000006,0,4,1,15.642246457208763,3919.273324032758,-0.5299125585738054,5,160,9,1,12,-168,-1,-0.24449999999999988,4.7555000000000005,5.2444999999999995,-0.45189368280193287,-0.36040046793114944,-7.148342299690726e-05,0.0023413456298796253,0.03540621258958557,9.797084533373612
6.656000000000001,0,4,1,15.109575122340447,3934.3828991550986,-0.5326713348683167,5,160,9,1,11,-157,-1,-0.2395,4.7605,5.2395,-0.448740806324016,-0.3608975392374308,-7.040077700964757e-05,0.002671241700543321,0.03305719883466566,9.80064027185832
6.688,0,4,1,14.036243467926484,3948.419142623025,-1.0733316544139626,5,160,9,1,10,-147,-1,-0.2395,4.7605,5.2395,-0.4455837000471647,-0.3613767444801949,-6.94709773859381e-05,0.0030611088848485663,0.03141705124727989,9.785083311987442
6.72,0,4,1,13.495733280795811,3961.9148759038208,-0.540510187130673,5,160,9,1,9,-138,-1,-0.24450000000000005,4.7555,5.2445,-0.44242271095440694,-0.3618384953624527,-6.869404229936475e-05,0.003543579856712373,0.030200432407316787,9.843191478107451
6.752,0,4,1,12.95276451337554,3974.867640417196,-0.5429687674202714,5,160,9,1,8,-130,-1,-0.2545,4.7455,5.2545,-0.4392581053837506,-0.36228281758223024,-6.806308059588255e-05,0.004072087067061311,0.029587243321483322,9.8403161242674
6.784,0,4,1,11.859779120947966,3986.727419538144,-1.0929853924275736,5,160,9,1,7,-123,-1,-0.26949999999999996,4.7305,5.2695,-0.43609007225571705,-0.3627093494530079,-6.756798900809519e-05,0.004590712208861936,0.029195703182035064,9.827365438356537
6.816,0,4,1,11.859779120947966,3998.5871986590923,0.0,5,160,9,1,7,-116,0,-0.22999999999999993,4.7700000000000005,5.2299999999999995,-0.43291872810060034,-0.3631173430785546,-6.719805796211696e-05,0.0049780186533821755,0.029507387700453896,9.768177530951293
6.848,0,4,1,11.309932474020227,4009.8971311331125,-0.5498466469277385,5,160,9,1,7,-109,0,-0.195,4.805,5.195,-0.429744649016595,-0.3635056664025441,-6.688903009388798e-05,0.004569794014705503,0.029865888137616255,9.754053607794807
6.88,0,4,1,10.757967088390043,4020.6550982215026,-0.5519653856301847,5,160,9,1,6,-103,-1,-0.21949999999999997,4.7805,5.2195,-0.42656835628886347,-0.36387742439330983,-6.662911215221494e-05,0.0043523454427935905,0.02643771227795677,9.781545970175566
6.912,0,4,1,10.757967088390043,4031.4130653098928,0.0,5,160,9,1,6,-97,0,-0.18499999999999994,4.815,5.185,-0.4233898076861778,-0.3642353718225723,-6.645103939579254e-05,0.004368475336709393,0.023527405924936132,9.845037577755182
6.944,0,4,1,9.648045316098152,4041.0611106259908,-1.1099217722918908,5,160,9,1,5,-92,-1,-0.21450000000000002,4.7855,5.2145,-0.4202095561752942,-0.3645776238466353,-6.628478189590718e-05,0.0029413744176803175,0.02491630668693469,9.823115832557434
6.976,0,4,1,9.648045316098152,4050.7091559420887,0.0,5,160,9,1,5,-87,0,-0.185,4.815,5.185,-0.41702728539522327,-0.36490685401988376,-6.617444196578212e-05,0.0026748484918058158,0.022099331154280574,9.810471276489142
7.008,0,4,1,8.530765609948096,4059.239921552037,-1.1172797061500557,5,160,9,1,4,-83,-1,-0.21950000000000003,4.7805,5.2195,-0.4138435189811893,-0.36522076798768693,-6.605986089367778e-05,0.0008102283917241558,0.0240709117579558,9.797334309033022
7.04,0,4,1,8.530765609948096,4067.770687161985,0.0,5,160,9,1,4,-79,0,-0.195,4.805,5.195,-0.41065779893906545,-0.3655216434028722,-6.598919852786843e-05,0.0002983928792341308,0.0216895097191049,9.803797842884743
7.072,0,4,1,7.969610394321354,4075.7402975563064,-0.5611552156267425,5,160,9,1,4,-75,0,-0.175,4.825,5.175,-0.40747043253621695,-0.3658068155338636,-6.591027367271358e-05,-0.001480923402642949,0.02398916023726159,9.82334052109365
7.104,0,4,1,7.969610394321354,4083.709907950628,0.0,5,160,9,1,4,-71,0,-0.15499999999999997,4.845,5.155,-0.4042819009142658,-0.3660781860336249,-6.582643744339374e-05,-0.003097875434939055,0.021855804992297063,9.815681674101116
7.136,0,4,1,7.969610394321354,4091.6795183449494,0.0,5,160,9,1,4,-67,0,-0.135,4.865,5.135,-0.401092394950489,-0.36633729018891714,-6.573457154503484e-05,-0.004388058940494489,0.02015520999870689,9.761674990643371
7.168,0,4,1,6.842773412630916,4098.52229175758,-1.1268369816904373,5,160,9,1,3,-64,-1,-0.1745,4.8255,5.1745,-0.39790207921341986,-0.36658565517695446,-6.563173878781567e-05,-0.005637822749281505,0.018365197977686473,9.83784772952278
7.2,0,4,1,6.842773412630916,4105.365065170211,0.0,5,160,9,1,3,-61,0,-0.15499999999999997,4.845,5.155,-0.3947110279228096,-0.3668247836577508,-6.555874672061444e-05,-0.0064629973912528555,0.01663928917142087,9.780489173097989
7.232,0,4,1,6.277298489597548,4111.642363659808,-0.565474923033368,5,160,9,1,3,-58,0,-0.13999999999999996,4.86,5.14,-0.39151907411146,-0.36705151044203316,-6.54725834082822e-05,-0.007080216686205693,0.01955965369479465,9.810736138889249
7.264,0,4,1,6.277298489597548,4117.919662149406,0.0,5,160,9,1,3,-55,0,-0.125,4.875,5.125,-0.3883263742662448,-0.36726731488659714,-6.538056728506297e-05,-0.007459768879730462,0.01790646776738319,9.771431390640297
7.296,0,4,1,6.277298489597548,4124.196960639003,0.0,5,160,9,1,3,-52,0,-0.10999999999999999,4.89,5.11,-0.385133042529464,-0.3674733265993974,-6.528414796408942e-05,-0.007418416715499387,0.016479848364500584,9.821529591117942
7.328,0,4,1,5.710593137499568,4129.907553776503,-0.5667053520979799,5,160,9,1,2,-50,-1,-0.1545,4.8455,5.1545,-0.38193917901101704,-0.36767067368819556,-6.518388798487651e-05,-0.007084922903883705,0.015204277046190623,9.775077059512968
7.36,0,4,1,5.142764557884225,4135.050318334387,-0.5678285796153437,5,160,9,1,2,-48,0,-0.13999999999999999,4.86,5.14,-0.3787448182845638,-0.3678605015051789,-6.511462882732681e-05,-0.0062418454032792175,0.013762227371073526,9.770160267641966
7.392,0,4,1,5.142764557884225,4140.193082892271,0.0,5,160,9,1,2,-46,0,-0.13,4.87,5.13,-0.3755498012497787,-0.36803921837750897,-6.504169160873041e-05,-0.005142206114483363,0.017037779946193307,9.799823729857577
7.424,0,4,1,4.573921259900898,4144.767004152172,-0.5688432979833271,5,160,9,1,2,-44,0,-0.12,4.88,5.12,-0.372354236347083,-0.368207930269681,-6.49712968147434e-05,-0.003841158473490842,0.015746476698948606,9.806768465443382
7.456,0,4,1,4.573921259900898,4149.340925412073,0.0,5,160,9,1,2,-42,0,-0.10999999999999999,4.89,5.11,-0.369158200162912,-0.3683673952340734,-6.490402615737939e-05,-0.0023438637010511046,0.014793458236634282,9.82325149589109
7.488,0,4,1,4.004172940709389,4153.345098352783,-0.5697483191915085,5,160,9,1,2,-40,0,-0.1,4.9,5.1,-0.36596175969246525,-0.36851837457204817,-6.483922213008572e-05,-0.0007571873137072362,0.013870348650159094,9.810339576803052
7.5200000000000005,0,4,1,4.004172940709389,4157.349271293492,0.0,5,160,9,1,2,-38,0,-0.09,4.91,5.09,-0.36276497337502545,-0.3686616290648837,-6.477582761531438e-05,0.0008252240073561659,0.012954992049203619,9.795598663329969
7.5520000000000005,0,4,1,3.4336303624506144,4160.782901655943,-0.5705425782587747,5,160,9,1,2,-36,0,-0.07999999999999999,4.92,5.08,-0.3595678922074506,-0.3687979164603038,-6.471289634490951e-05,0.002302743122616844,0.01200062068132576,9.806986488148869
7.5840000000000005,0,4,1,3.4336303624506144,4164.216532018393,0.0,5,160,9,1,2,-34,0,-0.07,4.93,5.07,-0.3563705608431149,-0.36892798996798315,-6.464985145124974e-05,0.003609682345847101,0.011032876195046263,9.834770521874487
7.6160000000000005,0,4,1,3.4336303624506144,4167.6501623808435,0.0,5,160,9,1,2,-32,0,-0.06,4.94,5.06,-0.35317301862087297,-0.36905259751597375,-6.458656206398058e-05,0.004666182587121898,0.01010762195004438,9.859664323859246
7.648000000000001,0,4,1,3.4336303624506144,4171.083792743294,0.0,5,160,9,1,2,-30,0,-0.04999999999999999,4.95,5.05,-0.3499753004976967,-0.3691724815581642,-6.45233016654135e-05,0.005386523204806422,0.009244561995069659,9.80729822726148
7.68,0,4,1,2.862405226111651,4173.946197969406,-0.5712251363389633,5,160,9,1,1,-29,-1,-0.09949999999999999,4.9005,5.0995,-0.3467774378785979,-0.3692883792621525,-6.446064292451453e-05,0.005816114964957962,0.008249935819493638,9.837396975708426
7.712,0,4,1,2.862405226111651,4176.808603195518,0.0,5,160,9,1,1,-28,0,-0.09000000000000001,4.91,5.09,-0.34357943239256183,-0.3694010078492727,-6.442000604412086e-05,0.005863305357280503,0.007391605454482409,9.848039761175091
7.744,0,4,1,3.4336303624506144,4180.242233557969,0.5712251363389633,5,160,9,1,2,-26,1,-0.0255,4.9745,5.0255,-0.3403811645059263,-0.3695064135175266,-6.437961821212368e-05,0.005531010098452532,0.010958351163387775,9.810212381474177
7.776,0,4,1,2.862405226111651,4183.104638784081,-0.5712251363389633,5,160,9,1,1,-25,-1,-0.0795,4.9205,5.0795,-0.3371827131075672,-0.36960532900823473,-6.432544778514973e-05,0.004793554780304848,0.010171196917653974,9.831527689257967
7.808,0,4,1,2.2906100426385936,4185.39524882672,-0.5717951834730575,5,160,9,1,1,-24,0,-0.06999999999999999,4.93,5.07,-0.3339841968063529,-0.3697028018204058,-6.429403270453646e-05,0.0038550163721923726,0.004939999993334225,9.834753403470152
7.84,0,4,1,3.4336303624506144,4188.82887918917,1.1430203198120208,5,160,9,1,3,-21,2,0.05400000000000003,5.054,4.946,-0.3307855058890878,-0.3697945362346101,-6.426400989995723e-05,0.002643300170319208,0.008950966775595485,9.812490854398435
7.872,0,4,1,2.862405226111651,4191.691284415282,-0.5712251363389633,5,160,9,1,1,-20,-2,-0.059000000000000004,4.941,5.059,-0.32758672918969245,-0.36988126877121397,-6.420597492210953e-05,0.00115177138783518,0.008057661854609498,9.874628266224825
7.904,0,4,1,2.862405226111651,4194.553689641394,0.0,5,160,9,1,1,-19,0,-0.045,4.955,5.045,-0.32438803834730373,-0.3699727725863204,-6.418340352703361e-05,-0.00022458492798151268,-0.0016621267669797767,9.816760479739592
7.936,0,4,1,2.2906100426385936,4196.844299684033,-0.5717951834730575,5,160,9,1,0,-19,-1,-0.0995,4.9005,5.0995,-0.3211892280970149,-0.3700600304318887,-6.415950651626409e-05,-0.0017339768057109397,0.006911223210659011,9.818450942647273
7.968,0,4,1,2.2906100426385936,4199.134909726672,0.0,5,160,9,1,1,-18,1,-0.0355,4.9645,5.0355,-0.31799032020658174,-0.3701441104699899,-6.414840447191948e-05,-0.003070323061171872,0.005691438657532185,9.83007636786075
8.0,0,4,1,2.2906100426385936,4201.425519769311,0.0,5,160,9,1,1,-17,0,-0.035,4.965,5.035,-0.31479122365475476,-0.3702206629741362,-6.412855144692815e-05,-0.004272204542193524,0.009812252224693325,9.818308479136615
8.032,0,4,1,1.7183580016555007,4203.143877770966,-0.5722520409830929,5,160,9,1,0,-17,-1,-0.08950000000000001,4.9105,5.0895,-0.311592076192617,-0.370294756309185,-6.411271542005118e-05,-0.005208564219456519,0.0046593390256210575,9.820169467482506
8.064,0,4,1,2.2906100426385936,4205.434487813605,0.5722520409830929,5,160,9,1,1,-16,1,-0.0255,4.9745,5.0255,-0.308392861061849,-0.3703664354811913,-6.410895753043017e-05,-0.005840894337644675,0.004489601454447116,9.864910659000966
8.096,0,4,1,2.2906100426385936,4207.725097856244,0.0,5,160,9,1,1,-15,0,-0.024999999999999994,4.975,5.025,-0.3051935138340695,-0.3704313535354773,-6.409704979090311e-05,-0.006188030832811048,0.00859443062213075,9.836952115789318
8.128,0,4,1,1.7183580016555007,4209.4434558579,-0.5722520409830929,5,160,9,1,0,-15,-1,-0.0795,4.9205,5.0795,-0.301994140312568,-0.37049459916570315,-6.408753093592283e-05,-0.0061461734216892725,0.003604266434395671,9.799370738151225
8.16,0,4,1,1.7183580016555007,4211.161813859555,0.0,5,160,9,1,1,-14,1,-0.015500000000000003,4.9845,5.0155,-0.29879472292213966,-0.37055622049685666,-6.40886064513669e-05,-0.005728264682213242,0.003486089507135444,9.773504086026305
8.192,0,4,1,1.7183580016555007,4212.88017186121,0.0,5,160,9,1,0,-14,-1,-0.07450000000000001,4.9254999999999995,5.0745000000000005,-0.29559520979470527,-0.37061186480626424,-6.407975177584978e-05,-0.005029719762733592,0.007651245156621971,9.818456554495581
8.224,0,4,1,1.7183580016555007,4214.598529862866,0.0,5,160,9,1,1,-13,1,-0.010499999999999999,4.9895,5.0105,-0.2923956679656748,-0.37066662896164476,-6.408183839930019e-05,-0.00394044867601026,0.0026499497482390185,9.768531713334829
8.256,0,4,1,1.7183580016555007,4216.316887864521,0.0,5,160,9,1,1,-12,0,-0.009999999999999995,4.99,5.01,-0.28919605125894526,-0.3707158118725292,-6.40734828614483e-05,-0.0027132472077877334,0.007228707060750676,9.872234157788467
8.288,0,4,1,1.1457628381751443,4217.462650702696,-0.5725951634803563,5,160,9,1,0,-12,-1,-0.0645,4.9355,5.0645,-0.2859964308254264,-0.3707644925982298,-6.406522367792197e-05,-0.0013080712325503647,0.0022110830322058825,9.82276958737112
8.32,0,4,1,1.7183580016555007,4219.181008704351,0.5725951634803563,5,160,9,1,1,-11,1,-0.0004999999999999978,4.9995,5.0005,-0.28279679331325147,-0.3708126947090318,-6.406518035594229e-05,0.00018920395080879263,0.0021491696595623204,9.773122064833373
8.352,0,4,1,1.1457628381751443,4220.326771542526,-0.5725951634803563,5,160,9,1,0,-11,-1,-0.0595,4.9405,5.0595,-0.27959709573498476,-0.37085608137057546,-6.405436357322103e-05,0.001624394832275312,0.006315653082170088,9.79023921936371
8.384,0,4,1,1.7183580016555007,4222.045129544182,0.5725951634803563,5,160,9,1,1,-10,1,0.0045,5.0045,4.9955,-0.27639739189528034,-0.3708997110419471,-6.405222246026569e-05,0.0029948531766841907,0.0013424639243169532,9.821512027984603
8.416,0,4,1,1.1457628381751443,4223.190892382357,-0.5725951634803563,5,160,9,1,0,-10,-1,-0.0545,4.9455,5.0545,-0.2731976402817016,-0.370938901087233,-6.404091373764936e-05,0.004149229988849751,0.005852663519820528,9.783216730858248
