TimeStep,SetPointAngle,Angle,BaseSpeed,SetPointError,Error,DeltaError,DeltaSpeed,LeftSpeed,RightSpeed,X,Y,Z,Roll,Pitch,Yaw
0.016,0,0.0,6.280008841912112,160,0,0,0.0,6.28,6.28,0.260682,0.40099999999999775,-4.672302181400398e-05,-7.764073059484634,-0.0022709971464250646,9.839325522207172
0.032,0,0.0,6.280008841912112,160,0,0,0.0,6.28,6.28,0.2597701881916552,0.4010000043534978,-3.406356127558935e-05,0.11994204363294987,-1.290301936788815e-05,9.780798503036
0.048,0,0.0,6.280008841912112,160,0,0,0.0,6.28,6.28,0.2580204272723412,0.40100001004233293,-2.5915389511587533e-05,7.930261077356995,1.2349206494249822e-05,9.747166213347386
0.064,0,0.0,6.280008841912112,160,0,0,0.0,6.28,6.28,0.25601079091777706,0.4010000156648041,-2.239171603252328e-05,0.055549684013198534,3.737310613400507e-07,9.822553689487535
0.08,0,0.0,6.280008841912112,160,0,0,0.0,6.28,6.28,0.25400116775465087,0.4010000212309404,-2.0164758761882784e-05,0.034958267159949284,2.472549285575937e-07,9.83034535402028
0.096,0,0.0,6.280008841912112,160,0,0,0.0,6.28,6.28,0.25199155306113896,0.4010000267610488,-1.8725800876463056e-05,0.01432040644662482,1.6602844545134083e-07,9.802000635054126
0.112,0,0.0,6.280008841912112,160,0,0,0.0,6.28,6.28,0.24998194372112018,0.4010000322681755,-1.7754338840863387e-05,-0.006580895427297724,1.1295668771778292e-07,9.814903560972459
0.128,0,0.0,6.280008841912112,160,0,0,0.0,6.28,6.28,0.2479723376586289,0.40100003776068355,-1.704841971006746e-05,-0.027511101693916323,7.837420166491173e-08,9.78991852720179
0.14400000000000002,0,0.0,6.280008841912112,160,0,0,0.0,6.28,6.28,0.24596273497580184,0.4010000421759728,-1.6398993760961475e-05,-0.03686418102727316,8.396584655959792e-06,9.790225379796272
0.16,0,0.0,6.280008841912112,160,0,0,0.0,6.28,6.28,0.2439531321802716,0.40100004783084786,-1.6213748729742433e-05,-0.03510432787432718,-8.89031866035024e-06,9.773782633990729
0.176,0,0.0,6.280008841912112,160,0,0,0.0,6.28,6.28,0.24194353039954664,0.40100005340988953,-1.610413574756539e-05,-0.032734292934935814,2.8082659850332985e-07,9.859508876343533
0.192,0,0.0,6.280008841912112,160,0,0,0.0,6.28,6.28,0.23993392926802626,0.4010000589399524,-1.604201164333817e-05,-0.02985878547032917,1.8269881409474633e-07,9.803445388335534
0.20800000000000002,0,0.0,6.280008841912112,160,0,0,0.0,6.28,6.28,0.23792432855083573,0.401000064438404,-1.6009810933800134e-05,-0.02645936566491356,1.1984297347309583e-07,9.878176551432649
0.224,0,0.0,6.280008841912112,160,0,0,0.0,6.28,6.28,0.23591472809723704,0.4010000699164018,-1.5995851193181462e-05,-0.022695682241226905,7.854124779991762e-08,9.752560173846543
0.24,0,0.0,6.280008841912112,160,0,0,0.0,6.28,6.28,0.23390512781074257,0.4010000753811122,-1.5992266070517444e-05,-0.01850376677422977,5.084899991311354e-08,9.735755359389605
0.256,0,0.0,6.280008841912112,160,0,0,0.0,6.28,6.28,0.23189552762998406,0.40100008083713484,-1.5993706739637903e-05,-0.014347389496167715,3.201189010410033e-08,9.744651392289093
0.272,0,0.0,6.280008841912112,160,0,0,0.0,6.28,6.28,0.22988592751640768,0.4010000862874162,-1.5996530230773243e-05,-0.00975534282962524,1.8858537716809753e-08,9.852070638252396
0.28800000000000003,0,0.0,6.280008841912112,160,0,0,0.0,6.28,6.28,0.22787632744628955,0.4010000917338374,-1.5998293482087297e-05,-0.005041408972128724,9.311874867393755e-09,9.814042865835495
0.304,0,0.0,6.280008841912112,160,0,0,0.0,6.28,6.28,0.22586672740548197,0.4010000971775937,-1.5997436457273334e-05,-0.0002630879235502742,2.38940467337838e-09,9.845540139606412
0.32,0,0.0,6.280008841912112,160,0,0,0.0,6.28,6.28,0.22385712738589436,0.4010001026194385,-1.5993079319669493e-05,0.004523792781048884,-2.958102993814922e-09,9.802285073410259
0.336,0,0.0,6.280008841912112,160,0,0,0.0,6.28,6.28,0.2218475273830906,0.4010001080598416,-1.598488569598544e-05,0.009232452819413931,-7.140512489150727e-09,9.789087271421705
0.352,0,0.0,6.280008841912112,160,0,0,0.0,6.28,6.28,0.21983792739462962,0.4010001134990911,-1.597296176777778e-05,0.01389636483287765,-1.075950398009035e-08,9.826794269974119
0.368,0,0.0,6.280008841912112,160,0,0,0.0,6.28,6.28,0.2178283274189251,0.4010001189373601,-1.595777263399545e-05,0.01810874156113096,-1.3722221182968361e-08,9.79339249889294
0.384,0,0.0,6.280008841912112,160,0,0,0.0,6.28,6.28,0.2158187274544932,0.4010001243747495,-1.5940065212277296e-05,0.02225892901790207,-1.629037720277841e-08,9.82427834873407
0.4,0,0.0,6.280008841912112,160,0,0,0.0,6.28,6.28,0.21380912749950692,0.40100012981131594,-1.592079221619455e-05,0.02599030707064537,-1.8350733914967866e-08,9.871958230274432
0.41600000000000004,0,0.0,6.280008841912112,160,0,0,0.0,6.28,6.28,0.2117995275516009,0.40100013524708994,-1.5901035303378733e-05,0.029500667376001346,-2.0289911631852595e-08,9.84208676090102
0.432,0,0.0,6.280008841912112,160,0,0,0.0,6.28,6.28,0.20978992760787918,0.4010001406820879,-1.5881927852616495e-05,0.03243889859650433,-2.183838183569133e-08,9.818062748250494
0.448,0,0.0,6.280008841912112,160,0,0,0.0,6.28,6.28,0.20778032835375704,0.4010001456970501,-1.5852673257526345e-05,0.03365271582516392,3.2591307262063386e-06,9.798276302469784
0.464,0,0.0,6.280008841912112,160,0,0,0.0,6.28,6.28,0.20577072820505488,0.40100015126200994,-1.5864159642673195e-05,0.033180855572651054,-3.7559503684773718e-06,9.803136703568704
0.48,0,0.0,6.280008841912112,160,0,0,0.0,6.28,6.28,0.20376112810801694,0.4010001567822086,-1.5876337910024352e-05,0.031872150592620406,1.2740648656260133e-07,9.804755307152671
0.496,0,0.0,6.280008841912112,160,0,0,0.0,6.28,6.28,0.2017515280425705,0.4010001622735823,-1.5889574652705463e-05,0.03012996676425967,7.122915815169774e-08,9.814821511450363
0.512,0,0.0,6.280008841912112,160,0,0,0.0,6.28,6.28,0.19974192799653231,0.40100016774635966,-1.5903887667015684e-05,0.02829119981262694,3.580832736073105e-08,9.86598540261831
0.528,0,0.0,6.280008841912112,160,0,0,0.0,6.28,6.28,0.19773232796276954,0.4010001732070709,-1.591894086493996e-05,0.02583759262335676,1.3340452807331776e-08,9.76517225068173
0.544,0,0.0,6.280008841912112,160,0,0,0.0,6.28,6.28,0.19572272793723094,0.40100017865988874,-1.5934168733182374e-05,0.022900099914422566,-7.263250460481003e-10,9.856198774042914
0.56,0,0.0,6.280008841912112,160,0,0,0.0,6.28,6.28,0.19371312791761935,0.4010001841074856,-1.5948876773443782e-05,0.01985340404323789,-9.314084836009422e-09,9.83340780896306
0.5760000000000001,0,0.0,6.280008841912112,160,0,0,0.0,6.28,6.28,0.19170352790250647,0.40100018955157996,-1.5962325521725468e-05,0.016346208943622594,-1.4291917266689506e-08,9.846188505876091
0.592,0,0.0,6.280008841912112,160,0,0,0.0,6.28,6.28,0.18969392789076656,0.40100019499328515,-1.597380183388647e-05,0.012641244508464761,-1.7011999715252895e-08,9.841696469491339
0.608,0,0.0,6.280008841912112,160,0,0,0.0,6.28,6.28,0.18768432788125028,0.40100020043333123,-1.5982678753833843e-05,0.008779779679954955,-1.802710768422755e-08,9.814327008539543
0.624,0,0.0,6.280008841912112,160,0,0,0.0,6.28,6.28,0.18567472787264366,0.40100020587220614,-1.598846395794648e-05,0.0047346543596998416,-1.7928361429769796e-08,9.802114276316006
0.64,0,0.0,6.280008841912112,160,0,0,0.0,6.28,6.28,0.18366512786346725,0.40100021131024527,-1.5990836167005876e-05,0.0006220859492362726,-1.7317785277791556e-08,9.793659550217248
0.656,0,0.0,6.280008841912112,160,0,0,0.0,6.28,6.28,0.18165552785217476,0.40100021674768777,-1.5989668815441505e-05,-0.003507409816075356,-1.605132010421072e-08,9.809427507426726
0.672,0,0.0,6.280008841912112,160,0,0,0.0,6.28,6.28,0.1796459278373124,0.40100022218471265,-1.598504049894235e-05,-0.007524805794381814,-1.4218687770162008e-08,9.770098733962454
0.6880000000000001,0,0.0,6.280008841912112,160,0,0,0.0,6.28,6.28,0.17763632781769992,0.40100022762146087,-1.597723217540946e-05,-0.011506487794696442,-1.2252992185586492e-08,9.756514717676229
0.704,0,0.0,6.280008841912112,160,0,0,0.0,6.28,6.28,0.17562672779259877,0.40100023305804955,-1.596671166414869e-05,-0.015263946247808517,-1.011875725486e-08,9.811660469555356
0.72,0,0.0,6.280008841912112,160,0,0,0.0,6.28,6.28,0.17361712776183708,0.4010002384945803,-1.5954106608883495e-05,-0.01880764388707733,-7.762830351065155e-09,9.842616068897863
0.736,0,0.0,6.280008841912112,160,0,0,0.0,6.28,6.28,0.17160752772587012,0.40100024393114453,-1.5940167666327748e-05,-0.02209994178662641,-5.249342394665129e-09,9.808539404276678
0.752,0,0.0,6.280008841912112,160,0,0,0.0,6.28,6.28,0.16959792768576465,0.4010002493678265,-1.5925724207834294e-05,-0.024962419575277617,-2.716175429630049e-09,9.810178051479193
0.768,0,0.0,6.280008841912112,160,0,0,0.0,6.28,6.28,0.1675883276431065,0.40100025480470475,-1.591163523047799e-05,-0.027654624165357602,-1.3838296435553375e-10,9.808313604579471
0.784,0,0.0,6.280008841912112,160,0,0,0.0,6.28,6.28,0.16557872759984174,0.4010002602418531,-1.589873843567749e-05,-0.029768740294331134,2.464210200765751e-09,9.81661734687709
0.8,0,0.0,6.280008841912112,160,0,0,0.0,6.28,6.28,0.1635691275580713,0.4010002656793408,-1.5887800527426485e-05,-0.031515526914940764,5.0077013781924254e-09,9.799565936033693
0.8160000000000001,0,0.0,6.280008841912112,160,0,0,0.0,6.28,6.28,0.16155952751982453,0.4010002711172324,-1.5879471700595144e-05,-0.032674279919349125,7.552307218611118e-09,9.77849720628403
0.8320000000000001,0,0.0,6.280008841912112,160,0,0,0.0,6.28,6.28,0.1595499275136057,0.4010002764587132,-1.5871076153665606e-05,-0.033108372881319695,7.645987464479615e-07,9.82833103332417
0.848,0,0.0,6.280008841912112,160,0,0,0.0,6.28,6.28,0.15754032748971247,0.4010002819136919,-1.587581005316717e-05,-0.032669532293236166,-8.024722709978596e-07,9.806929414194764
0.864,0,0.0,6.280008841912112,160,0,0,0.0,6.28,6.28,0.15553072747523813,0.40100028736269544,-1.5883103429323656e-05,-0.03190680050479496,3.6881264359415425e-08,9.857366528739716
0.88,0,0.0,6.280008841912112,160,0,0,0.0,6.28,6.28,0.15352112746853058,0.40100029280808214,-1.5892811281810817e-05,-0.030319615363703797,3.089923838513469e-08,9.834424454757604
0.896,0,0.0,6.280008841912112,160,0,0,0.0,6.28,6.28,0.1515115274678469,0.40100029825138905,-1.5904569168077864e-05,-0.0283714782331974,2.7798922641232384e-08,9.791768535087677
0.912,0,0.0,6.280008841912112,160,0,0,0.0,6.28,6.28,0.14950192747141033,0.4010003036936125,-1.5917814233365468e-05,-0.02636482286875101,2.623249467648775e-08,9.817223535052896
0.928,0,0.0,6.280008841912112,160,0,0,0.0,6.28,6.28,0.1474923274775356,0.401000309135399,-1.5931846258684934e-05,-0.023708749900280976,2.571219993393197e-08,9.803625369022674
0.9440000000000001,0,0.0,6.280008841912112,160,0,0,0.0,6.28,6.28,0.14548272748478186,0.40100031457716706,-1.5945886927630146e-05,-0.02068371474514415,2.569483841712729e-08,9.777823022702467
0.96,0,0.0,6.280008841912112,160,0,0,0.0,6.28,6.28,0.14347312749209673,0.4010003200191859,-1.5959137371363702e-05,-0.017454786053379516,2.573054061864888e-08,9.815100554752858
0.976,0,0.0,6.280008841912112,160,0,0,0.0,6.28,6.28,0.14146352749892105,0.4010003254616253,-1.597083286661305e-05,-0.013812443930020015,2.6164302155994265e-08,9.807018610562649
0.992,0,0.0,6.280008841912112,160,0,0,0.0,6.28,6.28,0.13945392750523386,0.40100033090458853,-1.598029290169299e-05,-0.01009127844303815,2.637534565931988e-08,9.818230515128215
1.008,0,0.0,6.280008841912112,160,0,0,0.0,6.28,6.28,0.13744432751152708,0.40100033634813353,-1.5986964573748083e-05,-0.006155587170124647,2.641991978382827e-08,9.81360408743694
1.024,0,0.0,6.280008841912112,160,0,0,0.0,6.28,6.28,0.13543472751871077,0.4010003417922859,-1.5990457337121747e-05,-0.0021038153910074814,2.6189304319751832e-08,9.743732534787863
1.04,0,0.0,6.280008841912112,160,0,0,0.0,6.28,6.28,0.13342512752796004,0.4010003472370484,-1.599056742237169e-05,0.001927404704921212,2.609009378887097e-08,9.803557073122345
1.056,0,0.0,6.280008841912112,160,0,0,0.0,6.28,6.28,0.1314155275405233,0.4010003526824069,-1.598729071925105e-05,0.00599018792821051,2.54422769213582e-08,9.78632630348347
1.072,0,0.0,6.280008841912112,160,0,0,0.0,6.28,6.28,0.129405927557517,0.40100035812833396,-1.5980823515457723e-05,0.009928483780042527,2.470502751581677e-08,9.760048072454
1.088,0,0.0,6.280008841912112,160,0,0,0.0,6.28,6.28,0.12739632757973404,0.4010003635747919,-1.597155114729798e-05,0.013667117145016713,2.3787919505088448e-08,9.789791887568127
1.104,0,0.0,6.280008841912112,160,0,0,0.0,6.28,6.28,0.12538672760749192,0.40100036902173475,-1.5960025301173242e-05,0.0172154838038609,2.2567457188620708e-08,9.810795785579794
1.12,0,0.0,6.280008841912112,160,0,0,0.0,6.28,6.28,0.12337712764054128,0.40100037446910963,-1.5946931356135632e-05,0.02064452745218966,2.1154697816995448e-08,9.808063401630852
1.1360000000000001,0,0.0,6.280008841912112,160,0,0,0.0,6.28,6.28,0.12136752767804707,0.40100037991685816,-1.5933047734503075e-05,0.02362832431365972,1.9424439304563643e-08,9.792008451604133
1.1520000000000001,0,0.0,6.280008841912112,160,0,0,0.0,6.28,6.28,0.1193579277186465,0.40100038536491733,-1.5919199693506178e-05,0.026290054984061517,1.756883508146312e-08,9.783169882555109
1.168,0,0.0,6.280008841912112,160,0,0,0.0,6.28,6.28,0.11734832776057585,0.4010003908132204,-1.5906210314498015e-05,0.028494201731588637,1.563837654314465e-08,9.78217922363269
1.184,0,0.0,6.280008841912112,160,0,0,0.0,6.28,6.28,0.11533872780185063,0.4010003962616978,-1.5894851609887448e-05,0.03037577584812028,1.3434231639626303e-08,9.781428304518435
1.2,0,0.0,6.280008841912112,160,0,0,0.0,6.28,6.28,0.11332912784047566,0.401000401710278,-1.5885798657288078e-05,0.031800323596005355,1.1080338397921442e-08,9.818923162329634
1.216,0,0.0,6.280008841912112,160,0,0,0.0,6.28,6.28,0.11131952787465826,0.4010004071588882,-1.587958948976939e-05,0.03255166388015947,8.712110080944646e-09,9.788787889606553
1.232,0,0.0,6.280008841912112,160,0,0,0.0,6.28,6.28,0.10930992790299651,0.4010004126074552,-1.5876593127323035e-05,0.03309902806688184,6.243504717501052e-09,9.856220468572639
1.248,0,0.0,6.280008841912112,160,0,0,0.0,6.28,6.28,0.10730032793348718,0.40100041805578657,-1.5877013697970788e-05,0.03326706191530832,3.5136490050614692e-09,9.827422081017994
1.264,0,0.0,6.280008841912112,160,0,0,0.0,6.28,6.28,0.10529072794467612,0.4010004235040862,-1.588169496263142e-05,0.03232132968241107,1.1616741328728164e-09,9.801945404828647
1.28,0,0.0,6.280008841912112,160,0,0,0.0,6.28,6.28,0.10328112795008898,0.4010004289521159,-1.588935580641021e-05,0.031382592061892464,-1.4985703402496578e-09,9.85143727828123
1.296,0,0.0,6.280008841912112,160,0,0,0.0,6.28,6.28,0.10127152795040796,0.40100043439981253,-1.5899581961850012e-05,0.02963412545508524,-4.117651587158133e-09,9.81814134545836
1.312,0,0.0,6.280008841912112,160,0,0,0.0,6.28,6.28,0.0992619279467523,0.40100043984711475,-1.59117919556577e-05,0.027571138021453976,-6.671184738106273e-09,9.797963857997122
1.328,0,0.0,6.280008841912112,160,0,0,0.0,6.28,6.28,0.0972523279404521,0.4010004452939641,-1.592527695431188e-05,0.02507068402614798,-9.190719758293217e-09,9.819585286410089
1.344,0,0.0,6.280008841912112,160,0,0,0.0,6.28,6.28,0.0952427279328205,0.40100045074030605,-1.593924629909177e-05,0.022168394825826103,-1.1568634510767887e-08,9.83335171284203
1.36,0,0.0,6.280008841912112,160,0,0,0.0,6.28,6.28,0.09323312792494749,0.4010004561860906,-1.5952876675506128e-05,0.019098300496739155,-1.3793358142612267e-08,9.794059185734355
1.3760000000000001,0,0.0,6.280008841912112,160,0,0,0.0,6.28,6.28,0.09122352791753814,0.40100046163127345,-1.5965362436984668e-05,0.015695034550011373,-1.593439772840769e-08,9.788755847959802
1.3920000000000001,0,0.0,6.280008841912112,160,0,0,0.0,6.28,6.28,0.08921392791081396,0.4010004670758159,-1.597596437657653e-05,0.011973660468229522,-1.8013275830201677e-08,9.839732545945294
1.408,0,0.0,6.280008841912112,160,0,0,0.0,6.28,6.28,0.08720432790448844,0.40100047251968574,-1.598405422845693e-05,0.00812596770646566,-1.9877140121707734e-08,9.769884572072346
1.424,0,0.0,6.280008841912112,160,0,0,0.0,6.28,6.28,0.08519472789781851,0.4010004779628577,-1.5989152370634446e-05,0.004128456415291022,-2.135778911480447e-08,9.804154748234252
1.44,0,0.0,6.280008841912112,160,0,0,0.0,6.28,6.28,0.08318512788972435,0.40100048340531325,-1.599095656275827e-05,8.907104677082151e-05,-2.276117678378477e-08,9.79173564691862
1.456,0,0.0,6.280008841912112,160,0,0,0.0,6.28,6.28,0.08117552787896049,0.40100048884704126,-1.5989360057434496e-05,-0.003950006198680555,-2.4009270791789177e-08,9.805676472608871
1.472,0,0.0,6.280008841912112,160,0,0,0.0,6.28,6.28,0.07916592786431488,0.40100049428803797,-1.5984458039660157e-05,-0.007945438819813579,-2.4861085641418135e-08,9.827825066640983
1.488,0,0.0,6.280008841912112,160,0,0,0.0,6.28,6.28,0.0771563278448087,0.4010004997283069,-1.5976542031103172e-05,-0.011841654619750088,-2.5407120480802217e-08,9.837038065908056
1.504,0,0.0,6.280008841912112,160,0,0,0.0,6.28,6.28,0.07514672781986959,0.40100050516785923,-1.5966082603647083e-05,-0.015487292840507464,-2.5799411024073113e-08,9.813181878227986
1.52,0,0.0,6.280008841912112,160,0,0,0.0,6.28,6.28,0.07313712778945461,0.4010005106067131,-1.595370143801962e-05,-0.01890114327465562,-2.6090553079683786e-08,9.791431255224168
1.536,0,0.0,6.280008841912112,160,0,0,0.0,6.28,6.28,0.07112752775410591,0.40100051604489373,-1.5940134393224725e-05,-0.02190678467335212,-2.5976375742694712e-08,9.860113849725256
1.552,0,0.0,6.280008841912112,160,0,0,0.0,6.28,6.28,0.06911792771493071,0.4010005214824333,-1.5926187784561646e-05,-0.02498195541476039,-2.549202731307255e-08,9.744920910946151
1.568,0,0.0,6.280008841912112,160,0,0,0.0,6.28,6.28,0.06710832767350768,0.4010005269193704,-1.5912690471306737e-05,-0.027495317640231158,-2.4830963910462908e-08,9.762963585688508
1.584,0,0.0,6.280008841912112,160,0,0,0.0,6.28,6.28,0.06509872763173119,0.40100053235574945,-1.5900444602289995e-05,-0.029601416224378216,-2.3820083798909135e-08,9.789153028031887
1.6,0,0.0,6.280008841912112,160,0,0,0.0,6.28,6.28,0.06308912759161342,0.40100053779162087,-1.5890177947857145e-05,-0.031018168172613023,-2.2891486724489394e-08,9.80446288366979
1.616,0,0.0,6.280008841912112,160,0,0,0.0,6.28,6.28,0.061079527555069735,0.4010005432270399,-1.588250065127743e-05,-0.032386821545495055,-2.1301410549892074e-08,9.832663518813016
1.6320000000000001,0,0.0,6.280008841912112,160,0,0,0.0,6.28,6.28,0.05906992752371509,0.4010005486620662,-1.5877868970212705e-05,-0.032970506812618906,-1.9833200862597373e-08,9.783366675403679
1.6480000000000001,0,0.0,6.280008841912112,160,0,0,0.0,6.28,6.28,0.05706032748898037,0.4010005540967636,-1.587611886601399e-05,-0.032918779917532504,-1.7280955829728435e-08,9.815471399847736
1.6640000000000001,0,0.0,6.280008841912112,160,0,0,0.0,6.28,6.28,0.05505072747440579,0.4010005595312002,-1.5879098639589445e-05,-0.03292430645174286,-1.5608562127118238e-08,9.8146128584785
1.68,0,0.0,6.280008841912112,160,0,0,0.0,6.28,6.28,0.05304112746582448,0.40100056496544484,-1.5885210176012216e-05,-0.03178550701624546,-1.3634694610211554e-08,9.787647583136106
1.696,0,0.0,6.280008841912112,160,0,0,0.0,6.28,6.28,0.05103152746282468,0.40100057039956843,-1.5894130152965466e-05,-0.030301261654500443,-1.1464013789318673e-08,9.772418415678473
1.712,0,0.0,6.280008841912112,160,0,0,0.0,6.28,6.28,0.04902192746446439,0.4010005758336437,-1.590535783701358e-05,-0.028828073774754503,-9.123549173653943e-09,9.751199543387056
1.728,0,0.0,6.280008841912112,160,0,0,0.0,6.28,6.28,0.04701232746948132,0.40100058126774357,-1.5918244763490907e-05,-0.02636460807889144,-6.636129932591984e-09,9.827892616512745
1.744,0,0.0,6.280008841912112,160,0,0,0.0,6.28,6.28,0.04500272747651855,0.4010005867019412,-1.5932037088937576e-05,-0.02362416996184235,-4.1977703745785074e-09,9.834643296862021
1.76,0,0.0,6.280008841912112,160,0,0,0.0,6.28,6.28,0.04299312748434233,0.40100059213630845,-1.594592283102325e-05,-0.020632514915694358,-1.5913398378595336e-09,9.795220246071386
1.776,0,0.0,6.280008841912112,160,0,0,0.0,6.28,6.28,0.0409835274920278,0.40100059757091544,-1.5959081684717435e-05,-0.017488753320417206,1.001465823482766e-09,9.800875043841652
1.792,0,0.0,6.280008841912112,160,0,0,0.0,6.28,6.28,0.038973927499091315,0.4010006030058301,-1.59707347705991e-05,-0.013857001326652693,3.5905679266265635e-09,9.80392994541689
1.808,0,0.0,6.280008841912112,160,0,0,0.0,6.28,6.28,0.036964327505553875,0.401000608441117,-1.59801915619439e-05,-0.010154599110106103,6.141661757231097e-09,9.834540383467376
1.824,0,0.0,6.280008841912112,160,0,0,0.0,6.28,6.28,0.03495472751192851,0.40100061387683705,-1.5986891331004616e-05,-0.006210529783477108,8.624390713288142e-09,9.832780697970572
1.84,0,0.0,6.280008841912112,160,0,0,0.0,6.28,6.28,0.032945127519134663,0.40100061931304676,-1.599043673445634e-05,-0.0022004306097070585,1.1043574649395141e-08,9.791770377384536
1.856,0,0.0,6.280008841912112,160,0,0,0.0,6.28,6.28,0.030935527528351475,0.40100062474979775,-1.5990617594640807e-05,0.001840161372393772,1.3320566401878353e-08,9.816758882496952
1.872,0,0.0,6.280008841912112,160,0,0,0.0,6.28,6.28,0.028925927540830478,0.4010006301871364,-1.5987423497614006e-05,0.0058281483612781055,1.5527879671325607e-08,9.837562243220347
1.8880000000000001,0,0.0,6.280008841912112,160,0,0,0.0,6.28,6.28,0.02691632755769314,0.40100063562510296,-1.5981044480079323e-05,0.00981473098610888,1.7516141848453595e-08,9.823181321241275
1.9040000000000001,0,0.0,6.280008841912112,160,0,0,0.0,6.28,6.28,0.024906727579740853,0.40100064106373157,-1.5971859779376207e-05,0.013459118684583965,1.9263068233235237e-08,9.793338288390874
1.92,0,0.0,6.280008841912112,160,0,0,0.0,6.28,6.28,0.022897127607303447,0.4010006465030497,-1.5960415323059557e-05,0.01696877186716737,2.1031275896987774e-08,9.808759098588489
1.936,0,0.0,6.280008841912112,160,0,0,0.0,6.28,6.28,0.020887527640146918,0.4010006519430779,-1.5947391302197772e-05,0.020492388968375245,2.2397438603703598e-08,9.815433031510523
1.952,0,0.0,6.280008841912112,160,0,0,0.0,6.28,6.28,0.01887792767745357,0.4010006573838295,-1.5933561759084655e-05,0.023484662543428243,2.3613285413591146e-08,9.805661130341436
1.968,0,0.0,6.280008841912112,160,0,0,0.0,6.28,6.28,0.016868327717877878,0.40100066282531094,-1.59197485934421e-05,0.02625772431457465,2.457459493777633e-08,9.791597163329376
1.984,0,0.0,6.280008841912112,160,0,0,0.0,6.28,6.28,0.014858727759671453,0.4010006682675208,-1.590677272218094e-05,0.028452311417032475,2.5310608339912864e-08,9.76561911902562
2.0,0,0.0,6.280008841912112,160,0,0,0.0,6.28,6.28,0.012849127800861447,0.4010006737104507,-1.5895405296189116e-05,0.030338025012115095,2.5767982068349905e-08,9.778757788034614
2.016,0,0.0,6.280008841912112,160,0,0,0.0,6.28,6.28,0.010839527839459304,0.40100067915408477,-1.5886321873864045e-05,0.031612936335302516,2.5883721013022035e-08,9.815577987954127
2.032,0,0.0,6.280008841912112,160,0,0,0.0,6.28,6.28,0.00882992787367309,0.4010006845984002,-1.5880062274938045e-05,0.0326808241611795,2.600816955697398e-08,9.809879976647771
2.048,0,0.0,6.280008841912112,160,0,0,0.0,6.28,6.28,0.006820327902095861,0.4010006900433673,-1.5876998501054146e-05,0.03295892554733529,2.5721084187993e-08,9.807755732843471
2.064,0,0.0,6.280008841912112,160,0,0,0.0,6.28,6.28,0.004810727931582773,0.4010006954889493,-1.5877334854599856e-05,0.03288121040987055,2.39322003531013e-08,9.787559148008642
2.08,0,0.0,6.280008841912112,160,0,0,0.0,6.28,6.28,0.002801127943351385,0.4010007009351027,-1.5881821331036744e-05,0.032396174515957804,2.3663776394519357e-08,9.82442568875079
2.096,0,0.0,6.280008841912112,160,0,0,0.0,6.28,6.28,0.0007915279492447955,0.4010007063817803,-1.5889304104062946e-05,0.03133265213385893,2.2836978322327897e-08,9.813693314757419
2.112,0,0.0,6.280008841912112,160,0,0,0.0,6.28,6.28,-0.0012180720500472957,0.40100071182892905,-1.5899374751767587e-05,0.02963941365758458,2.1790363581482922e-08,9.793426331698118
2.128,0,0.0,6.280008841912112,160,0,0,0.0,6.28,6.28,-0.0032276720534034895,0.40100071727649034,-1.591145800965664e-05,0.02751490485098843,2.0127302455142066e-08,9.816644945758025
2.144,0,0.0,6.280008841912112,160,0,0,0.0,6.28,6.28,-0.005237272059490306,0.4010007227244013,-1.5924850636103716e-05,0.02511623438663843,1.8585419791475036e-08,9.839225052183815
2.16,0,0.0,6.280008841912112,160,0,0,0.0,6.28,6.28,-0.007246872066986165,0.4010007281725953,-1.5938766221385015e-05,0.022289862242435263,1.665012634674522e-08,9.856350645190338
2.176,0,0.0,6.280008841912112,160,0,0,0.0,6.28,6.28,-0.009256472074786137,0.401000733621003,-1.5952383852360988e-05,0.019231250297363858,1.4647087816635276e-08,9.791097915909614
2.192,0,0.0,6.280008841912112,160,0,0,0.0,6.28,6.28,-0.011266072082164121,0.401000739069553,-1.5964898132473163e-05,0.01568691160934744,1.2375473120703682e-08,9.808994846623424
2.208,0,0.0,6.280008841912112,160,0,0,0.0,6.28,6.28,-0.013275672088873501,0.40100074451817236,-1.5975567835387755e-05,0.01215070116992123,1.0002749042871714e-08,9.84981224527633
2.224,0,0.0,6.280008841912112,160,0,0,0.0,6.28,6.28,-0.015285272095174565,0.4010007499667875,-1.5983760460388033e-05,0.008302127200424619,7.497524166395772e-09,9.83698591400998
2.24,0,0.0,6.280008841912112,160,0,0,0.0,6.28,6.28,-0.017294872101786353,0.40100075541532487,-1.598899014505946e-05,0.004315952729250263,4.960134526423451e-09,9.712570111928564
2.2560000000000002,0,0.0,6.280008841912112,160,0,0,0.0,6.28,6.28,-0.01930447210977017,0.4010007608637118,-1.5990946746423026e-05,0.00027930918402421535,2.398804171383388e-09,9.882073783997065
2.2720000000000002,0,0.0,6.280008841912112,160,0,0,0.0,6.28,6.28,-0.0213140721203611,0.4010007663118772,-1.5989514405068128e-05,-0.003753154711650854,-2.2808331471951795e-10,9.816711451835149
2.2880000000000003,0,0.0,6.280008841912112,160,0,0,0.0,6.28,6.28,-0.023323672134770546,0.4010007717597522,-1.5984778515066786e-05,-0.007735167406952101,-2.8352645651967436e-09,9.798505134211489
2.3040000000000003,0,0.0,6.280008841912112,160,0,0,0.0,6.28,6.28,-0.02533327215398681,0.40100077720727073,-1.5977020702814815e-05,-0.01160157274997996,-5.4191735372553565e-09,9.848692307648731
2.32,0,0.0,6.280008841912112,160,0,0,0.0,6.28,6.28,-0.02734287217860083,0.4010007826543708,-1.5966702124451532e-05,-0.015192843515131123,-7.931044001830909e-09,9.784240206635623
2.336,0,0.0,6.280008841912112,160,0,0,0.0,6.28,6.28,-0.02935247220868099,0.4010007881009942,-1.5954436081015363e-05,-0.01872219309764108,-1.04395464777009e-08,9.774513246494388
2.352,0,0.0,6.280008841912112,160,0,0,0.0,6.28,6.28,-0.03136207224371439,0.40100079354708795,-1.5940951584029334e-05,-0.021936227059166372,-1.2760394904758161e-08,9.857050340464745
2.368,0,0.0,6.280008841912112,160,0,0,0.0,6.28,6.28,-0.03337167228262311,0.40100079899260416,-1.592705003935352e-05,-0.02469692829428004,-1.5013753011507854e-08,9.83583533129735
2.384,0,0.0,6.280008841912112,160,0,0,0.0,6.28,6.28,-0.035381272323854185,0.40100080443750086,-1.591355762577823e-05,-0.027345962090885398,-1.7038257397621326e-08,9.846837345336636
2.4,0,0.0,6.280008841912112,160,0,0,0.0,6.28,6.28,-0.03739087236553202,0.4010008098817426,-1.5901276199636535e-05,-0.029224798010456157,-1.8954699363246797e-08,9.841875853972667
2.416,0,0.0,6.280008841912112,160,0,0,0.0,6.28,6.28,-0.0394004724056539,0.4010008153253003,-1.5890935643449178e-05,-0.030889335588333323,-2.0869585671034695e-08,9.801658712870278
2.432,0,0.0,6.280008841912112,160,0,0,0.0,6.28,6.28,-0.041410072442303436,0.4010008207681519,-1.588315049191706e-05,-0.03213406316583335,-2.212220153207702e-08,9.795472607446204
2.448,0,0.0,6.280008841912112,160,0,0,0.0,6.28,6.28,-0.04341967247385424,0.40100082621028255,-1.5878383412029975e-05,-0.03265192621925242,-2.3332689097744195e-08,9.807561191837268
2.464,0,0.0,6.280008841912112,160,0,0,0.0,6.28,6.28,-0.04542927250861655,0.4010008316516842,-1.587648876917938e-05,-0.03309517100697711,-2.3052145781154235e-08,9.802133324022988
2.48,0,0.0,6.280008841912112,160,0,0,0.0,6.28,6.28,-0.047438872523589116,0.4010008370923587,-1.5879280988560437e-05,-0.032605683112850704,-2.43104950536523e-08,9.88360974983764
2.496,0,0.0,6.280008841912112,160,0,0,0.0,6.28,6.28,-0.04944847253255738,0.40100084253231166,-1.588520899024025e-05,-0.03189743616938678,-2.504060448488932e-08,9.826389712331173
2.512,0,0.0,6.280008841912112,160,0,0,0.0,6.28,6.28,-0.051458072535909685,0.4010008479715565,-1.5893959366934315e-05,-0.03057622052295461,-2.5738368445592813e-08,9.840123549687052
2.528,0,0.0,6.280008841912112,160,0,0,0.0,6.28,6.28,-0.053467672534567676,0.4010008534101143,-1.5905040734095002e-05,-0.028789958937499107,-2.5587815011794617e-08,9.789831648532846
2.544,0,0.0,6.280008841912112,160,0,0,0.0,6.28,6.28,-0.055477272529780235,0.40100085884801334,-1.5917812855587368e-05,-0.026473539382634127,-2.553906692707465e-08,9.787193141955173
2.56,0,0.0,6.280008841912112,160,0,0,0.0,6.28,6.28,-0.05748687252290023,0.4010008642852886,-1.5931528411892645e-05,-0.023812311434960293,-2.5091764534534536e-08,9.847060403297466
2.576,0,0.0,6.280008841912112,160,0,0,0.0,6.28,6.28,-0.0594964725151676,0.4010008697219814,-1.594537979194774e-05,-0.02077137364432776,-2.4379443478611336e-08,9.80593348034099
2.592,0,0.0,6.280008841912112,160,0,0,0.0,6.28,6.28,-0.061506072507522755,0.40100087515813876,-1.595854861061695e-05,-0.017559781501101587,-2.342443498932578e-08,9.815204105387597
2.608,0,0.0,6.280008841912112,160,0,0,0.0,6.28,6.28,-0.0635156725004721,0.40100088059381306,-1.5970255318159543e-05,-0.014045313625102111,-2.2319305311912462e-08,9.841982273191508
2.624,0,0.0,6.280008841912112,160,0,0,0.0,6.28,6.28,-0.06552527249402136,0.4010008860290614,-1.5979806151103504e-05,-0.01025085712467159,-2.070340376046848e-08,9.861825984308098
2.64,0,0.9548412538723549,6.2322659683974555,160,1,1,0.0595,6.28,6.172765968397456,-0.06753487248768424,0.4010008914639451,-1.5986634760873156e-05,-0.006424150871814937,-1.913213350463168e-08,9.863883240262759
2.656,0,0.9548412538723549,6.2322659683974555,160,1,0,0.060000000000000005,6.28,6.172265968397456,-0.06952731625565399,0.4010012198208186,-1.598726686322799e-05,-0.07315308098883863,-0.002579717352450704,9.762068348949782
2.672,0,0.0,6.280008841912112,160,0,-1,0.0055000000000000005,6.28,6.2745088419121124,-0.07151967879821405,0.4010028513153085,-1.598800013795712e-05,-0.005461956020649801,-0.005048271426186337,9.79110605951972
2.688,0,0.0,6.280008841912112,160,0,0,0.01,6.28,6.270008841912112,-0.07352839757964894,0.4010054679680498,-1.5990779640746508e-05,0.06248664493725849,-0.002511704761422631,9.832545241670617
2.704,0,0.0,6.280008841912112,160,0,0,0.01,6.28,6.270008841912112,-0.07553639733737777,0.4010081112853149,-1.5990254258134093e-05,-8.840157968220215e-05,-0.0001871322503469983,9.811526010631388
2.72,0,0.0,6.280008841912112,160,0,0,0.01,6.28,6.270008841912112,-0.0775443967989228,0.40101084061179604,-1.5986629331620622e-05,0.006541826687353497,-0.0003540337273573012,9.793939737563202
2.736,0,0.0,6.280008841912112,160,0,0,0.01,6.28,6.270008841912112,-0.07955239608338567,0.40101366648635034,-1.5980134913712654e-05,0.010209915065414578,-0.00038929611562380276,9.805651634302288
2.7520000000000002,0,0.0,6.280008841912112,160,0,0,0.01,6.28,6.270008841912112,-0.08156039521462403,0.4010165960104579,-1.5971169601551594e-05,0.013863943331676969,-0.0004174641229453149,9.85529207870114
2.7680000000000002,0,0.9548412538723549,6.2322659683974555,160,0,0,0.01,6.242265968397455,6.222265968397456,-0.0835683941957624,0.4010196338897453,-1.5960275097016974e-05,0.0172316529606338,-0.00043279009360833843,9.829466577460542
2.7840000000000003,0,0.9548412538723549,6.2322659683974555,160,0,0,0.01,6.242265968397455,6.222265968397456,-0.08556271753973885,0.40102279462479606,-1.5958654088607874e-05,-0.03590768025760533,-0.0006948527590076239,9.85101964950604
2.8000000000000003,0,0.9548412538723549,6.2322659683974555,160,0,0,0.01,6.242265968397455,6.222265968397456,-0.0875570395730691,0.40102618883747443,-1.5958032976355965e-05,0.017727660431187016,-0.0009098046344280901,9.83342878086276
2.816,0,0.9548412538723549,6.2322659683974555,160,0,0,0.01,6.242265968397455,6.222265968397456,-0.08955136126638463,0.40102981456533393,-1.5958420791647998e-05,0.0176519021754022,-0.0009101818520527172,9.818839141425842
2.832,0,0.9548412538723549,6.2322659683974555,160,0,0,0.01,6.242265968397455,6.222265968397456,-0.09154568257170682,0.40103367041431226,-1.595977998852631e-05,0.017283082046159404,-0.0009034430647208175,9.849792843355372
2.848,0,0.9548412538723549,6.2322659683974555,160,0,0,0.01,6.242265968397455,6.222265968397456,-0.09354000344920493,0.4010377554131238,-1.5962019797720328e-05,0.016577872495569915,-0.0008992869980113759,9.777888981506415
2.864,0,0.9548412538723549,6.2322659683974555,160,0,0,0.01,6.242265968397455,6.222265968397456,-0.0955343238642463,0.4010420688912604,-1.596500028138749e-05,0.01568290810320918,-0.0009030007245181813,9.800110264081969
2.88,0,0.0,6.280008841912112,160,-1,-1,-0.0495,6.230508841912112,6.28,-0.09752864378549364,0.401046610388171,-1.5968539685240826e-05,0.014549106199926772,-0.0008967611962333061,9.830138585137645
2.896,0,0.9548412538723549,6.2322659683974555,160,0,1,0.0095,6.241765968397456,6.222765968397455,-0.09953031945772046,0.4010511691640198,-1.5968165077947724e-05,0.043319258831546366,0.0008291049523287498,9.81786714099398
2.912,0,0.0,6.280008841912112,160,-1,-1,-0.0545,6.225508841912112,6.28,-0.10152464078351857,0.40105531454137844,-1.597269774988863e-05,-0.015616659909693957,0.0006922663991761223,9.839079315300468
2.928,0,0.9548412538723549,6.2322659683974555,160,0,1,0.0045,6.236765968397456,6.227765968397455,-0.10352551748370624,0.4010594720895404,-1.597391568439882e-05,0.038430196720909346,0.0008971771526989021,9.791587786159676
2.944,0,0.9548412538723549,6.2322659683974555,160,0,0,0.0,6.2322659683974555,6.2322659683974555,-0.1055198396419214,0.4010631560796088,-1.5978680498731843e-05,-0.014916588678409327,0.0010104820393295533,9.835384654192257
2.96,0,0.9548412538723549,6.2322659683974555,160,0,0,0.0,6.2322659683974555,6.2322659683974555,-0.10751416112359342,0.40106693811424554,-1.5982940674555066e-05,0.008568070711622282,-0.00026421049754543906,9.767368537087123
2.976,0,0.9548412538723549,6.2322659683974555,160,0,0,0.0,6.2322659683974555,6.2322659683974555,-0.10950848258395993,0.4010707279845281,-1.5986441588705658e-05,0.006376960957689943,-2.7416165827607285e-05,9.797468313532933
2.992,0,0.0,6.280008841912112,160,-1,-1,-0.0595,6.220508841912112,6.28,-0.11150280403924932,0.40107452304245694,-1.5988977306251317e-05,0.004019648927901254,-1.7978753605527164e-05,9.748938369377228
3.008,0,0.9548412538723549,6.2322659683974555,160,0,1,-0.0005000000000000004,6.231765968397456,6.232765968397455,-0.11350288185848216,0.4010781456621436,-1.5989833208824092e-05,0.025293528675473693,0.0014278176575098919,9.80015369337522
3.024,0,0.9548412538723549,6.2322659683974555,160,0,0,-0.005,6.227265968397456,6.237265968397455,-0.11549720493384787,0.4010812189945901,-1.599065693842598e-05,-0.022167384438042472,0.0013890802256931445,9.803553438568434
3.04,0,0.9548412538723549,6.2322659683974555,160,0,0,-0.005,6.227265968397456,6.237265968397455,-0.11749152769571983,0.40108427141408304,-1.599024054921988e-05,-0.0020905387183251887,0.00020109333101451306,9.802112697661036
3.056,0,0.9548412538723549,6.2322659683974555,160,0,0,-0.005,6.227265968397456,6.237265968397455,-0.11948585061529259,0.40108721356169347,-1.5988607390524795e-05,-0.00451489642414668,0.000435140466384386,9.796604686336293
3.072,0,0.9548412538723549,6.2322659683974555,160,0,0,-0.005,6.227265968397456,6.237265968397455,-0.1214801737005077,0.4010900437245944,-1.598585661855695e-05,-0.006852946917854474,0.0004376315327982391,9.848820981201643
3.088,0,0.9548412538723549,6.2322659683974555,160,0,0,-0.005,6.227265968397456,6.237265968397455,-0.12347449695137269,0.40109276074042377,-1.5982153773854216e-05,-0.009080895891370887,0.000448014261381557,9.848524096748053
3.104,0,0.9548412538723549,6.2322659683974555,160,0,0,-0.005,6.227265968397456,6.237265968397455,-0.12546882036359072,0.40109536382481664,-1.597772045290255e-05,-0.011168930663327784,0.00044653959273162157,9.821483378738673
3.12,0,0.9548412538723549,6.2322659683974555,160,0,0,-0.005,6.227265968397456,6.237265968397455,-0.12746314393064334,0.4010978524522158,-1.5972821092084463e-05,-0.013040815686148755,0.00044826467630234787,9.822258492723211
3.136,0,0.9548412538723549,6.2322659683974555,160,0,0,-0.005,6.227265968397456,6.237265968397455,-0.12945746764494545,0.40110022627105785,-1.5967747363536053e-05,-0.014727527190011858,0.0004508126877535668,9.786295195100541
3.152,0,0.9548412538723549,6.2322659683974555,160,0,0,-0.005,6.227265968397456,6.237265968397455,-0.13145179149846795,0.40110248504476154,-1.59628009829757e-05,-0.01645087793551876,0.00045213654467373933,9.786773320734955
3.168,0,0.9548412538723549,6.2322659683974555,160,0,0,-0.005,6.227265968397456,6.237265968397455,-0.13344611548306579,0.4011046286114788,-1.59582759019037e-05,-0.017702899671427737,0.0004518826654946274,9.798535575671526
3.184,0,0.9548412538723549,6.2322659683974555,160,0,0,-0.005,6.227265968397456,6.237265968397455,-0.13544043959064758,0.4011066568571509,-1.5954440929151145e-05,-0.018580330870271246,0.00045310928465284013,9.846264035155695
3.2,0,0.9548412538723549,6.2322659683974555,160,0,0,-0.005,6.227265968397456,6.237265968397455,-0.13743476381326367,0.40110856969780884,-1.595152381581727e-05,-0.01939746794987986,0.0004555593426498735,9.821146469955961
3.216,0,0.9548412538723549,6.2322659683974555,160,0,0,-0.005,6.227265968397456,6.237265968397455,-0.1394290881431514,0.4011103670681793,-1.5949697756581158e-05,-0.01978165385743948,0.00045507819752043293,9.785854447950637
3.232,0,0.9548412538723549,6.2322659683974555,160,0,0,-0.005,6.227265968397456,6.237265968397455,-0.14142341257275673,0.40111204891452695,-1.5949071116736976e-05,-0.01999136276399381,0.00045405502482177064,9.834265591097184
3.248,0,0.9548412538723549,6.2322659683974555,160,0,0,-0.005,6.227265968397456,6.237265968397455,-0.14341773709473965,0.4011136151902949,-1.5949681001046698e-05,-0.019715447817438225,0.0004528032567834293,9.826514831957411
3.2640000000000002,0,0.9548412538723549,6.2322659683974555,160,0,0,-0.005,6.227265968397456,6.237265968397455,-0.14541206170196533,0.40111506585356943,-1.595149105147048e-05,-0.019329621428942026,0.0004522512894332014,9.805538538431092
3.2800000000000002,0,0.9548412538723549,6.2322659683974555,160,0,0,-0.005,6.227265968397456,6.237265968397455,-0.14740638638748244,0.4011164008657109,-1.5954393607225253e-05,-0.01866339898662453,0.0004542240287414911,9.806313001919092
3.2960000000000003,0,0.9548412538723549,6.2322659683974555,160,0,0,-0.005,6.227265968397456,6.237265968397455,-0.14940071114449002,0.401117620190719,-1.5958216101020703e-05,-0.01760162493569163,0.0004544474734046747,9.783159525882429
3.3120000000000003,0,0.9548412538723549,6.2322659683974555,160,0,0,-0.005,6.227265968397456,6.237265968397455,-0.15139503596629517,0.4011187237950447,-1.596273131171215e-05,-0.01638683198786901,0.00045430236645410135,9.797211002996878
3.3280000000000003,0,0.0,6.280008841912112,160,0,0,-0.005,6.275008841912112,6.28,-0.15338936084626556,0.4011197116476654,-1.5967670865710618e-05,-0.014796237479090488,0.0004545961434969351,9.80080304626243
3.344,0,0.9548412538723549,6.2322659683974555,160,0,0,-0.005,6.227265968397456,6.237265968397455,-0.15539816118364494,0.40112060485848827,-1.5979894073165496e-05,0.04624367316308913,0.0003368457518103693,9.78529869175108
3.36,0,0.0,6.280008841912112,160,0,0,-0.005,6.275008841912112,6.28,-0.1573924871448886,0.401121421423223,-1.5983494352594246e-05,-0.06474408733289327,0.0003413700335838674,9.843348897345475
3.376,0,0.0,6.280008841912112,160,0,0,-0.005,6.275008841912112,6.28,-0.15940128749847757,0.4011221408341619,-1.5989675911978404e-05,0.053053224401143274,0.00034207310495366374,9.840505705272248
3.392,0,0.0,6.280008841912112,160,0,0,-0.005,6.275008841912112,6.28,-0.16141008889719227,0.40112280349853957,-1.5990827372075814e-05,0.001481022896318569,0.0002249810694814195,9.827546835409567
3.408,0,0.0,6.280008841912112,160,0,0,-0.005,6.275008841912112,6.28,-0.16341889026853618,0.4011234081952099,-1.5986898303147964e-05,0.006385906956256026,0.00023027339238927366,9.76834467315979
3.424,0,0.0,6.280008841912112,160,0,0,-0.005,6.275008841912112,6.28,-0.1654276916232229,0.40112395411039165,-1.5978137468343825e-05,0.011186347862109824,0.00023133044244685403,9.754152074670644
3.44,0,0.0,6.280008841912112,160,0,0,-0.005,6.275008841912112,6.28,-0.16743649296707067,0.4011244407150457,-1.5965075299150325e-05,0.01585652374084054,0.00023317881729952126,9.781619967533736
3.456,0,0.0,6.280008841912112,160,0,0,-0.005,6.275008841912112,6.28,-0.1694452943033102,0.40112486767374117,-1.5948494332338956e-05,0.02019239838338511,0.00023509482193071935,9.845129004639697
3.472,0,0.0,6.280008841912112,160,0,0,-0.005,6.275008841912112,6.28,-0.17145409563404607,0.4011252347809587,-1.5929383967685368e-05,0.024211109892193806,0.00023489967800859133,9.823125585427322
3.488,0,0.0,6.280008841912112,160,0,0,-0.005,6.275008841912112,6.28,-0.17346289696111716,0.40112554191739214,-1.5908882480276595e-05,0.028082589199863405,0.00023549061970428573,9.810506235400062
3.504,0,0.9548412538723549,6.2322659683974555,160,0,0,-0.005,6.227265968397456,6.237265968397455,-0.17547169828652154,0.4011257890204297,-1.5888209893821434e-05,0.031416913856603744,0.00023620411785673113,9.797296718618432
3.52,0,0.0,6.280008841912112,160,0,0,-0.005,6.275008841912112,6.28,-0.1774660242262189,0.40112595746625374,-1.5888062185713536e-05,-0.025115559251558367,0.00036661220823412877,9.80390241082847
3.536,0,0.0,6.280008841912112,160,0,0,-0.005,6.275008841912112,6.28,-0.1794748245550512,0.401126023580043,-1.5871820018126953e-05,0.09051496186913499,0.0003417439276809154,9.823160775491012
3.552,0,0.9548412538723549,6.2322659683974555,160,0,0,-0.005,6.227265968397456,6.237265968397455,-0.18148362521419845,0.4011260309855432,-1.585941437529277e-05,0.033566318007545205,0.00022958749368459433,9.81553027633917
3.568,0,0.9548412538723549,6.2322659683974555,160,0,0,-0.005,6.227265968397456,6.237265968397455,-0.18347795135535028,0.4011259630655947,-1.5889709615433956e-05,-0.02675128535359575,0.00036171278208464025,9.76173607367405
3.584,0,0.9548412538723549,6.2322659683974555,160,0,0,-0.005,6.227265968397456,6.237265968397455,-0.18547227642479552,0.40112577615358735,-1.5917451481306175e-05,0.025602938360548697,0.00046416439092734565,9.837828363989741
3.6,0,0.9548412538723549,6.2322659683974555,160,0,0,-0.005,6.227265968397456,6.237265968397455,-0.18746660149500288,0.40112547164405343,-1.5941895369783743e-05,0.02085199485902029,0.00045842303550854913,9.780522463405068
3.616,0,0.9548412538723549,6.2322659683974555,160,0,0,-0.005,6.227265968397456,6.237265968397455,-0.18946092655230504,0.40112505048190084,-1.5962178433689272e-05,0.015830736082037066,0.0004568162255354061,9.810742465335565
3.632,0,0.9548412538723549,6.2322659683974555,160,0,0,-0.005,6.227265968397456,6.237265968397455,-0.19145525158690957,0.40112451329553345,-1.5977472471841517e-05,0.010780704078402748,0.00045563533102796044,9.77145353716754
3.648,0,0.9548412538723549,6.2322659683974555,160,0,0,-0.005,6.227265968397456,6.237265968397455,-0.19344957659172943,0.40112386049578047,-1.5987109817042905e-05,0.0054672987488060525,0.00045214321386400106,9.821558719649348
3.664,0,0.9548412538723549,6.2322659683974555,160,0,0,-0.005,6.227265968397456,6.237265968397455,-0.19544390156145147,0.40112309234515275,-1.5990672032900263e-05,9.883818384654747e-05,0.0004533167229046065,9.775107895167986
3.68,0,0.9548412538723549,6.2322659683974555,160,1,1,0.0545,6.28,6.1777659683974555,-0.1974382264917334,0.4011222090054061,-1.5988046122938568e-05,-0.005307471425260737,0.00045043006626624546,9.770221857414956
3.696,0,0.9548412538723549,6.2322659683974555,160,0,-1,-0.0045,6.227765968397455,6.236765968397456,-0.19943146910412193,0.4011215479295388,-1.5978989264444493e-05,-0.015027550947243454,-0.002205456755294263,9.799845031020231
3.712,0,0.9548412538723549,6.2322659683974555,160,0,0,0.0,6.2322659683974555,6.2322659683974555,-0.20142579432483756,0.40112180312288753,-1.596477317412394e-05,-0.011763320493759222,-0.002205180453533418,9.806791651134297
3.728,0,0.0,6.280008841912112,160,-1,-1,-0.0595,6.220508841912112,6.28,-0.2034201195133675,0.4011219465285444,-1.5946029359614755e-05,-0.02093221029878282,0.0003130111682636696,9.823255915502063
3.744,0,0.9548412538723549,6.2322659683974555,160,0,1,-0.0005000000000000004,6.231765968397456,6.232765968397455,-0.20542020060886348,0.40112190580004553,-1.592965623412046e-05,-0.0018477029897455664,0.0014240533625177437,9.810359705971463
3.7600000000000002,0,0.9548412538723549,6.2322659683974555,160,0,0,-0.005,6.227265968397456,6.237265968397455,-0.20741452600751395,0.4011212968146347,-1.590638170282342e-05,-0.05118501234180352,0.0014999871791877297,9.795527294825263
3.7760000000000002,0,0.9548412538723549,6.2322659683974555,160,0,0,-0.005,6.227265968397456,6.237265968397455,-0.20940885105074739,0.401120661994824,-1.5882217030548096e-05,-0.03233306716004285,0.0002146100301645587,9.80694034170889
3.7920000000000003,0,0.9548412538723549,6.2322659683974555,160,0,0,-0.005,6.227265968397456,6.237265968397455,-0.21140317577033627,0.4011199124572729,-1.5842258481692933e-05,-0.03392995396906181,0.0004446769734204401,9.834839136195676
3.8080000000000003,0,0.9548412538723549,6.2322659683974555,160,0,0,-0.005,6.227265968397456,6.237265968397455,-0.21339750072385394,0.40111904674323406,-1.585768489972307e-05,-0.033219225548509666,0.00045479275144663054,9.859332758134721
3.8240000000000003,0,0.0,6.280008841912112,160,0,0,-0.005,6.275008841912112,6.28,-0.21539182560661552,0.40111806551037227,-1.587277561728752e-05,-0.0318545105139951,0.0004528970534783859,9.807252235891106
3.84,0,0.0,6.280008841912112,160,0,0,-0.005,6.275008841912112,6.28,-0.21740062581894504,0.40111697455360323,-1.59054942043442e-05,0.029331747070713437,0.00033697082594421446,9.837459393410318
3.856,0,0.0,6.280008841912112,160,0,0,-0.005,6.275008841912112,6.28,-0.2194094270173586,0.4011158280747962,-1.5934195092897133e-05,-0.02237343499844831,0.00022069341905334115,9.84805711723186
3.872,0,0.0,6.280008841912112,160,0,0,-0.005,6.275008841912112,6.28,-0.22141822813898893,0.4011146244422933,-1.5957895595147126e-05,-0.017022499714863984,0.00022498775818510688,9.81022403533834
3.888,0,0.0,6.280008841912112,160,0,0,-0.005,6.275008841912112,6.28,-0.22342702919910185,0.401113362548029,-1.5975660260464028e-05,-0.011444778168083463,0.00023188614087452184,9.831536276347656
3.904,0,0.0,6.280008841912112,160,0,0,-0.005,6.275008841912112,6.28,-0.22543583020433258,0.40111204165484976,-1.598673565611497e-05,-0.005698261360087594,0.0002315462359248662,9.834802967997314
3.92,0,0.0,6.280008841912112,160,0,0,-0.005,6.275008841912112,6.28,-0.227444631155927,0.4011106612810703,-1.599065670490965e-05,0.00012560948484933713,0.00023373872685992985,9.81252338295462
3.936,0,0.0,6.280008841912112,160,0,0,-0.005,6.275008841912112,6.28,-0.22945343205200838,0.40110922111855685,-1.5987313713106133e-05,0.005963586025992415,0.00023470238380815612,9.874629499770098
3.952,0,0.0,6.280008841912112,160,0,0,-0.005,6.275008841912112,6.28,-0.23146223288923656,0.4011077209758376,-1.5976984082609683e-05,0.011816212564465658,0.00023596260160652332,9.816813828315954
3.968,0,0.0,6.280008841912112,160,0,0,-0.005,6.275008841912112,6.28,-0.23347103366404656,0.40110616073929667,-1.5960331933064995e-05,0.01732486046565918,0.00023491201691116224,9.818459726519913
3.984,0,0.0,6.280008841912112,160,0,0,-0.005,6.275008841912112,6.28,-0.2354798343735505,0.4011045403470992,-1.5938378929304664e-05,0.022504339550452623,0.0002359595679681658,9.830083659401582
4.0,0,0.0,6.280008841912112,160,0,0,-0.005,6.275008841912112,6.28,-0.23748863501613224,0.40110285977188237,-1.5912450143113627e-05,0.0274705438504784,0.00023731684822452299,9.818277856169926
4.016,0,0.0,6.280008841912112,160,0,0,-0.005,6.275008841912112,6.28,-0.2394974355917456,0.40110111900937034,-1.5884099507285088e-05,0.03185327099019666,0.00023579841658504845,9.820130293627708
4.032,0,0.0,6.280008841912112,160,0,0,-0.005,6.275008841912112,6.28,-0.24150623450686567,0.40109931882118033,-1.5835139451159455e-05,0.03384760744811533,0.00022970465610407158,9.865020137415698
4.048,0,0.0,6.280008841912112,160,0,0,-0.005,6.275008841912112,6.28,-0.24351503531167026,0.40109745775823424,-1.585306100341556e-05,0.03320636341404898,0.00024006939566156746,9.83655271370391
4.064,0,0.0,6.280008841912112,160,0,0,-0.005,6.275008841912112,6.28,-0.24552383596722063,0.40109553691202293,-1.586987496535186e-05,0.03195465570594611,0.00023511051991667977,9.799327512472345
4.08,0,0.0,6.280008841912112,160,0,0,-0.005,6.275008841912112,6.28,-0.2475326365067589,0.40109355628087484,-1.5886440160014018e-05,0.030295363164609297,0.00023484489891317762,9.773470690902613
4.096,0,0.0,6.280008841912112,160,0,0,-0.005,6.275008841912112,6.28,-0.24954143695043607,0.40109151587318714,-1.5903142547639762e-05,0.028193131782517453,0.00023382868373833608,9.818408999475922
4.112,0,0.0,6.280008841912112,160,0,0,-0.005,6.275008841912112,6.28,-0.2515502373099331,0.4010894157028291,-1.59198660495425e-05,0.025389097712330066,0.00023409267850369104,9.768511235148226
4.128,0,0.0,6.280008841912112,160,0,0,-0.005,6.275008841912112,6.28,-0.2535590375916867,0.40108725578604326,-1.5936177440965815e-05,0.022381803596586865,0.00023527026346040485,9.87220215018209
4.144,0,0.0,6.280008841912112,160,0,0,-0.005,6.275008841912112,6.28,-0.2555678377990133,0.40108503613937224,-1.595146594685938e-05,0.019131319588275148,0.000234148511991684,9.822756412985521
4.16,0,0.0,6.280008841912112,160,0,0,-0.005,6.275008841912112,6.28,-0.25757663793349267,0.4010827567782537,-1.596505235633601e-05,0.015369001007695431,0.00023470157540242636,9.773125746284162
4.176,0,0.0,6.280008841912112,160,0,0,-0.005,6.275008841912112,6.28,-0.25958543799583905,0.40108041771606057,-1.5976275960092462e-05,0.011563232934904537,0.00023390010586830647,9.790233013200886
4.192,0,0.0,6.280008841912112,160,0,0,-0.005,6.275008841912112,6.28,-0.2615942379864089,0.4010780189634413,-1.5984563602645593e-05,0.007557802663731847,0.00023522463702848164,9.821530328800481
4.208,0,0.0,6.280008841912112,160,0,0,-0.005,6.275008841912112,6.28,-0.2636030379054445,0.4010755605278722,-1.5989482795861557e-05,0.003437663278531416,0.00023439328989804164,9.783222482834514
4.224,0,0.0,6.280008841912112,160,0,0,-0.005,6.275008841912112,6.28,-0.26561183775313096,0.40107304241336406,-1.5990779605871627e-05,-0.0007502163536148518,0.00023489759287078285,9.830313032569297
4.24,0,0.0,6.280008841912112,160,0,0,-0.005,6.275008841912112,6.28,-0.2676206375295274,0.40107046462028784,-1.598840153732052e-05,-0.004919439596996179,0.00023380756854368782,9.852105293023516
4.256,0,0.0,6.280008841912112,160,0,0,-0.005,6.275008841912112,6.28,-0.26962943723442645,0.4010678271452969,-1.5982505637326602e-05,-0.009019887735605591,0.000234576950781737,9.829515436753837
4.272,0,0.0,6.280008841912112,160,0,0,-0.005,6.275008841912112,6.28,-0.2716382368671893,0.40106512998133037,-1.597345234955784e-05,-0.013051416145594687,0.00023457361538484559,9.819771873303203
4.288,0,0.0,6.280008841912112,160,0,0,-0.005,6.275008841912112,6.28,-0.27364703642659755,0.40106237311768994,-1.5961786132315595e-05,-0.016707011909849752,0.00023543143856098338,9.734500822191944
4.304,0,0.0,6.280008841912112,160,0,0,-0.005,6.275008841912112,6.28,-0.2756558359107531,0.401059556540179,-1.5948204405535904e-05,-0.02033804950823276,0.00023381537190899867,9.808086932560155
4.32,0,0.0,6.280008841912112,160,0,0,-0.005,6.275008841912112,6.28,-0.2776646353170483,0.4010566802313017,-1.5933516938177253e-05,-0.0234545440495696,0.0002360556898552686,9.85934998191274
4.336,0,0.9548412538723549,6.2322659683974555,160,1,1,0.0545,6.28,6.1777659683974555,-0.2796734346422158,0.40105374417051476,-1.591859825830072e-05,-0.026474332984411146,0.00023573780815617726,9.839538554384259
4.352,0,0.0,6.280008841912112,160,0,-1,-0.0045,6.275508841912112,6.28,-0.28166667657008876,0.4010510673388516,-1.588519143675901e-05,-0.09235670417846657,-0.0022402306504187733,9.786639473058683
4.368,0,0.0,6.280008841912112,160,0,0,0.0,6.28,6.28,-0.28367555637790814,0.40104932699659446,-1.5871466147949e-05,0.027306235361348533,-0.002394887276431812,9.81055822007255
4.384,0,0.0,6.280008841912112,160,0,0,0.0,6.28,6.28,-0.2856851555393989,0.40104751162383134,-1.586268752054934e-05,-0.03070939846234107,0.00022107904074280643,9.878908097309248
4.4,0,0.0,6.280008841912112,160,0,0,0.0,6.28,6.28,-0.2876947547474091,0.40104567727183593,-1.5873376941144546e-05,-0.03238217916188332,6.321940026169859e-05,9.776117599023857
4.416,0,0.0,6.280008841912112,160,0,0,0.0,6.28,6.28,-0.28970435389117905,0.40104383061621607,-1.588553643627061e-05,-0.031048547528540704,4.099134939867924e-05,9.794261145701796
4.432,0,0.0,6.280008841912112,160,0,0,0.0,6.28,6.28,-0.29171395300524705,0.40104197595209873,-1.5899145994858338e-05,-0.02931251724025157,2.5790346850006147e-05,9.768779604598182
4.448,0,0.0,6.280008841912112,160,0,0,0.0,6.28,6.28,-0.29372355210799994,0.4010401161490145,-1.59138474909188e-05,-0.026952145336747016,1.5973941498474256e-05,9.860046247807956
4.464,0,0.0,6.280008841912112,160,0,0,0.0,6.28,6.28,-0.2957331512088687,0.4010382530949597,-1.592905557393047e-05,-0.02417079988892837,9.636533700060488e-06,9.787436402870352
4.48,0,0.0,6.280008841912112,160,0,0,0.0,6.28,6.28,-0.2977427503123679,0.40103638801415054,-1.594405065335168e-05,-0.021062962813629665,5.6337522452481295e-06,9.756308204756442
4.496,0,0.0,6.280008841912112,160,0,0,0.0,6.28,6.28,-0.2997523494202922,0.40103452168913056,-1.5958059096843683e-05,-0.017696329876585374,3.227348814947403e-06,9.828475144684225
4.5120000000000005,0,0.0,6.280008841912112,160,0,0,0.0,6.28,6.28,-0.3017619485328789,0.4010326546129705,-1.5970323248690535e-05,-0.013970004343813514,1.7500720566664737e-06,9.800205058927103
4.5280000000000005,0,0.0,6.280008841912112,160,0,0,0.0,6.28,6.28,-0.3037715476494205,0.40103078709175544,-1.5980161874092763e-05,-0.010003621137014335,8.941866751317202e-07,9.778675014629133
4.5440000000000005,0,0.0,6.280008841912112,160,0,0,0.0,6.28,6.28,-0.3057811467686126,0.40102891931250817,-1.598702051608218e-05,-0.006037756127201386,4.078973832797437e-07,9.78595646830961
4.5600000000000005,0,0.0,6.280008841912112,160,0,0,0.0,6.28,6.28,-0.3077907458887943,0.4010270513875342,-1.5990510757504448e-05,-0.0019169234141391935,1.4288229452056594e-07,9.812336869909245
4.5760000000000005,0,0.0,6.280008841912112,160,0,0,0.0,6.28,6.28,-0.309800345008157,0.4010251833829582,-1.5990437332805835e-05,0.002226672833138271,9.918589299982383e-09,9.842846467536477
4.5920000000000005,0,0.0,6.280008841912112,160,0,0,0.0,6.28,6.28,-0.3118099441249513,0.40102331533682356,-1.5986812299534012e-05,0.006336444330094959,-5.0484327969959496e-08,9.806269329456274
4.6080000000000005,0,0.0,6.280008841912112,160,0,0,0.0,6.28,6.28,-0.3138195432376888,0.401021447270406,-1.5979855955429098e-05,0.01033725495089081,-7.187200139327058e-08,9.804427300737359
4.624,0,0.0,6.280008841912112,160,0,0,0.0,6.28,6.28,-0.315829142345323,0.4010195791951744,-1.59699847838337e-05,0.014198398715549334,-7.327545046412108e-08,9.812634980073335
4.64,0,0.0,6.280008841912112,160,0,0,0.0,6.28,6.28,-0.3178387414473883,0.40101771111700363,-1.5957787360599066e-05,0.01791113589464576,-6.628451699219767e-08,9.814139795882351
4.656,0,0.9548412538723549,6.2322659683974555,160,1,1,0.0595,6.28,6.172765968397456,-0.3198483405440761,0.4010158430386762,-1.5943989792198757e-05,0.02118615156602297,-5.5875759208542214e-08,9.73784232015616
4.672,0,0.0,6.280008841912112,160,0,-1,0.0005000000000000004,6.28,6.279508841912112,-0.32184078374351704,0.40101434744601766,-1.594526505449903e-05,-0.04609841462339571,-0.002728117740098463,9.868895428488905
4.688,0,0.0,6.280008841912112,160,0,0,0.005,6.28,6.275008841912112,-0.3238503043295484,0.4010137924770037,-1.593259141677468e-05,0.09066183846846844,-0.002365042272680023,9.756581781797967
4.704,0,0.0,6.280008841912112,160,0,0,0.005,6.28,6.275008841912112,-0.3258591057569484,0.4010132261665758,-1.5921013290714353e-05,0.023127846023609358,-2.6941844739202763e-05,9.840395014270529
4.72,0,0.0,6.280008841912112,160,0,0,0.005,6.28,6.275008841912112,-0.3278679070437076,0.4010127011875309,-1.591061798555428e-05,0.027680125197642104,-0.00017157581276954918,9.822664507073316
4.736,0,0.0,6.280008841912112,160,0,0,0.005,6.28,6.275008841912112,-0.3298767083048747,0.401012223896505,-1.590202566632143e-05,0.029108918223956105,-0.00019401753092153297,9.785334918318163
4.752,0,0.0,6.280008841912112,160,0,0,0.005,6.28,6.275008841912112,-0.3318855095709751,0.4010117985899497,-1.5895751477805475e-05,0.030411105233522133,-0.0002092560349610218,9.804270777503072
4.768,0,0.0,6.280008841912112,160,0,0,0.005,6.28,6.275008841912112,-0.3338943108557408,0.40101142812374185,-1.589217212902977e-05,0.030787528855334596,-0.00021950964902349635,9.753058090048082
4.784,0,0.0,6.280008841912112,160,0,0,0.005,6.28,6.275008841912112,-0.3359031121638314,0.4010111143642427,-1.589150291836719e-05,0.030837101015848183,-0.00022481713225082215,9.81759506601405
4.8,0,0.0,6.280008841912112,160,0,0,0.005,6.28,6.275008841912112,-0.33791191349516386,0.4010108585101018,-1.5893785035301852e-05,0.030603627996866983,-0.00022887541110014014,9.83240971350611
4.816,0,0.0,6.280008841912112,160,0,0,0.005,6.28,6.275008841912112,-0.3399207148472832,0.4010106613167272,-1.5898883416989168e-05,0.029631439634667227,-0.0002320061495435825,9.780405443337713
4.832,0,0.0,6.280008841912112,160,0,0,0.005,6.28,6.275008841912112,-0.34192951621663953,0.4010105232498995,-1.590649508436022e-05,0.028310429496041845,-0.00023324892477763059,9.796127919368196
4.848,0,0.0,6.280008841912112,160,0,0,0.005,6.28,6.275008841912112,-0.3439383175992759,0.4010104445891502,-1.5916167391815186e-05,0.026747462316506904,-0.00023392731737066497,9.86604795076103
4.864,0,0.0,6.280008841912112,160,0,0,0.005,6.28,6.275008841912112,-0.3459471189912143,0.4010104254962891,-1.592732509603234e-05,0.02462981545728768,-0.00023325401129217034,9.80400382473688
4.88,0,0.0,6.280008841912112,160,0,0,0.005,6.28,6.275008841912112,-0.3479559203886877,0.4010104660601981,-1.5939304645913935e-05,0.022246288551868967,-0.00023491312177477156,9.810433309514721
4.896,0,0.0,6.280008841912112,160,0,0,0.005,6.28,6.275008841912112,-0.34996472178829346,0.40101056632572535,-1.595139367388705e-05,0.01943659207237765,-0.0002350885157594257,9.801658467175574
4.912,0,0.0,6.280008841912112,160,0,0,0.005,6.28,6.275008841912112,-0.3519735231870921,0.4010107263120872,-1.5962873357257615e-05,0.01632553280114477,-0.0002341406067842583,9.775540699083493
4.928,0,0.0,6.280008841912112,160,0,0,0.005,6.28,6.275008841912112,-0.35398232458266,0.4010109460244387,-1.5973061144796546e-05,0.013024179543310439,-0.0002349606021410028,9.816351244051218
4.944,0,0.0,6.280008841912112,160,0,0,0.005,6.28,6.275008841912112,-0.35599112597309157,0.401011225461054,-1.598135131736754e-05,0.009531069408988952,-0.00023537060355696796,9.79054302622543
4.96,0,0.0,6.280008841912112,160,0,0,0.005,6.28,6.275008841912112,-0.35799992735694935,0.4010115646177177,-1.5987250978280118e-05,0.005877733492096139,-0.000234523424644197,9.80165557677266
4.976,0,0.0,6.280008841912112,160,0,0,0.005,6.28,6.275008841912112,-0.36000872873316353,0.4010119634903635,-1.5990409337356126e-05,0.0021499741125766123,-0.0002349195496211671,9.754371960625466
4.992,0,0.0,6.280008841912112,160,0,0,0.005,6.28,6.275008841912112,-0.36201753010089033,0.4010124220766198,-1.5990638550397035e-05,-0.0016227719887413723,-0.00023524310796745773,9.861092014929472
5.008,0,0.0,6.280008841912112,160,0,0,0.005,6.28,6.275008841912112,-0.36402633145934304,0.40101294037667734,-1.5987924875643378e-05,-0.0053737050837791315,-0.00023578096920431972,9.792364069325552
5.024,0,0.0,6.280008841912112,160,0,0,0.005,6.28,6.275008841912112,-0.36603513280761596,0.4010135183937355,-1.5982429485264515e-05,-0.009041066001387557,-0.00023496712087192243,9.782256495140809
