Time,SetPointAngle,SensorAngleRow,SensorAngleWidth,Angle,IntegralAngle,DeltaAngle,BaseSpeed,SetPointError,SensorErrorRow,SensorErrorWidth,Error,IntegralError,DeltaError,DeltaSpeed,LeftSpeed,RightSpeed,X,Y,Z,Roll,Pitch,Yaw
0.032,0,4,1,1.181188913326966,1.181188913326966,1.181188913326966,6.219759365420325,160,9,1,-2,-2,-2,-0.18299999999999997,6.036759365420325,6.28,-0.41499300000000033,0.4005689999999952,-6.395993683771736e-05,-3.7989693048820934,0.16529119985113827,9.779273328382905
0.064,0,4,1,0.0,1.181188913326966,-1.181188913326966,6.281181188913327,160,9,1,-2,-4,0,-0.18,6.101181188913327,6.28,-0.4110610086470726,0.4005707605035156,-1.6627941611219513e-05,4.616668105001108,-0.009113615228061882,9.562866421352892
0.096,0,4,1,0.0,1.181188913326966,0.0,6.28,160,9,1,-1,-5,1,-0.1035,6.1765,6.28,-0.4071029125256861,0.4005868823285953,-6.070342867096554e-05,0.41180610073307466,0.011305074004402203,9.68278776747336
0.128,0,4,1,0.5906572146464071,1.771846127973373,0.5906572146464071,6.2498764820530335,160,9,1,0,-5,1,-0.028499999999999998,6.221376482053033,6.278376482053034,-0.4031165427732609,0.4006102331925514,-7.822147968361906e-05,0.008161539577468917,0.0075208601204523095,9.864701259806019
0.16,0,4,1,0.0,1.771846127973373,-0.5906572146464071,6.280590657214646,160,9,1,0,-5,0,-0.0375,6.243090657214647,6.28,-0.3991168609288517,0.40063807815856056,-7.058788562965858e-05,0.19469380533496092,0.005187667793524922,9.847911664915744
0.192,0,4,1,0.0,1.771846127973373,0.0,6.28,160,9,1,0,-5,0,-0.0375,6.242500000000001,6.28,-0.39511073209909847,0.4006686036583345,-7.035851839085755e-05,0.08989063870900979,0.0031585495927656886,9.794702101347566
0.224,0,4,1,0.0,1.771846127973373,0.0,6.28,160,9,1,0,-5,0,-0.0375,6.242500000000001,6.28,-0.3911037289629601,0.4007007056746512,-6.992636945159399e-05,-0.018139079726543657,0.0026781027987741774,9.816741208193136
0.256,0,4,1,0.5906572146464071,2.36250334261978,0.5906572146464071,6.2498764820530335,160,9,1,0,-5,0,-0.0375,6.212376482053034,6.28,-0.387096743026819,0.40073420428004375,-6.833681275943311e-05,-0.01861169926057774,0.0027240681490496442,9.791148694513405
0.28800000000000003,0,4,1,0.0,2.36250334261978,-0.5906572146464071,6.280590657214646,160,9,1,1,-4,1,0.054,6.28,6.226590657214646,-0.38309939102472085,0.400769060635006,-6.747798872477548e-05,-0.026565123265208473,0.002985226576182722,9.78941338779703
0.32,0,4,1,0.0,2.36250334261978,0.0,6.28,160,9,1,1,-3,0,0.0525,6.28,6.2275,-0.3790975230274282,0.40080694611341544,-6.678876305754068e-05,-0.009635205308493069,0.004645493743066391,9.775813331582984
0.352,0,4,1,0.0,2.36250334261978,0.0,6.28,160,9,1,1,-2,0,0.06,6.28,6.220000000000001,-0.3750953186702497,0.4008417971164017,-6.623591818523226e-05,-0.009669743204693547,-0.0011539101398503227,9.859684909468859
0.384,0,4,1,0.0,2.36250334261978,0.0,6.28,160,9,1,1,-1,0,0.0675,6.28,6.2125,-0.3710954753923989,0.40087366899141386,-6.579022687254119e-05,-0.008086080773228458,-0.001106240930918004,9.803547591197818
0.41600000000000004,0,4,1,0.5906572146464071,2.953160557266187,0.5906572146464071,6.2498764820530335,160,9,1,1,0,0,0.075,6.28,6.174876482053033,-0.36709799522489167,0.40090226243546206,-6.543104167482452e-05,-0.003987432730612857,-0.0015414598112299125,9.878230600547328
0.448,0,4,1,0.0,2.953160557266187,-0.5906572146464071,6.280590657214646,160,9,1,0,0,-1,-0.009,6.271590657214646,6.28,-0.36311251563040986,0.4009272380709155,-6.51418830479051e-05,-0.011577963278518299,-0.0020664556391406966,9.7525791561256
0.48,0,4,1,0.0,2.953160557266187,0.0,6.28,160,9,1,0,0,0,0.0,6.28,6.28,-0.35909607172288954,0.4009470966164696,-6.490875075878394e-05,0.03792345313209421,-0.004077460317651321,9.735729405151114
0.512,0,4,1,0.5906572146464071,3.543817771912594,0.5906572146464071,6.2498764820530335,160,9,1,1,1,1,0.09149999999999998,6.28,6.158376482053034,-0.35507693547694097,0.40096739896922634,-6.470665287109864e-05,0.01868626307619221,0.0011454745164365088,9.74462932716283
0.544,0,4,1,0.0,3.543817771912594,-0.5906572146464071,6.280590657214646,160,9,1,0,1,-1,-0.0014999999999999996,6.279090657214646,6.28,-0.35109670370722196,0.40098754998676583,-6.456558149490685e-05,-0.022664215683963696,0.0003766402866407219,9.852060667301414
0.5760000000000001,0,4,1,0.0,3.543817771912594,0.0,6.28,160,9,1,0,1,0,0.0075,6.28,6.2725,-0.34707782894142697,0.40100206299951435,-6.442216568067725e-05,0.05259313350711693,-0.005572467446676465,9.813971381088747
0.608,0,4,1,0.0,3.543817771912594,0.0,6.28,160,9,1,0,1,0,0.0075,6.28,6.2725,-0.3430610629504464,0.4010167964773098,-6.433756460110483e-05,0.011183807345781753,-3.2960207126781116e-05,9.845465010689137
0.64,0,4,1,0.0,3.543817771912594,0.0,6.28,160,9,1,0,1,0,0.0075,6.28,6.2725,-0.33904429729116536,0.40103137295243163,-6.42713197004513e-05,0.010739809370315823,-0.0006610902606306781,9.802248342483507
0.672,0,4,1,0.0,3.543817771912594,0.0,6.28,160,9,1,0,1,0,0.0075,6.28,6.2725,-0.335027531089456,0.4010458017408616,-6.421831549420845e-05,0.007594460083594316,-0.0008274730458122531,9.78906108591706
0.704,0,4,1,0.0,3.543817771912594,0.0,6.28,160,9,1,0,1,0,0.0075,6.28,6.2725,-0.3310107637431654,0.4010600725382933,-6.41743977862954e-05,0.004031184646846403,-0.0009671420020049796,9.826780425801878
0.736,0,4,1,0.5906572146464071,4.134474986559001,0.5906572146464071,6.2498764820530335,160,9,1,1,2,1,0.09899999999999999,6.28,6.150876482053033,-0.3269939948324621,0.4010741626019613,-6.413643503371848e-05,0.00017570284513861672,-0.0010454384537057185,9.793391809336313
0.768,0,4,1,0.5906572146464071,4.725132201205408,0.0,6.25046713926768,160,9,1,0,2,-1,0.006,6.25646713926768,6.244467139267679,-0.323016142209487,0.4010879201696631,-6.409796694959932e-05,-0.04927510497176944,-0.0011190348822962286,9.824253828275888
0.8,0,4,1,0.5906572146464071,5.315789415851816,0.0,6.25046713926768,160,9,1,0,2,0,0.015,6.265467139267679,6.23546713926768,-0.31901584705921227,0.40109550693462126,-6.405217889912662e-05,0.00406739874080685,-0.006927429947391338,9.872011699372722
0.8320000000000001,0,4,1,0.5906572146464071,5.906446630498223,0.0,6.25046713926768,160,9,1,0,2,0,0.015,6.265467139267679,6.23546713926768,-0.31501555193775793,0.40110261784818463,-6.400888487957147e-05,-0.01702068152489942,-0.0013321834864253761,9.842110374826627
0.864,0,4,1,0.5906572146464071,6.497103845144631,0.0,6.25046713926768,160,9,1,0,2,0,0.015,6.265467139267679,6.23546713926768,-0.31101525592597135,0.4011083677073522,-6.400367780353376e-05,-0.01517817427462341,-0.002194855845355427,9.818071492728695
0.896,0,4,1,0.5906572146464071,7.087761059791038,0.0,6.25046713926768,160,9,1,0,2,0,0.015,6.265467139267679,6.23546713926768,-0.30701495928946027,0.40111275914811373,-6.400260882568481e-05,-0.012450582433644504,-0.0022086815908975376,9.79823819638716
0.928,0,4,1,0.5906572146464071,7.678418274437446,0.0,6.25046713926768,160,9,1,0,2,0,0.015,6.265467139267679,6.23546713926768,-0.30301466206279765,0.4011157930702909,-6.400315441895156e-05,-0.008996741295511899,-0.002202544169964569,9.803390585855269
0.96,0,4,1,0.5906572146464071,8.269075489083853,0.0,6.25046713926768,160,9,1,0,2,0,0.015,6.265467139267679,6.23546713926768,-0.2990143643760984,0.4011174693564805,-6.40030415534499e-05,-0.004930222872464918,-0.0022087023037078994,9.804809407662193
0.992,0,4,1,0.5906572146464071,8.859732703730261,0.0,6.25046713926768,160,9,1,0,2,0,0.015,6.265467139267679,6.23546713926768,-0.29501406644986716,0.40111778727135305,-6.400057574855976e-05,-0.000623715904627314,-0.0022017536890770613,9.814874858136484
1.024,0,4,1,0.5906572146464071,9.450389918376668,0.0,6.25046713926768,160,9,1,0,2,0,0.015,6.265467139267679,6.23546713926768,-0.2910137685834488,0.40111674578876677,-6.399492908669771e-05,0.00371331721199268,-0.0022048319024376224,9.866032512754302
1.056,0,4,1,1.181188913326966,10.631578831703635,0.5905316986805589,6.220350022634971,160,9,1,0,2,0,0.015,6.235350022634971,6.205350022634971,-0.28701347114034603,0.40111434384187744,-6.398625822597731e-05,0.007828682649876498,-0.0022053113207701346,9.765207810575603
1.088,0,4,1,1.181188913326966,11.812767745030602,0.0,6.220940554333652,160,9,1,0,2,0,0.015,6.235940554333651,6.205940554333652,-0.2830324488262325,0.40111059797600596,-6.398286439708405e-05,-0.011102368118751305,-0.002204831003959862,9.856230780486577
1.12,0,4,1,0.5906572146464071,12.40342495967701,-0.5905316986805589,6.25105767096636,160,9,1,-1,1,-1,-0.0765,6.17455767096636,6.28,-0.2790510505499939,0.401105499407104,-6.398059303121088e-05,0.007478576551184179,-0.0021878998094698276,9.833420787020525
1.1520000000000001,0,4,1,0.5906572146464071,12.994082174323417,0.0,6.25046713926768,160,9,1,0,1,1,0.0165,6.266967139267679,6.23396713926768,-0.27506560535775226,0.40109906319844957,-6.397338830614434e-05,0.010860543832542846,-0.0021629171037577445,9.84619567463626
1.184,0,4,1,1.181188913326966,14.175271087650383,0.5905316986805589,6.220350022634971,160,9,1,0,1,0,0.0075,6.227850022634971,6.212850022634971,-0.2710653031043556,0.40109792888446383,-6.39685389789077e-05,0.023746249267084223,0.0043788212515514825,9.84167635828009
1.216,0,4,1,1.181188913326966,15.35646000097735,0.0,6.220940554333652,160,9,1,0,1,0,0.0075,6.228440554333652,6.213440554333651,-0.26708427622641695,0.4010952913628191,-6.397113484382481e-05,-0.011593219309839241,-0.002233132166283709,9.81432372181692
1.248,0,4,1,1.181188913326966,16.537648914304317,0.0,6.220940554333652,160,9,1,0,1,0,0.0075,6.228440554333652,6.213440554333651,-0.26310287443201397,0.40109198189155115,-6.397369148178692e-05,0.005248897461912381,-0.0013109236921400565,9.80210150475121
1.28,0,4,1,1.181188913326966,17.718837827631283,0.0,6.220940554333652,160,9,1,0,1,0,0.0075,6.228440554333652,6.213440554333651,-0.25912147443178607,0.401087975574728,-6.397532263373307e-05,0.0021966463322259117,-0.0012582785200426071,9.79364668331282
1.312,0,4,1,0.5906572146464071,18.30949504227769,-0.5905316986805589,6.25105767096636,160,9,1,-1,0,-1,-0.08399999999999999,6.1670576709663605,6.28,-0.2551400759100879,0.40108325653428095,-6.397538240286715e-05,-0.0006168898676491035,-0.0011966311404482974,9.80941580977897
1.344,0,4,1,0.5906572146464071,18.900152256924095,0.0,6.25046713926768,160,9,1,0,0,1,0.009,6.25946713926768,6.241467139267679,-0.2511570242122046,0.40107780966157786,-6.39729760933596e-05,-0.001440234183772258,-0.001135288056218241,9.770090665196562
1.3760000000000001,0,4,1,1.181188913326966,20.08134117025106,0.5905316986805589,6.220350022634971,160,9,1,0,0,0,0.0,6.220350022634971,6.220350022634971,-0.24715672200952818,0.4010779541941006,-6.397382768074528e-05,0.014944771028986207,0.0051039500177775315,9.756509331228699
1.408,0,4,1,1.181188913326966,21.262530083578028,0.0,6.220940554333652,160,9,1,0,0,0,0.0,6.220940554333652,6.220940554333652,-0.24317569518646948,0.4010772192812356,-6.397283988962381e-05,-0.02326168154918631,-0.0011111995272960922,9.811655122497406
1.44,0,4,1,1.181188913326966,22.443718996904995,0.0,6.220940554333652,160,9,1,0,0,0,0.0,6.220940554333652,6.220940554333652,-0.2391942929727536,0.4010764643585549,-6.39709267048847e-05,-0.006303851413834967,-0.0001655766347254227,9.84262572862507
1.472,0,4,1,1.181188913326966,23.62490791023196,0.0,6.220940554333652,160,9,1,0,0,0,0.0,6.220940554333652,6.220940554333652,-0.2352128920288945,0.40107567203062056,-6.396836994858497e-05,-0.008499208424796671,-9.251205858287797e-05,9.808556981320091
1.504,0,4,1,1.181188913326966,24.806096823558928,0.0,6.220940554333652,160,9,1,0,0,0,0.0,6.220940554333652,6.220940554333652,-0.23123149181957137,0.4010748335129406,-6.396573234952047e-05,-0.009782457822488261,-2.8393790869089267e-05,9.810204227173275
1.536,0,4,1,1.181188913326966,25.987285736885894,0.0,6.220940554333652,160,9,1,0,0,0,0.0,6.220940554333652,6.220940554333652,-0.22725009194003007,0.4010739466373188,-6.396361413862559e-05,-0.010560431702313683,2.3972698522965477e-05,9.80834870079591
1.568,0,4,1,1.181188913326966,27.16847465021286,0.0,6.220940554333652,160,9,1,0,0,0,0.0,6.220940554333652,6.220940554333652,-0.22326869210778233,0.4010730138665425,-6.396246163428536e-05,-0.010645600893051093,6.293173305676434e-05,9.816661487365039
1.6,0,4,1,1.181188913326966,28.349663563539828,0.0,6.220940554333652,160,9,1,0,0,0,0.0,6.220940554333652,6.220940554333652,-0.21928729214051812,0.40107204058637763,-6.396244147212869e-05,-0.010123055215410716,8.781347536522665e-05,9.799618652958873
1.6320000000000001,0,4,1,1.181188913326966,29.530852476866794,0.0,6.220940554333652,160,9,1,0,0,0,0.0,6.220940554333652,6.220940554333652,-0.21530589193407323,0.4010710337194957,-6.396339942609137e-05,-0.008961437583253393,0.0001017436928827906,9.778557507694506
1.6640000000000001,0,4,1,1.181188913326966,30.71204139019376,0.0,6.220940554333652,160,9,1,0,0,0,0.0,6.220940554333652,6.220940554333652,-0.21132449144225385,0.40107000066670934,-6.396490551687992e-05,-0.007294717824700424,0.00010561525873944531,9.828371839971842
1.696,0,4,1,1.181188913326966,31.893230303520728,0.0,6.220940554333652,160,9,1,0,0,0,0.0,6.220940554333652,6.220940554333652,-0.20734309065945755,0.40106894855360126,-6.396636909393807e-05,-0.005183906306372565,0.00010227220116862993,9.807045704405683
1.728,0,4,1,1.181188913326966,33.074419216847694,0.0,6.220940554333652,160,9,1,0,0,0,0.0,6.220940554333652,6.220940554333652,-0.2033616896064069,0.4010678837436954,-6.396719297225607e-05,-0.002781348282446457,9.311736157526952e-05,9.857428515338848
1.76,0,4,1,1.181188913326966,34.25560813017466,0.0,6.220940554333652,160,9,1,0,0,0,0.0,6.220940554333652,6.220940554333652,-0.19938028831891827,0.40106681157076124,-6.39669279670161e-05,-0.00018929092568323774,8.054145663352506e-05,9.83448195908088
1.792,0,4,1,1.181188913326966,35.43679704350162,0.0,6.220940554333652,160,9,1,0,0,0,0.0,6.220940554333652,6.220940554333652,-0.19539888683942855,0.4010657362407595,-6.3965390178106e-05,0.0023844139398648046,6.712982054257006e-05,9.791818428422737
1.824,0,4,1,1.181188913326966,36.61798595682858,0.0,6.220940554333652,160,9,1,0,0,0,0.0,6.220940554333652,6.220940554333652,-0.19141748521093768,0.4010646608563891,-6.396271289904956e-05,0.004857236237714069,5.3388174994048635e-05,9.817263735174892
1.856,0,4,1,1.181188913326966,37.79917487015555,0.0,6.220940554333652,160,9,1,0,0,0,0.0,6.220940554333652,6.220940554333652,-0.1874360834730197,0.40106358752261095,-6.395932092905822e-05,0.0070170415796642314,4.063508564353174e-05,9.803654131129235
1.8880000000000001,0,4,1,1.181188913326966,38.98036378348251,0.0,6.220940554333652,160,9,1,0,0,0,0.0,6.220940554333652,6.220940554333652,-0.1834546816595605,0.4010625174984849,-6.395583364104257e-05,0.008749484293777197,2.923549664532524e-05,9.777839830699603
1.92,0,4,1,1.181188913326966,40.16155269680947,0.0,6.220940554333652,160,9,1,0,0,0,0.0,6.220940554333652,6.220940554333652,-0.17947327979786648,0.4010614513681491,-6.395292007536045e-05,0.010012036485961578,1.9433805598843434e-05,9.815106079001861
1.952,0,4,1,1.181188913326966,41.342741610136436,0.0,6.220940554333652,160,9,1,0,0,0,0.0,6.220940554333652,6.220940554333652,-0.17549187790876586,0.40106038921101844,-6.395114068171587e-05,0.010591104302794072,1.1767221187601742e-05,9.807014385354888
1.984,0,4,1,1.181188913326966,42.5239305234634,0.0,6.220940554333652,160,9,1,0,0,0,0.0,6.220940554333652,6.220940554333652,-0.17151047600731978,0.40105933075777334,-6.395081344383324e-05,0.010634922889751396,5.80690903361966e-06,9.818218927736924
2.016,0,4,1,1.181188913326966,43.70511943679036,0.0,6.220940554333652,160,9,1,0,0,0,0.0,6.220940554333652,6.220940554333652,-0.16752907410379744,0.40105827552419726,-6.395193634149351e-05,0.00999894644855854,1.510931702597899e-06,9.813588042581786
2.048,0,4,1,1.181188913326966,44.886308350117325,0.0,6.220940554333652,160,9,1,0,0,0,0.0,6.220940554333652,6.220940554333652,-0.16354767220465932,0.4010572229192525,-6.395418475837328e-05,0.008690388278539931,-1.3413286276933445e-06,9.743715187946334
2.08,0,4,1,1.181188913326966,46.06749726344429,0.0,6.220940554333652,160,9,1,0,0,0,0.0,6.220940554333652,6.220940554333652,-0.15956627031341455,0.40105617232701934,-6.395698473130387e-05,0.006922960451510596,-3.0521880030211517e-06,9.803541048515605
2.112,0,4,1,1.181188913326966,47.24868617677125,0.0,6.220940554333652,160,9,1,0,0,0,0.0,6.220940554333652,6.220940554333652,-0.15558486843133457,0.40105512316433767,-6.39596450129204e-05,0.0048158757572939245,-3.835058697099158e-06,9.786314152399543
2.144,0,4,1,1.181188913326966,48.429875090098214,0.0,6.220940554333652,160,9,1,0,0,0,0.0,6.220940554333652,6.220940554333652,-0.151603466558076,0.40105407491733946,-6.396151700540156e-05,0.002341610448324886,-3.9863746351508795e-06,9.760041631486516
2.176,0,4,1,1.181188913326966,49.61106400342518,0.0,6.220940554333652,160,9,1,0,0,0,0.0,6.220940554333652,6.220940554333652,-0.1476220646922778,0.40105302716072255,-6.396214501146191e-05,-0.0002645316249703597,-3.7112219549868272e-06,9.789792371262406
2.208,0,4,1,1.181188913326966,50.79225291675214,0.0,6.220940554333652,160,9,1,0,0,0,0.0,6.220940554333652,6.220940554333652,-0.14364066283215193,0.4010519795637584,-6.396137148215013e-05,-0.0028396853847791753,-3.1654822570395597e-06,9.81080395268563
2.24,0,4,1,1.181188913326966,51.9734418300791,0.0,6.220940554333652,160,9,1,0,0,0,0.0,6.220940554333652,6.220940554333652,-0.13965926097602605,0.40105093188679974,-6.395937248973756e-05,-0.005274773185575539,-2.5029424858393894e-06,9.808079570679071
2.2720000000000002,0,4,1,1.181188913326966,53.15463074340607,0.0,6.220940554333652,160,9,1,0,0,0,0.0,6.220940554333652,6.220940554333652,-0.13567785912275163,0.4010498839716081,-6.395661505533175e-05,-0.007366053696188943,-1.809780665586436e-06,9.792032650541314
2.3040000000000003,0,4,1,1.181188913326966,54.33581965673303,0.0,6.220940554333652,160,9,1,0,0,0,0.0,6.220940554333652,6.220940554333652,-0.13169645727189858,0.40104883572824435,-6.395374632685823e-05,-0.009024672726719404,-1.1748404922947335e-06,9.783202020586245
2.336,0,4,1,1.181188913326966,55.51700857005999,0.0,6.220940554333652,160,9,1,0,0,0,0.0,6.220940554333652,6.220940554333652,-0.1277150554237122,0.40104778712066663,-6.395144063862587e-05,-0.010120890563290989,-6.349757638846889e-07,9.78221911455489
2.368,0,4,1,1.181188913326966,56.698197483386956,0.0,6.220940554333652,160,9,1,0,0,0,0.0,6.220940554333652,6.220940554333652,-0.12373365357888375,0.4010467381525991,-6.395024037887317e-05,-0.010648178866628923,-1.9846033180502536e-07,9.781475588582023
2.4,0,4,1,1.181188913326966,57.87938639671392,0.0,6.220940554333652,160,9,1,0,0,0,0.0,6.220940554333652,6.220940554333652,-0.11975225173824783,0.4010456888547041,-6.395042806663781e-05,-0.010537487339076064,1.2340478643816814e-07,9.818977433023584
2.432,0,4,1,1.181188913326966,59.06057531004088,0.0,6.220940554333652,160,9,1,0,0,0,0.0,6.220940554333652,6.220940554333652,-0.11577084990253207,0.401044639273674,-6.395195968984628e-05,-0.009736567946837919,3.411279580113284e-07,9.788847773649868
2.464,0,4,1,1.181188913326966,60.241764223367845,0.0,6.220940554333652,160,9,1,0,0,0,0.0,6.220940554333652,6.220940554333652,-0.1117894480722406,0.4010435894634938,-6.395447495389714e-05,-0.00843862463354998,4.69887718183758e-07,9.856285072333106
2.496,0,4,1,1.181188913326966,61.42295313669481,0.0,6.220940554333652,160,9,1,0,0,0,0.0,6.220940554333652,6.220940554333652,-0.10780804624767841,0.40104253947888246,-6.395738200452687e-05,-0.006669045517143232,5.227854207030499e-07,9.82749242712365
2.528,0,4,1,1.181188913326966,62.60414205002177,0.0,6.220940554333652,160,9,1,0,0,0,0.0,6.220940554333652,6.220940554333652,-0.10382664442904897,0.4010414893707449,-6.395999666648604e-05,-0.004377645837976945,5.24031610026902e-07,9.802010293100228
2.56,0,4,1,1.181188913326966,63.785330963348734,0.0,6.220940554333652,160,9,1,0,0,0,0.0,6.220940554333652,6.220940554333652,-0.09984524261652603,0.4010404391833547,-6.396170342727256e-05,-0.0018948788022414094,4.83513919774977e-07,9.851499001639324
2.592,0,4,1,1.181188913326966,64.9665198766757,0.0,6.220940554333652,160,9,1,0,0,0,0.0,6.220940554333652,6.220940554333652,-0.09586384081022295,0.4010393889529452,-6.39621002776359e-05,0.0007258024712292709,4.186684876270669e-07,9.818196534012094
2.624,0,4,1,1.181188913326966,66.14770879000267,0.0,6.220940554333652,160,9,1,0,0,0,0.0,6.220940554333652,6.220940554333652,-0.09188243901004897,0.40103833870737515,-6.396109332871582e-05,0.0032928638919688894,3.431087837292235e-07,9.798010044899764
2.656,0,4,1,1.181188913326966,67.32889770332963,0.0,6.220940554333652,160,9,1,0,0,0,0.0,6.220940554333652,6.220940554333652,-0.08790103721551354,0.4010372884665549,-6.395891893343393e-05,0.005654263632710829,2.677969016694371e-07,9.819620721209649
2.688,0,4,1,1.181188913326966,68.5100866166566,0.0,6.220940554333652,160,9,1,0,0,0,0.0,6.220940554333652,6.220940554333652,-0.08391963542558062,0.40103623824336154,-6.395608811198515e-05,0.0076580139246210975,1.9586407309310775e-07,9.833375277555643
2.72,0,4,1,1.181188913326966,69.69127552998356,0.0,6.220940554333652,160,9,1,0,0,0,0.0,6.220940554333652,6.220940554333652,-0.0799382336386635,0.40103518804481664,-6.395326634836378e-05,0.009261840036454425,1.329756734439772e-07,9.79407078738552
2.7520000000000002,0,4,1,1.181188913326966,70.87246444331052,0.0,6.220940554333652,160,9,1,0,0,0,0.0,6.220940554333652,6.220940554333652,-0.07595683185278845,0.40103413787335374,-6.395111704383602e-05,0.010309708388956295,8.20228861257307e-08,9.788756647820904
2.7840000000000003,0,4,1,1.181188913326966,72.05365335663748,0.0,6.220940554333652,160,9,1,0,0,0,0.0,6.220940554333652,6.220940554333652,-0.07197543006587992,0.40103308772804913,-6.395014545247137e-05,0.010688918339744152,4.295216629968253e-08,9.839724508615793
2.816,0,4,1,1.181188913326966,73.23484226996445,0.0,6.220940554333652,160,9,1,0,0,0,0.0,6.220940554333652,6.220940554333652,-0.06799402827606128,0.4010320376057345,-6.395057981912512e-05,0.010472213907239116,1.4691895342241786e-08,9.769870487576092
2.848,0,4,1,1.181188913326966,74.41603118329141,0.0,6.220940554333652,160,9,1,0,0,0,0.0,6.220940554333652,6.220940554333652,-0.06401262648186277,0.40103098750194016,-6.395231768201344e-05,0.009590249232046918,-3.6662635173828573e-09,9.804137522760408
2.88,0,4,1,1.181188913326966,75.59722009661837,0.0,6.220940554333652,160,9,1,0,0,0,0.0,6.220940554333652,6.220940554333652,-0.06003122468227558,0.4010299374116557,-6.395494997669428e-05,0.008144909447006738,-1.368471177013558e-08,9.791718388742101
2.912,0,4,1,1.181188913326966,76.77840900994534,0.0,6.220940554333652,160,9,1,0,0,0,0.0,6.220940554333652,6.220940554333652,-0.056049822876666815,0.4010288873299019,-6.395785726884262e-05,0.006243152790022395,-1.7353989139431415e-08,9.805661870924027
2.944,0,4,1,1.181188913326966,77.9595979232723,0.0,6.220940554333652,160,9,1,0,0,0,0.0,6.220940554333652,6.220940554333652,-0.052068421064638035,0.4010278372521342,-6.396035547945669e-05,0.0039624345384027615,-1.6326734920552875e-08,9.827815343189686
2.976,0,4,1,0.5906572146464071,78.55025513791871,-0.5905316986805589,6.25105767096636,160,9,1,-1,-1,-1,-0.09149999999999998,6.15955767096636,6.28,-0.04808701924592908,0.40102678717449775,-6.396185681501604e-05,0.0014365308483245724,-1.2373044392742893e-08,9.837034856899113
3.008,0,4,1,0.5906572146464071,79.14091235256512,0.0,6.25046713926768,160,9,1,0,-1,1,0.0014999999999999996,6.25196713926768,6.2489671392676795,-0.044106360902895804,0.40102573838502875,-6.396199049279669e-05,-0.002053926520047224,1.1214350305776326e-06,9.813186145318257
3.04,0,4,1,0.5906572146464071,79.73156956721154,0.0,6.25046713926768,160,9,1,0,-1,0,-0.0075,6.242967139267679,6.25796713926768,-0.04010605900862668,0.40103063803584504,-6.396336806939983e-05,0.019051644257434275,0.005839758362955111,9.791441438865048
3.072,0,4,1,0.5906572146464071,80.32222678185795,0.0,6.25046713926768,160,9,1,0,-1,0,-0.0075,6.242967139267679,6.25796713926768,-0.03610575778173961,0.4010353721527593,-6.396529846127048e-05,0.0011011034366372923,-7.027437852481314e-05,9.860134670757438
3.104,0,4,1,0.5906572146464071,80.91288399650436,0.0,6.25046713926768,160,9,1,0,-1,0,-0.0075,6.242967139267679,6.25796713926768,-0.03210546003302498,0.4010408116598813,-6.396714917118566e-05,0.0022662082602113052,0.0008560228599612474,9.744951835650456
3.136,0,4,1,0.5906572146464071,81.50354121115078,0.0,6.25046713926768,160,9,1,0,-1,0,-0.0075,6.242967139267679,6.25796713926768,-0.028105165137424035,0.4010469349180719,-6.396856474761604e-05,0.003289426620012112,0.0009114873018203875,9.76300438649012
3.168,0,4,1,0.5906572146464071,82.09419842579719,0.0,6.25046713926768,160,9,1,0,-1,0,-0.0075,6.242967139267679,6.25796713926768,-0.02410487257003389,0.4010537276105116,-6.39694469938331e-05,0.0041164478856130495,0.0009640922282905319,9.789202734500991
3.2,0,4,1,0.5906572146464071,82.6848556404436,0.0,6.25046713926768,160,9,1,0,-1,0,-0.0075,6.242967139267679,6.25796713926768,-0.02010458192390626,0.4010611815587969,-6.39698608349993e-05,0.0046598969715141115,0.001025788602903749,9.804520056688476
3.232,0,4,1,0.5906572146464071,83.27551285509001,0.0,6.25046713926768,160,9,1,0,-1,0,-0.0075,6.242967139267679,6.25796713926768,-0.01610429291224388,0.40106929338439534,-6.396994782278606e-05,0.004984588275646242,0.0010601930442665163,9.832726526568688
3.2640000000000002,0,4,1,0.0,83.27551285509001,-0.5906572146464071,6.280590657214646,160,9,1,0,-1,0,-0.0075,6.273090657214646,6.28,-0.012104005360319447,0.40107806322125983,-6.396985592434408e-05,0.004965213627525879,0.0011015515249757993,9.783433026679768
3.2960000000000003,0,4,1,0.0,83.27551285509001,0.0,6.28,160,9,1,0,-1,0,-0.0075,6.2725,6.28,-0.008087029995367546,0.40108753147474285,-6.396539413671201e-05,0.024150960072339505,0.0011209464858303597,9.815525386788655
3.3280000000000003,0,4,1,0.0,83.27551285509001,0.0,6.28,160,9,1,0,-1,0,-0.0075,6.2725,6.28,-0.004070243468134749,0.40109726643733895,-6.395984112784157e-05,0.01035426100179853,0.0007523369268703033,9.814682752142945
3.36,0,4,1,0.0,83.27551285509001,0.0,6.28,160,9,1,0,-1,0,-0.0075,6.2725,6.28,-5.3457439103162434e-05,0.4011073027874473,-6.395438907386142e-05,0.01232726842150516,0.0007844297250840608,9.787702764865506
3.392,0,4,1,0.0,83.27551285509001,0.0,6.28,160,9,1,0,-1,0,-0.0075,6.2725,6.28,0.003963328094617113,0.40111764825510676,-6.39501987923733e-05,0.01340474356177348,0.0007797693099617349,9.772465147879341
3.424,0,4,1,0.5906572146464071,83.86617006973643,0.5906572146464071,6.2498764820530335,160,9,1,1,0,1,0.08399999999999999,6.28,6.165876482053034,0.007980113088671472,0.40112831154239453,-6.394809633522222e-05,0.013892731420012077,0.000766176647373332,9.751237410558202
3.456,0,4,1,0.5906572146464071,84.45682728438284,0.0,6.25046713926768,160,9,1,0,0,-1,-0.009,6.241467139267679,6.25946713926768,0.011962778214882126,0.4011391770274003,-6.39620417873625e-05,-0.026785365867595713,0.0006713993215550648,9.82794197903393
3.488,0,4,1,0.5906572146464071,85.04748449902925,0.0,6.25046713926768,160,9,1,0,0,0,0.0,6.25046713926768,6.25046713926768,0.015963078039550917,0.40114442871718087,-6.396657758385958e-05,0.019492708478478084,-0.005192512779445175,9.83467680623131
3.52,0,4,1,0.0,85.04748449902925,-0.5906572146464071,6.280590657214646,160,9,1,0,0,0,0.0,6.28,6.28,0.019963376005200054,0.40115054435754915,-6.396791560812215e-05,-0.0019164747500848222,0.0011169514656884099,9.795244402862453
3.552,0,4,1,0.0,85.04748449902925,0.0,6.28,160,9,1,0,0,0,0.0,6.28,6.28,0.023982572476612535,0.40115669953333455,-6.39685808243775e-05,0.016126665940048517,0.00018518438466316546,9.800890055927704
3.584,0,4,1,0.0,85.04748449902925,0.0,6.28,160,9,1,0,0,0,0.0,6.28,6.28,0.02800176800476616,0.4011628872666432,-6.396920639947443e-05,-0.002658228440668781,0.00011218437422922849,9.803932576653558
3.616,0,4,1,0.0,85.04748449902925,0.0,6.28,160,9,1,0,0,0,0.0,6.28,6.28,0.03202096252988071,0.4011691210259526,-6.396962883410684e-05,-0.0028138483924061365,4.3980863795578694e-05,9.83453597424986
3.648,0,4,1,0.0,85.04748449902925,0.0,6.28,160,9,1,0,0,0,0.0,6.28,6.28,0.036040156442007684,0.4011754061742541,-6.396979417685154e-05,-0.002780683432310766,-1.412972278095798e-05,9.832771092490951
3.68,0,4,1,0.0,85.04748449902925,0.0,6.28,160,9,1,0,0,0,0.0,6.28,6.28,0.0400593500372121,0.40118174216747526,-6.396970754977103e-05,-0.0025893982680358194,-5.9173281680354535e-05,9.791757838186143
3.712,0,4,1,0.0,85.04748449902925,0.0,6.28,160,9,1,0,0,0,0.0,6.28,6.28,0.04407854352848829,0.4011881245141995,-6.396939843709808e-05,-0.0022442194576214685,-9.020375732417232e-05,9.816745738884032
3.744,0,4,1,0.5906572146464071,85.63814171367567,0.5906572146464071,6.2498764820530335,160,9,1,1,1,1,0.09149999999999998,6.28,6.158376482053034,0.048097737059236215,0.4011945464178259,-6.396890113075093e-05,-0.0017592181146387006,-0.00010867407589550681,9.837550948713012
3.7760000000000002,0,4,1,0.5906572146464071,86.22879892832208,0.0,6.25046713926768,160,9,1,0,1,-1,-0.0014999999999999996,6.2489671392676795,6.25196713926768,0.05207801181895627,0.4012009502290504,-6.396221213814113e-05,-0.047061854559375824,-0.0001527959410902895,9.823145495086347
3.8080000000000003,0,4,1,0.5906572146464071,86.81945614296849,0.0,6.25046713926768,160,9,1,0,1,0,0.0075,6.25796713926768,6.242967139267679,0.0560783157052542,0.401201384517538,-6.39566753295167e-05,0.007963407131243633,-0.005989644799300167,9.793348972704894
3.84,0,4,1,0.5906572146464071,87.4101133576149,0.0,6.25046713926768,160,9,1,0,1,0,0.0075,6.25796713926768,6.242967139267679,0.06007861881154531,0.40120200569085473,-6.395256511343254e-05,-0.013343260250182313,-3.3808618525409756e-05,9.808755201523566
3.872,0,4,1,0.5906572146464071,88.00077057226132,0.0,6.25046713926768,160,9,1,0,1,0,0.0075,6.25796713926768,6.242967139267679,0.06407891962991388,0.4012019331397756,-6.395037664956582e-05,-0.014643377347501018,-0.0009511310767955324,9.81543621697696
3.904,0,4,1,0.5906572146464071,88.59142778690773,0.0,6.25046713926768,160,9,1,0,1,0,0.0075,6.25796713926768,6.242967139267679,0.06807921875367878,0.40120118332256666,-6.395004199701015e-05,-0.014442318816390111,-0.0009926939972604572,9.805674607111705
3.936,0,4,1,0.5906572146464071,89.18208500155414,0.0,6.25046713926768,160,9,1,0,1,0,0.0075,6.25796713926768,6.242967139267679,0.07207951660554907,0.4011997663460275,-6.395407823688894e-05,-0.013453307884150102,-0.0010345281137835872,9.791619783936785
3.968,0,4,1,0.5906572146464071,89.77274221620056,0.0,6.25046713926768,160,9,1,0,1,0,0.0075,6.25796713926768,6.242967139267679,0.0760798135654629,0.4011976873095976,-6.395942564975214e-05,-0.011566983560562068,-0.0010729908035916882,9.765656536997083
4.0,0,4,1,0.5906572146464071,90.36339943084697,0.0,6.25046713926768,160,9,1,0,1,0,0.0075,6.25796713926768,6.242967139267679,0.08008010987398792,0.4011949474369132,-6.39649951269701e-05,-0.009044051472197879,-0.0011036430823501665,9.77880744273651
4.032,0,4,1,0.5906572146464071,90.95405664549338,0.0,6.25046713926768,160,9,1,0,1,0,0.0075,6.25796713926768,6.242967139267679,0.0840804056673222,0.4011915452384237,-6.396958164613976e-05,-0.005946185174638671,-0.0011228334187171072,9.81563826049169
4.064,0,4,1,0.5906572146464071,91.5447138601398,0.0,6.25046713926768,160,9,1,0,1,0,0.0075,6.25796713926768,6.242967139267679,0.08808070099208476,0.4011874775198492,-6.397213535085274e-05,-0.0025420157292097923,-0.001146040945019313,9.809947613096636
4.096,0,4,1,1.181188913326966,92.72590277346676,0.5905316986805589,6.220350022634971,160,9,1,0,1,0,0.0075,6.227850022634971,6.212850022634971,0.09208099582252312,0.4011827402071557,-6.397201364531299e-05,0.0010337618925451678,-0.001155744139689759,9.807826851300371
4.128,0,4,1,1.181188913326966,93.90709168679372,0.0,6.220940554333652,160,9,1,0,1,0,0.0075,6.228440554333652,6.213440554333651,0.09606201579125422,0.4011773547982482,-6.397091985186482e-05,-0.018075626757398752,-0.0011494493571249452,9.787632362516543
4.16,0,4,1,1.181188913326966,95.08828060012068,0.0,6.220940554333652,160,9,1,0,1,0,0.0075,6.228440554333652,6.213440554333651,0.10004341230649605,0.4011712956945038,-6.39698159225037e-05,0.0008198549778552779,-0.0011505297754332991,9.824491242435107
4.192,0,4,1,1.181188913326966,96.26946951344765,0.0,6.220940554333652,160,9,1,0,1,0,0.0075,6.228440554333652,6.213440554333651,0.1040248080330319,0.4011645596160868,-6.396876437007523e-05,0.00014392864983223114,-0.0011467777991894892,9.813754020626103
4.224,0,4,1,1.181188913326966,97.45065842677461,0.0,6.220940554333652,160,9,1,0,1,0,0.0075,6.228440554333652,6.213440554333651,0.10800620279441557,0.40115714338840214,-6.396779693903024e-05,-0.00017123674680804893,-0.0011460137946488597,9.793480169177858
4.256,0,4,1,0.5906572146464071,98.04131564142102,-0.5905316986805589,6.25105767096636,160,9,1,-1,0,-1,-0.08399999999999999,6.1670576709663605,6.28,0.11198759642261402,0.40114904448071054,-6.396693466132093e-05,-0.0004739361813824648,-0.0011258765836613615,9.816690550034547
4.288,0,4,1,1.181188913326966,99.22250455474799,0.5905316986805589,6.220350022634971,160,9,1,0,0,1,0.009,6.229350022634971,6.211350022634971,0.11597064167584895,0.401140256035166,-6.396399303804264e-05,0.0011881056821555099,-0.0011289341097224961,9.839263524459243
4.32,0,4,1,1.181188913326966,100.40369346807495,0.0,6.220940554333652,160,9,1,0,0,0,0.0,6.220940554333652,6.220940554333652,0.1199516700997285,0.4011370974786785,-6.396463107408157e-05,-0.002719123566235676,0.005087016462019354,9.856373688658463
4.352,0,4,1,1.181188913326966,101.58488238140191,0.0,6.220940554333652,160,9,1,0,0,0,0.0,6.220940554333652,6.220940554333652,0.12393307389353843,0.4011330948739291,-6.396567888298024e-05,-0.0005900300846560594,-0.0011710774235146279,9.79111395508298
4.384,0,4,1,1.181188913326966,102.76607129472887,0.0,6.220940554333652,160,9,1,0,0,0,0.0,6.220940554333652,6.220940554333652,0.1279144756246043,0.4011291043164743,-6.396696794556955e-05,-0.001103823016430277,-0.00024388624729725054,9.80900187106538
4.416,0,4,1,1.181188913326966,103.94726020805584,0.0,6.220940554333652,160,9,1,0,0,0,0.0,6.220940554333652,6.220940554333652,0.131895875880952,0.4011251026360057,-6.396812599092708e-05,-0.0011998502515979499,-0.00018060405814091768,9.84981164664895
4.448,0,4,1,1.181188913326966,105.1284491213828,0.0,6.220940554333652,160,9,1,0,0,0,0.0,6.220940554333652,6.220940554333652,0.1358772751600299,0.40112107507094497,-6.396896301705084e-05,-0.0012169207801765718,-0.00011705224330768832,9.836979199771083
4.48,0,4,1,1.181188913326966,106.30963803470976,0.0,6.220940554333652,160,9,1,0,0,0,0.0,6.220940554333652,6.220940554333652,0.13985867385543324,0.401117013755325,-6.396941224208474e-05,-0.0011600488667310423,-6.050929190639016e-05,9.712559378493273
4.5120000000000005,0,4,1,1.181188913326966,107.49082694803673,0.0,6.220940554333652,160,9,1,0,0,0,0.0,6.220940554333652,6.220940554333652,0.14384007226359544,0.40111291610480626,-6.396948359368472e-05,-0.0010350480808321047,-1.37826857751904e-05,9.882060953573948
4.5440000000000005,0,4,1,1.181188913326966,108.67201586136369,0.0,6.220940554333652,160,9,1,0,0,0,0.0,6.220940554333652,6.220940554333652,0.14782147059570855,0.4011087833072958,-6.396922949623331e-05,-0.0008514680208881223,2.2359553950383767e-05,9.816699204029737
4.5760000000000005,0,4,1,1.181188913326966,109.85320477469065,0.0,6.220940554333652,160,9,1,0,0,0,0.0,6.220940554333652,6.220940554333652,0.15180286899202916,0.40110461900287947,-6.396872131535399e-05,-0.0006180026279579683,4.7276986652570185e-05,9.798495783979522
4.6080000000000005,0,4,1,1.181188913326966,111.03439368801762,0.0,6.220940554333652,160,9,1,0,0,0,0.0,6.220940554333652,6.220940554333652,0.15578426753656993,0.40110042819601616,-6.396803438622409e-05,-0.00034749907409435216,6.247730475525782e-05,9.84868802529196
4.64,0,4,1,1.181188913326966,112.21558260134458,0.0,6.220940554333652,160,9,1,0,0,0,0.0,6.220940554333652,6.220940554333652,0.15976566627088054,0.4010962164110587,-6.39672394435499e-05,-5.5978134081465174e-05,6.920725671217927e-05,9.784242946041298
4.672,0,4,1,1.181188913326966,113.39677151467154,0.0,6.220940554333652,160,9,1,0,0,0,0.0,6.220940554333652,6.220940554333652,0.16374706520616764,0.40109198907951704,-6.396639841038838e-05,0.000237621488844742,7.00211601003125e-05,9.774524463442248
4.704,0,4,1,1.181188913326966,114.5779604279985,0.0,6.220940554333652,160,9,1,0,0,0,0.0,6.220940554333652,6.220940554333652,0.16772846433340846,0.4010877511329447,-6.396556279780752e-05,0.0005181395251547437,6.552485236434419e-05,9.857071200480018
4.736,0,4,1,1.181188913326966,115.75914934132547,0.0,6.220940554333652,160,9,1,0,0,0,0.0,6.220940554333652,6.220940554333652,0.17170986363139593,0.4010835067674865,-6.396477342874088e-05,0.0007644315651373286,5.829468115775376e-05,9.835866101642731
4.768,0,4,1,1.181188913326966,116.94033825465243,0.0,6.220940554333652,160,9,1,0,0,0,0.0,6.220940554333652,6.220940554333652,0.1756912630728355,0.40107925934345773,-6.396406064760468e-05,0.0009733002630716786,4.9127141955470584e-05,9.846877952480465
4.8,0,4,1,0.5906572146464071,117.53099546929884,-0.5905316986805589,6.25105767096636,160,9,1,-1,-1,-1,-0.09149999999999998,6.15955767096636,6.28,0.17967266262872042,0.4010750113844,-6.396344462561952e-05,0.001111499567915439,3.964358940131559e-05,9.841925493109734
4.832,0,4,1,0.5906572146464071,118.12165268394526,0.0,6.25046713926768,160,9,1,0,-1,1,0.0014999999999999996,6.25196713926768,6.2489671392676795,0.18365331854673494,0.40107076844512707,-6.39628961328631e-05,0.0003202888288767983,3.4657467883264823e-05,9.801716020902818
4.864,0,4,1,0.5906572146464071,118.71230989859167,0.0,6.25046713926768,160,9,1,0,-1,0,-0.0075,6.242967139267679,6.25796713926768,0.18765362312431966,0.40107245879730913,-6.396182967426112e-05,0.023980909607329858,0.005839597728540239,9.79552690472
4.896,0,4,1,0.5906572146464071,119.30296711323808,0.0,6.25046713926768,160,9,1,0,-1,0,-0.0075,6.242967139267679,6.25796713926768,0.19165392691335686,0.40107398860282545,-6.395912591406448e-05,0.00823148586858924,-5.437611745150137e-05,9.807626428524182
4.928,0,4,1,0.5906572146464071,119.8936243278845,0.0,6.25046713926768,160,9,1,0,-1,0,-0.0075,6.242967139267679,6.25796713926768,0.19565422780921934,0.4010762275662638,-6.395524356324518e-05,0.011284637902583116,0.0008629714688747503,9.80219306747241
4.96,0,4,1,0.5906572146464071,120.48428154253091,0.0,6.25046713926768,160,9,1,0,-1,0,-0.0075,6.242967139267679,6.25796713926768,0.19965452640188075,0.4010791537489035,-6.395116744598202e-05,0.013546050697314778,0.0009137611998798542,9.883674897113297
4.992,0,4,1,0.5906572146464071,121.07493875717732,0.0,6.25046713926768,160,9,1,0,-1,0,-0.0075,6.242967139267679,6.25796713926768,0.20365482319351755,0.4010827523032162,-6.394808538445415e-05,0.015108127129648999,0.000963323595880864,9.826440431984095
5.024,0,4,1,0.5906572146464071,121.66559597182373,0.0,6.25046713926768,160,9,1,0,-1,0,-0.0075,6.242967139267679,6.25796713926768,0.20765511845210077,0.4010870143160308,-6.394617220109068e-05,0.014844284351838937,0.0010214658105833462,9.84016893648999
5.056,0,4,1,0.5906572146464071,122.25625318647015,0.0,6.25046713926768,160,9,1,0,-1,0,-0.0075,6.242967139267679,6.25796713926768,0.21165541273054528,0.4010919354106676,-6.395060817622825e-05,0.01368895497383602,0.001053155520014818,9.789866166681247
5.088,0,4,1,0.5906572146464071,122.84691040111656,0.0,6.25046713926768,160,9,1,0,-1,0,-0.0075,6.242967139267679,6.25796713926768,0.21565570606046944,0.40109751510970565,-6.395629349330821e-05,0.011670017445436196,0.0010929009143049733,9.787226374171366
5.12,0,4,1,0.5906572146464071,123.43756761576297,0.0,6.25046713926768,160,9,1,0,-1,0,-0.0075,6.242967139267679,6.25796713926768,0.2196559985229096,0.40110375531029246,-6.396212816887382e-05,0.008982218556869202,0.0011188712399672048,9.847088029826168
5.152,0,4,1,0.5906572146464071,124.02822483040939,0.0,6.25046713926768,160,9,1,0,-1,0,-0.0075,6.242967139267679,6.25796713926768,0.2236562901207829,0.40111065941946644,-6.39668749707386e-05,0.005759561383097418,0.0011366217145546765,9.805954652159167
5.184,0,4,1,0.0,124.02822483040939,-0.5906572146464071,6.280590657214646,160,9,1,0,-1,0,-0.0075,6.273090657214646,6.28,0.2276565807956556,0.4011182316063374,-6.396946091799006e-05,0.0022327111814119983,0.0011476789782273078,9.815218132025004
5.216,0,4,1,0.0,124.02822483040939,0.0,6.28,160,9,1,0,-1,0,-0.0075,6.2725,6.28,0.2316735596787005,0.4011265100429505,-6.39685947400933e-05,0.01814700968727421,0.001156796638902076,9.841984755301176
5.248,0,4,1,0.0,124.02822483040939,0.0,6.28,160,9,1,0,-1,0,-0.0075,6.2725,6.28,0.23569034980480635,0.40113506803587134,-6.396775434267671e-05,0.00114722924291909,0.0007590664810285429,9.86182200574387
5.28,0,4,1,0.0,124.02822483040939,0.0,6.28,160,9,1,0,-1,0,-0.0075,6.2725,6.28,0.23970713944439026,0.40114393941135496,-6.396690936450941e-05,0.000735898284021354,0.0007816523256957904,9.863873959431618
5.312,0,4,1,0.5906572146464071,124.6188820450558,0.5906572146464071,6.2498764820530335,160,9,1,1,0,1,0.08399999999999999,6.28,6.165876482053034,0.24372392855379987,0.4011531303710706,-6.396606083501448e-05,8.623510105401431e-05,0.0007597188514939478,9.76209063974674
5.344,0,4,1,0.5906572146464071,125.20953925970221,0.0,6.25046713926768,160,9,1,0,0,-1,-0.009,6.241467139267679,6.25946713926768,0.247706597415945,0.4011625745662762,-6.395940109759322e-05,-0.040875974735043126,0.0007110834129979335,9.791090137221339
5.376,0,4,1,0.5906572146464071,125.80019647434862,0.0,6.25046713926768,160,9,1,0,0,0,0.0,6.25046713926768,6.25046713926768,0.25170689924070805,0.40116635625828045,-6.395362659878875e-05,0.006366301720882539,-0.005181107163795284,9.83254928192902
5.408,0,4,1,0.5906572146464071,126.39085368899504,0.0,6.25046713926768,160,9,1,0,0,0,0.0,6.25046713926768,6.25046713926768,0.25570719937078507,0.40117100520472465,-6.394752433367193e-05,-0.013663025404755925,0.0011246136461970412,9.81150349451368
5.44,0,4,1,0.5906572146464071,126.98151090364145,0.0,6.25046713926768,160,9,1,0,0,0,0.0,6.25046713926768,6.25046713926768,0.25970749740500737,0.40117566103352476,-6.394258298808575e-05,-0.015679671473336276,0.00018783373508684574,9.793916069533182
5.472,0,4,1,0.0,126.98151090364145,-0.5906572146464071,6.280590657214646,160,9,1,0,0,0,0.0,6.28,6.28,0.26370779392592475,0.4011803470522861,-6.393880888453177e-05,-0.01525796413472978,0.0001186496150570635,9.805632797721676
5.5040000000000004,0,4,1,0.0,126.98151090364145,0.0,6.28,160,9,1,0,0,0,0.0,6.28,6.28,0.26772698999473876,0.4011850997651835,-6.395466488854501e-05,0.00812705107200945,5.23896969713237e-05,9.855289560071947
5.5360000000000005,0,4,1,0.0,126.98151090364145,0.0,6.28,160,9,1,0,0,0,0.0,6.28,6.28,0.2717461859801055,0.40118990165206403,-6.396540135089959e-05,-0.0047309266088320905,-5.601394647692287e-06,9.829479332745985
5.5680000000000005,0,4,1,0.0,126.98151090364145,0.0,6.28,160,9,1,0,0,0,0.0,6.28,6.28,0.27576538163590414,0.4011947525810608,-6.396889754817572e-05,0.001179850033677217,-5.059609150956443e-05,9.850987105329338
5.6000000000000005,0,4,1,0.0,126.98151090364145,0.0,6.28,160,9,1,0,0,0,0.0,6.28,6.28,0.2797845771775397,0.40119964848048023,-6.396464421703184e-05,0.006999686831444224,-8.171852683390897e-05,9.833453829487942
5.632,0,4,1,0.0,126.98151090364145,0.0,6.28,160,9,1,0,0,0,0.0,6.28,6.28,0.2838037727493579,0.40120458294635397,-6.39538467906136e-05,0.012440465550522166,-0.00010139330878824283,9.818857079936246
5.664,0,4,1,0.0,126.98151090364145,0.0,6.28,160,9,1,0,0,0,0.0,6.28,6.28,0.2878229684415609,0.4012095485175975,-6.393915391424317e-05,0.01713855071568657,-0.00010921586207691679,9.849800065178563
5.696,0,4,1,0.0,126.98151090364145,0.0,6.28,160,9,1,0,0,0,0.0,6.28,6.28,0.2918421637627199,0.40121453728964745,-6.392271937794881e-05,0.01651142555380488,-0.00010421498802959988,9.777892429496474
5.728,0,4,1,0.0,126.98151090364145,0.0,6.28,160,9,1,0,0,0,0.0,6.28,6.28,0.2958613599219767,0.4012195430057628,-6.393022228512457e-05,0.014957161458456197,-9.777656183009073e-05,9.800090873798881
5.76,0,4,1,0.5906572146464071,127.57216811828786,0.5906572146464071,6.2498764820530335,160,9,1,1,1,1,0.09149999999999998,6.28,6.158376482053034,0.29988055626881405,0.4012245590826963,-6.39391219133343e-05,0.012504237515187913,-8.706290641647645e-05,9.83014224002569
5.792,0,4,1,0.5906572146464071,128.16282533293426,0.0,6.25046713926768,160,9,1,0,1,-1,-0.0014999999999999996,6.2489671392676795,6.25196713926768,0.3038608339913294,0.401229508706364,-6.395953051396147e-05,-0.03632022656284291,-0.0001445965430792043,9.817909729003306
5.824,0,4,1,0.5906572146464071,128.75348254758066,0.0,6.25046713926768,160,9,1,0,1,0,0.0075,6.25796713926768,6.242967139267679,0.30786113866521564,0.40122849590584486,-6.39595838305522e-05,0.014123167986531706,-0.005925421754324125,9.839091789889517
5.856,0,4,1,0.5906572146464071,129.34413976222706,0.0,6.25046713926768,160,9,1,0,1,0,0.0075,6.25796713926768,6.242967139267679,0.31186144256992465,0.4012276503633169,-6.395057010922037e-05,-0.01219852132657831,2.1495503598442685e-05,9.791617693013569
5.888,0,4,1,0.5906572146464071,129.93479697687346,0.0,6.25046713926768,160,9,1,0,1,0,0.0075,6.25796713926768,6.242967139267679,0.31586174377896054,0.4012260998183562,-6.393468763184022e-05,-0.018151524181160963,-0.0008963905242951155,9.835364187989661
5.92,0,4,1,0.5906572146464071,130.52545419151986,0.0,6.25046713926768,160,9,1,0,1,0,0.0075,6.25796713926768,6.242967139267679,0.3198620425663693,0.4012238645470973,-6.391589153276721e-05,-0.01724488779186034,-0.0009337021600567964,9.76735490341841
5.952,0,4,1,0.5906572146464071,131.11611140616625,0.0,6.25046713926768,160,9,1,0,1,0,0.0075,6.25796713926768,6.242967139267679,0.32386233998476965,0.4012209561212921,-6.392822925102397e-05,-0.015473946344188742,-0.0009781818842660396,9.797424790173515
5.984,0,4,1,0.5906572146464071,131.70676862081265,0.0,6.25046713926768,160,9,1,0,1,0,0.0075,6.25796713926768,6.242967139267679,0.3278626361218991,0.4012173826676777,-6.394105187996699e-05,-0.012613602714124478,-0.001036444476649363,9.74892692087885
6.016,0,4,1,0.5906572146464071,132.29742583545905,0.0,6.25046713926768,160,9,1,0,1,0,0.0075,6.25796713926768,6.242967139267679,0.33186293124808197,0.4012131474701195,-6.395258937189931e-05,-0.009124969592453094,-0.0010673479751749408,9.800152605799191
6.048,0,4,1,0.5906572146464071,132.88808305010545,0.0,6.25046713926768,160,9,1,0,1,0,0.0075,6.25796713926768,6.242967139267679,0.33586322552785197,0.40120825048742575,-6.396114173467041e-05,-0.005040586778331096,-0.0011040211480375433,9.80355282171564
6.08,0,4,1,1.181188913326966,134.0692719634324,0.5905316986805589,6.220350022634971,160,9,1,0,1,0,0.0075,6.227850022634971,6.212850022634971,0.33986351903248824,0.4012026894483078,-6.396546148973621e-05,-0.0006525678750292486,-0.001124594812090606,9.802112325496035
6.112,0,4,1,1.181188913326966,135.25046087675938,0.0,6.220940554333652,160,9,1,0,1,0,0.0075,6.228440554333652,6.213440554333651,0.3438445374752355,0.4011964904886819,-6.396605792639148e-05,-0.018968236984443436,-0.0011407520248840279,9.796603112367894
6.144,0,4,1,1.181188913326966,136.43164979008634,0.0,6.220940554333652,160,9,1,0,1,0,0.0075,6.228440554333652,6.213440554333651,0.34782593231496833,0.4011896240016081,-6.396617193314344e-05,0.0009959936869465534,-0.0011317694506322396,9.848819564456212
6.176,0,4,1,1.181188913326966,137.6128387034133,0.0,6.220940554333652,160,9,1,0,1,0,0.0075,6.228440554333652,6.213440554333651,0.3518073262539979,0.4011820862323233,-6.396593599540361e-05,0.0012653566178419547,-0.0011500538530265206,9.848525051919687
6.208,0,4,1,1.181188913326966,138.79402761674027,0.0,6.220940554333652,160,9,1,0,1,0,0.0075,6.228440554333652,6.213440554333651,0.35578871913857046,0.4011738731637384,-6.3965487525533e-05,0.0018268736422193284,-0.0011371539195645455,9.82148720835841
6.24,0,4,1,1.181188913326966,139.97521653006723,0.0,6.220940554333652,160,9,1,0,1,0,0.0075,6.228440554333652,6.213440554333651,0.35977011081179094,0.4011649812999128,-6.396495120020163e-05,0.002270120581975469,-0.0011320623190376185,9.82226558228954
6.272,0,4,1,0.5906572146464071,140.56587374471363,-0.5905316986805589,6.25105767096636,160,9,1,-1,0,-1,-0.08399999999999999,6.1670576709663605,6.28,0.36375150110844817,0.401155407783349,-6.396443174858796e-05,0.0025787815221332603,-0.0011289261035592588,9.78630571151659
6.304,0,4,1,1.181188913326966,141.7470626580406,0.5905316986805589,6.220350022634971,160,9,1,0,0,1,0.009,6.229350022634971,6.211350022634971,0.3677345428453785,0.40114515436910625,-6.396155657493324e-05,0.004727439656705364,-0.001116930107145551,9.7867891054075
6.336,0,4,1,1.181188913326966,142.92825157136755,0.0,6.220940554333652,160,9,1,0,0,0,0.0,6.220940554333652,6.220940554333652,0.37171556978572984,0.40114052254962834,-6.39625936957218e-05,0.0010200957339946658,0.005060903180567678,9.798549970037676
6.368,0,4,1,0.5906572146464071,143.51890878601395,-0.5905316986805589,6.25105767096636,160,9,1,0,0,0,0.0,6.25105767096636,6.25105767096636,0.37569697180640077,0.40113504829399893,-6.396403351923916e-05,0.003146135181246655,-0.0011655506116906521,9.84628393416473
6.4,0,4,1,0.0,143.51890878601395,-0.5906572146464071,6.280590657214646,160,9,1,0,0,0,0.0,6.28,6.28,0.3796976462380035,0.4011295587082957,-6.396261627757485e-05,0.025083763939147175,-0.00024644849440186295,9.82115921197991
6.432,0,4,1,1.181188913326966,144.70009769934092,1.181188913326966,6.219759365420325,160,9,1,0,0,0,0.0,6.219759365420325,6.219759365420325,0.3837168423323035,0.401124032063729,-6.395158974874769e-05,0.03101078914131115,-0.00018194208477360384,9.785858306216642
6.464,0,4,1,2.9507791090063535,147.65087680834728,1.7695901956793876,6.130691454354003,160,9,1,0,0,0,0.0,6.130691454354003,6.130691454354003,0.38769748492099587,0.4011185340773888,-6.395654964676256e-05,-0.026354251876583943,-0.00011801873176690539,9.83430885426022
6.496,0,4,1,4.127591702511717,151.778468510859,1.1768125935053635,6.0724436022809085,160,9,1,0,0,0,0.0,6.0724436022809085,6.0724436022809085,0.3916211238372059,0.4011130823293429,-6.397440113233357e-05,-0.05768041108420251,-6.153069852907391e-05,9.826527590951613
6.5280000000000005,0,4,1,5.885987833028316,157.6644563438873,1.7583961305165987,5.983942212218068,160,9,1,0,0,0,0.0,5.983942212218068,5.983942212218068,0.39550748328376095,0.4011076465976052,-6.392919082109233e-05,-0.05948571043564393,-1.4680656787087166e-05,9.805529209252388
6.5600000000000005,0,4,1,8.212780189285867,165.87723653317317,2.3267923562575517,5.867034198179449,160,9,1,0,0,0,0.0,5.867034198179449,5.867034198179449,0.3993372022282511,0.4011022577029094,-6.380067559334963e-05,-0.07695988983827995,1.3381292250367242e-05,9.806237820832628
6.5920000000000005,0,4,1,11.08256946302967,176.95980599620285,2.8697892737438018,5.723001737574773,160,9,1,-1,-1,-1,-0.09149999999999998,5.631501737574773,5.814501737574773,0.403092101266724,0.4010969421454265,-6.377557275366076e-05,-0.0930525964699769,2.856558209576879e-05,9.782907592712908
6.6240000000000006,0,4,1,13.897176315015338,190.8569823112182,2.814606851985669,5.5823265773972475,160,9,1,0,-1,1,0.0014999999999999996,5.5838265773972475,5.580826577397247,0.4067548207202608,0.40109164965096283,-6.374175487212051e-05,-0.10924592194605122,0.00014711839822683235,9.797042635911932
6.656000000000001,0,4,1,16.10130239915845,206.95828471037663,2.2041260841431107,5.472730753957935,160,9,1,1,0,1,0.08399999999999999,5.556730753957934,5.388730753957935,0.41032752309134984,0.40109464715206167,-6.371675455446937e-05,-0.10573457576918753,0.008243927403146592,9.800627794517446
6.688,0,4,1,18.25756307538975,225.21584778576639,2.1562606762313017,5.364965585554281,160,9,1,2,2,1,0.174,5.538965585554282,5.190965585554281,0.4138300633548824,0.4010974746740256,-6.371025128787226e-05,-0.08575889463722236,-0.0001065102770656187,9.785112081793343
6.72,0,4,1,19.84069808396836,245.05654586973475,1.5831350085786084,5.286381960793004,160,9,1,3,5,1,0.27149999999999996,5.5578819607930035,5.014881960793004,0.41726367297835165,0.4010930955691535,-6.370358167157725e-05,-0.08386952856611964,-0.007198929272390773,9.843243471506712
6.752,0,4,1,21.90317808183915,266.9597239515739,2.062479997870792,5.182778615910172,160,9,1,3,8,0,0.285,5.467778615910172,4.8977786159101715,0.42064710949978384,0.40107422909710266,-6.373109586873572e-05,-0.06507666203280921,-0.014610939809865414,9.840360799552537
6.784,0,4,1,22.91282839677165,289.87255234834555,1.0096503149325002,5.133348929846485,160,9,1,4,12,1,0.399,5.532348929846485,4.734348929846485,0.42396429124970386,0.4010334927156688,-6.380079924446676e-05,-0.08043277391540951,-0.02255707668901342,9.827369153682879
6.816,0,4,1,24.399435924175126,314.2719882725207,1.486607527403475,5.058541596263841,160,9,1,4,16,0,0.42,5.478541596263841,4.638541596263841,0.42724980818069447,0.4009703322171612,-6.400172125972485e-05,-0.045416587029776134,-0.02328509052874928,9.768140472007314
6.848,0,4,1,25.851862542060406,340.1238508145811,1.4524266178852798,4.985954446279094,160,9,1,4,20,0,0.44999999999999996,5.435954446279094,4.535954446279094,0.4304870491730444,0.4008766516714115,-6.4317718231649e-05,-0.06020364430541369,-0.03248834569829322,9.753948178279309
6.88,0,4,1,26.800834946954605,366.92468576153567,0.9489724048941994,4.939009280247375,160,9,1,4,24,0,0.48,5.419009280247375,4.4590092802473755,0.4336770076028163,0.4007520150555203,-6.478606602507674e-05,-0.057976572876122755,-0.0341764645489672,9.781393070657186
6.912,0,4,1,28.194979062462156,395.1196648239978,1.394144115507551,4.868856902761385,160,9,1,4,28,0,0.51,5.378856902761385,4.358856902761385,0.43683562339844023,0.4005946359186647,-6.541856620911543e-05,-0.0406029306155219,-0.03663734600080697,9.8449234763307
6.944,0,4,1,29.55368363230744,424.67334845630523,1.3587045698452833,4.800957113814783,160,9,1,4,32,0,0.54,5.340957113814783,4.260957113814783,0.43994756720775635,0.40040408410994444,-6.617137327326848e-05,-0.053589097417398965,-0.039420954736009685,9.822961304189574
6.976,0,4,1,30.439724380643128,455.1130728369484,0.886040748335688,4.757127740219508,160,9,1,4,36,0,0.5700000000000001,5.327127740219508,4.187127740219507,0.44301376119843705,0.40017939456776663,-6.703824014258827e-05,-0.05107539786424816,-0.04205527467897467,9.810366148396849
7.008,0,4,1,31.309950382534495,486.4230232194829,0.8702260018913677,4.713632254871383,160,9,1,4,40,0,0.6,5.313632254871383,4.1136322548713835,0.4460490134583665,0.3999184815718484,-6.801038645915317e-05,-0.034575764711327325,-0.044593885895485075,9.797193733095096
7.04,0,4,1,32.16439051359856,518.5874137330815,0.8544401310640666,4.670926034189008,160,9,1,4,44,0,0.6299999999999999,5.300926034189008,4.040926034189008,0.44905291863557356,0.3996201515447549,-6.905199934068018e-05,-0.03289671735902357,-0.04750889575075974,9.803734877456746
7.072,0,4,1,32.58570735391442,551.1731210869959,0.4213168403158605,4.650293315463963,160,9,1,4,48,0,0.6599999999999999,5.310293315463963,3.990293315463963,0.45202530927181944,0.3992832165966095,-7.01450808811635e-05,-0.030924689097785524,-0.050197963357482084,9.823243568887747
7.104,0,4,1,33.41658139531293,584.5897024823089,0.8308740413985092,4.608340056192954,160,9,1,4,52,0,0.69,5.298340056192954,3.9183400561929544,0.4549794840027684,0.3989048450249255,-7.129210530532927e-05,-0.01562854259177857,-0.05267901814443982,9.815585887601383
7.136,0,4,1,33.82616175818528,618.4158642404942,0.40958036287234734,4.588282331727863,160,9,1,4,56,0,0.72,5.308282331727863,3.8682823317278636,0.45790108411386854,0.39848542262318215,-7.245307139260027e-05,-0.0272798133788458,-0.05581160958696678,9.761605402773554
7.168,0,4,1,34.231855438892175,652.6477196793863,0.4056936807068965,4.568001534374684,160,9,1,4,60,0,0.75,5.318001534374684,3.818001534374684,0.4608031093954561,0.39802179718726666,-7.365243435140771e-05,-0.012392211848536519,-0.05794196875705395,9.837746859114986
7.2,0,4,1,35.03164382952617,687.6793635089125,0.7997883906339922,4.527618020133057,160,9,1,3,63,-1,0.6885,5.216118020133058,3.8391180201330575,0.46368442932089765,0.3975126074627278,-7.4874389450948e-05,-0.011060252345972747,-0.06052112553320739,9.780436284533176
7.232,0,4,1,35.81608074915566,723.4954442580681,0.784436919629492,4.488411525622587,160,9,1,3,66,0,0.72,5.208411525622587,3.7684115256225876,0.46653082244137695,0.39695928094614463,-7.499325382236827e-05,-0.024153276358950548,-0.06298833330378706,9.81173674814351
7.264,0,4,1,35.81608074915566,759.3115250072237,0.0,4.489195962542217,160,9,1,4,70,1,0.834,5.323195962542217,3.655195962542217,0.4693435776507669,0.39636692673483986,-7.516836923747265e-05,-0.02344195327278347,-0.05897670820593752,9.771309049291261
7.296,0,4,1,36.58531829969341,795.8968433069172,0.7692375505377527,4.449964847464792,160,9,1,3,73,-1,0.7635,5.213464847464792,3.686464847464792,0.47214723579369916,0.3957285988991518,-7.550364180147762e-05,0.0022006326936933806,-0.06063874245434024,9.821298821488487
7.328,0,4,1,36.58531829969341,832.4821616066106,0.0,4.45073408501533,160,9,1,3,76,0,0.7949999999999999,5.24573408501533,3.6557340850153297,0.47491362700902867,0.3950431932797469,-7.57414905544606e-05,-0.02353130443030847,-0.06934020301602874,9.7750821450099
7.36,0,4,1,36.964289289465206,869.4464508960758,0.3789709897717941,4.431406564536968,160,9,1,3,79,0,0.8175,5.248906564536968,3.6139065645369683,0.4776682569278839,0.3943101050141935,-7.602182831936352e-05,0.0016645904862385213,-0.06372510765752623,9.770066973674197
7.392,0,4,1,37.71104767638987,907.1574985724657,0.746758386924661,4.393700857793583,160,9,1,2,81,-1,0.7484999999999999,5.142200857793583,3.645200857793583,0.4803973712785172,0.3935309478204366,-7.632696093727055e-05,-0.010804611210228847,-0.06652378847516835,9.799708489275064
7.424,0,4,1,38.078882361565,945.2363809340306,0.36783468517513285,4.375688047236575,160,9,1,2,83,0,0.7725,5.148188047236575,3.603188047236575,0.4830880564823846,0.39270871099170396,-7.651486403854012e-05,-0.022964581622579604,-0.06819061981318943,9.806791800053718
7.456,0,4,1,38.443053501836616,983.6794344358673,0.36417114027161546,4.357483153767897,160,9,1,2,85,0,0.7875,5.144983153767897,3.569983153767897,0.4857534467174501,0.39184506159157007,-7.671946931317973e-05,-0.010422306114122612,-0.06327085257531317,9.82315006393974
7.488,0,4,1,38.80358657089566,1022.4830210067629,0.3605330690590449,4.339460138386158,160,9,1,3,88,1,0.8939999999999999,5.2334601383861585,3.4454601383861583,0.48839235045991225,0.3909391175437198,-7.692039501985305e-05,-0.010427255881709192,-0.0649996193352406,9.810252510654195
7.5200000000000005,0,4,1,38.80358657089566,1061.2866075776585,0.0,4.339820671455217,160,9,1,2,90,-1,0.816,5.155820671455217,3.5238206714552174,0.49100440397229467,0.3899901449431776,-7.726347184141419e-05,-0.009550973373278723,-0.0662833283660914,9.795364761743617
7.5520000000000005,0,4,1,39.16050768848255,1100.447115266141,0.3569211175868858,4.321617694458286,160,9,1,2,92,0,0.84,5.161617694458286,3.4816176944582864,0.4935966849984628,0.3889885419534428,-7.746337116887325e-05,0.0012677067397613804,-0.07260305048656365,9.807016943594274
7.5840000000000005,0,4,1,39.80557109226519,1140.2526863584062,0.6450634037826433,4.289076381982959,160,9,1,2,94,0,0.855,5.144076381982959,3.4340763819829587,0.49615931770999144,0.3879438268997138,-7.769067168435055e-05,-0.010210392019251138,-0.06761702922941701,9.834641093378645
7.6160000000000005,0,4,1,40.155999624919325,1180.4086859833255,0.350428532654135,4.271849590221381,160,9,1,2,96,0,0.87,5.141849590221381,3.4018495902213806,0.49868254191690153,0.3868588834648726,-7.792904864763889e-05,-0.01913843123517871,-0.06915547978604367,9.859546801789259
7.648000000000001,0,4,1,40.50284838533223,1220.9115343686578,0.3468487604129038,4.254510731972976,160,9,1,1,97,-1,0.7934999999999999,5.048010731972976,3.4610107319729764,0.5011743469714154,0.38572996660237363,-7.817801775879263e-05,-0.009461463382403182,-0.0700294410054368,9.807180508672616
