Time,SetPointAngle,SensorAngleRow,SensorAngleWidth,Angle,IntegralAngle,DeltaAngle,BaseSpeed,SetPointError,SensorErrorRow,SensorErrorWidth,Error,IntegralError,DeltaError,DeltaSpeed,LeftSpeed,RightSpeed,X,Y,Z,Roll,Pitch,Yaw
0.008,0,4,1,3.8140748342903783,3.8140748342903783,3.8140748342903783,6.089301861405691,160,7,1,1,1,1,0.0595,6.1488018614056905,6.029801861405691,0.360682,0.4009999999999967,-5.441794429106826e-05,-1.2653792179699163e-08,-3.302501023706672e-08,9.928053609722056
0.016,0,4,1,2.862405226111779,6.676480060402158,-0.9516696081785994,6.136886149942399,160,7,1,1,2,0,0.060000000000000005,6.196886149942398,6.076886149942399,0.3597743551170997,0.40100000258497853,-4.4185228667942625e-05,14.375334585520198,-2.767164682105846e-06,9.594167646346763
0.024,0,4,1,3.8140748342903783,10.490554894692536,0.9516696081785994,6.089301861405691,160,7,1,1,3,0,0.065,6.154301861405691,6.02430186140569,0.35977120224233544,0.4010000042342334,-3.898642449122816e-05,-14.09211588985223,-2.3347952122690235e-05,9.843249926377409
0.032,0,4,1,3.8140748342903783,14.304629728982915,0.0,6.089301861405691,160,7,1,1,4,0,0.07,6.159301861405691,6.01930186140569,0.3590281972524505,0.40100000699508115,-3.32969663735163e-05,11.660495402553776,1.4144596746979907e-05,9.73650604651828
0.04,0,4,1,3.8140748342903783,18.118704563273294,0.0,6.089301861405691,160,7,1,1,5,0,0.07500000000000001,6.164301861405691,6.0143018614056905,0.35805497835877875,0.4010000807099683,-2.9149449678765593e-05,3.664820666693898,0.0004975482017002804,9.782818203250871
0.048,0,4,1,3.8140748342903783,21.93277939756367,0.0,6.089301861405691,160,7,1,1,6,0,0.08,6.169301861405691,6.009301861405691,0.35708067023701223,0.40100060584140057,-2.653497561793533e-05,0.08222443166503308,-0.007059455264277233,9.780427666980966
0.056,0,4,1,3.8140748342903783,25.746854231854048,0.0,6.089301861405691,160,7,1,1,7,0,0.085,6.174301861405691,6.004301861405691,0.3561063659266578,0.4010015701605555,-2.4460310667235446e-05,0.055231424547114355,-0.006862132390911526,9.807894835289256
0.064,0,4,1,2.862405226111779,28.609259457965827,-0.9516696081785994,6.136886149942399,160,7,1,0,7,-1,0.030500000000000003,6.1673861499423985,6.106386149942399,0.3551320650992583,0.40100299606714557,-2.2807941850191277e-05,0.045569251718464744,-0.007207970582353967,9.784154484985068
0.07200000000000001,0,4,1,2.862405226111779,31.471664684077606,0.0,6.136886149942399,160,7,1,0,7,0,0.035,6.171886149942399,6.101886149942398,0.3541501555969204,0.40100489198448214,-2.1476004888115394e-05,0.15511396161829952,-0.007159679947737538,9.784615612604773
0.08,0,4,1,2.862405226111779,34.334069910189385,0.0,6.136886149942399,160,7,1,0,7,0,0.035,6.171886149942399,6.101886149942398,0.35316824748072834,0.40100694727375785,-2.041088391798243e-05,0.028012426023782084,-0.002492310988157869,9.77179063290223
0.088,0,4,1,3.8140748342903783,38.148144744479765,0.9516696081785994,6.089301861405691,160,7,1,0,7,0,0.035,6.124301861405691,6.0543018614056905,0.35218634154771417,0.40100918824982523,-1.9555284232912473e-05,0.019092154495899447,-0.002923124813519264,9.85651589530943
0.096,0,4,1,3.8140748342903783,41.962219578770146,0.0,6.089301861405691,160,7,1,0,7,0,0.035,6.124301861405691,6.0543018614056905,0.3512120498988987,0.401011597448088,-1.886711173877155e-05,-0.1105303026033374,-0.0029327310677455193,9.801178303700862
0.10400000000000001,0,4,1,3.8140748342903783,45.776294413060526,0.0,6.089301861405691,160,7,1,0,7,0,0.035,6.124301861405691,6.0543018614056905,0.3502377609495641,0.4010141913373506,-1.8299897619750496e-05,-0.0019647327961196666,-0.002892785651084121,9.876413391888304
0.112,0,4,1,3.8140748342903783,49.59036924735091,0.0,6.089301861405691,160,7,1,0,7,0,0.035,6.124301861405691,6.0543018614056905,0.3492634733413675,0.40101697048338075,-1.7824672769790884e-05,-0.012447491457235298,-0.0029096921041835023,9.751210605000804
0.12,0,4,1,3.8140748342903783,53.40444408164129,0.0,6.089301861405691,160,7,1,0,7,0,0.035,6.124301861405691,6.0543018614056905,0.34828918691004457,0.4010199353812568,-1.7418608320005427e-05,-0.022748363650080587,-0.0029232072587599017,9.73470630608196
0.128,0,4,1,3.8140748342903783,57.21851891593167,0.0,6.089301861405691,160,7,1,0,7,0,0.035,6.124301861405691,6.0543018614056905,0.34731490152940664,0.4010230864670532,-1.7063835721401258e-05,-0.033412277056445124,-0.0029374780445845924,9.743822112891523
0.136,0,4,1,3.8140748342903783,61.03259375022205,0.0,6.089301861405691,160,7,1,0,7,0,0.035,6.124301861405691,6.0543018614056905,0.3463406188439716,0.4010264222281562,-1.665901622550578e-05,-0.03350252310564553,-0.002941264895325503,9.85267340452173
0.14400000000000002,0,4,1,2.862405226111779,63.894998976333824,-0.9516696081785994,6.136886149942399,160,7,1,-1,6,-1,-0.024500000000000004,6.112386149942399,6.161386149942398,0.34536633541265377,0.4010299527975997,-1.6500033066153136e-05,-0.03330530487111828,-0.0030444043500002555,9.810138424611571
0.152,0,4,1,3.8140748342903783,67.7090738106242,0.9516696081785994,6.089301861405691,160,7,1,0,6,1,0.034499999999999996,6.123801861405691,6.05480186140569,0.34438444116823425,0.4010337257782112,-1.6386583221320375e-05,0.08730619762687984,-0.003365685032245318,9.845152123093452
0.16,0,4,1,2.862405226111779,70.57147903673598,-0.9516696081785994,6.136886149942399,160,7,1,-1,5,-1,-0.029500000000000002,6.107386149942399,6.166386149942398,0.3434101572955556,0.4010372805982997,-1.6288734772546345e-05,-0.15019525837141148,0.002938786413103756,9.801595468066765
0.168,0,4,1,2.862405226111779,73.43388426284776,0.0,6.136886149942399,160,7,1,-1,4,0,-0.030000000000000002,6.106886149942398,6.166886149942399,0.34242826351280353,0.40104108178210335,-1.622108823301667e-05,0.0894243746653353,-0.0033894418678301836,9.788921649307984
0.176,0,4,1,2.862405226111779,76.29628948895953,0.0,6.136886149942399,160,7,1,-1,3,0,-0.035,6.101886149942398,6.171886149942399,0.3414463678963375,0.40104468846883623,-1.616930212996505e-05,-0.02740719880805744,0.0030332044251014023,9.826504269786652
0.184,0,4,1,3.8140748342903783,80.11036432324991,0.9516696081785994,6.089301861405691,160,7,1,0,3,1,0.0195,6.1088018614056905,6.069801861405691,0.34046447164426275,0.4010481046155798,-1.6129972119858713e-05,-0.024987435452826706,0.0029718228196666152,9.79317165623139
0.192,0,4,1,2.862405226111779,82.97276954936169,-0.9516696081785994,6.136886149942399,160,7,1,-1,2,-1,-0.0445,6.092386149942398,6.181386149942399,0.3394901870873903,0.4010512629304769,-1.6092886869831582e-05,-0.142978206785285,0.0036243524640088617,9.82392877104776
0.2,0,4,1,3.8140748342903783,86.78684438365207,0.9516696081785994,6.089301861405691,160,7,1,0,2,1,0.014499999999999999,6.103801861405691,6.074801861405691,0.338508291773384,0.40105458311700176,-1.6071540923092223e-05,0.09657021266957354,-0.002154419618145018,9.871990679108544
0.20800000000000002,0,4,1,3.8140748342903783,90.60091921794245,0.0,6.089301861405691,160,7,1,0,2,0,0.01,6.09930186140569,6.079301861405691,0.3375340068535323,0.4010575922074854,-1.604947339228606e-05,-0.14017029959311753,0.004460579076101131,9.841857246656085
0.216,0,4,1,2.862405226111779,93.46332444405422,-0.9516696081785994,6.136886149942399,160,7,1,-1,1,-1,-0.0495,6.0873861499423985,6.186386149942399,0.3365597234080524,0.40106069410499817,-1.6032794765538996e-05,-0.020109832902937653,-0.0014537950205712447,9.818015720351433
0.224,0,4,1,3.8140748342903783,97.2773992783446,0.9516696081785994,6.089301861405691,160,7,1,0,1,1,0.0095,6.098801861405691,6.079801861405691,0.33557782780661133,0.40106389663984715,-1.6026249469391907e-05,0.10166764265746829,-0.0012195717751749592,9.798294885975395
0.232,0,4,1,3.8140748342903783,101.09147411263498,0.0,6.089301861405691,160,7,1,0,1,0,0.005,6.0943018614056905,6.084301861405691,0.3346035425389457,0.40106676340554587,-1.6016845239264638e-05,-0.1360385209429197,0.00486381738834861,9.803222630901134
0.24,0,4,1,3.8140748342903783,104.90554894692536,0.0,6.089301861405691,160,7,1,0,1,0,0.005,6.0943018614056905,6.084301861405691,0.33362925863488696,0.40106969445885554,-1.6010042217379228e-05,-0.015136321896928585,-0.0010100255736287449,9.804757726522107
0.248,0,4,1,3.8140748342903783,108.71962378121574,0.0,6.089301861405691,160,7,1,0,1,0,0.005,6.0943018614056905,6.084301861405691,0.3326549748634177,0.40107266008201814,-1.6005252748864732e-05,-0.013775744868923296,-0.0005429010243306769,9.814831445403293
0.256,0,4,1,2.862405226111779,111.58202900732752,-0.9516696081785994,6.136886149942399,160,7,1,-1,0,-1,-0.0545,6.082386149942399,6.1913861499423986,0.3316806912113384,0.40107565914664417,-1.6001988204535425e-05,-0.012543434886912537,-0.0005255514010251869,9.86599836300603
0.264,0,4,1,3.8140748342903783,115.3961038416179,0.9516696081785994,6.089301861405691,160,7,1,0,0,1,0.0045,6.093801861405691,6.0848018614056905,0.3306987952544113,0.40107872231074193,-1.6003285143371265e-05,0.10921479271717156,-0.0006601680069967639,9.765257235881714
0.272,0,4,1,3.8140748342903783,119.21017867590828,0.0,6.089301861405691,160,7,1,0,0,0,0.0,6.089301861405691,6.089301861405691,0.3297245095549815,0.4010814260856206,-1.6001472555019283e-05,-0.12653443078803714,0.005269075029872414,9.85616249168196
0.28,0,4,1,3.8140748342903783,123.02425351019866,0.0,6.089301861405691,160,7,1,0,0,0,0.0,6.089301861405691,6.089301861405691,0.32875022511914737,0.40108416436992644,-1.6000178836622983e-05,-0.006863625588647902,-0.0005405121123628027,9.833414441967626
0.28800000000000003,0,4,1,3.8140748342903783,126.83832834448904,0.0,6.089301861405691,160,7,1,0,0,0,0.0,6.089301861405691,6.089301861405691,0.3277759407167172,0.40108690740733227,-1.5999198022816075e-05,-0.005377526547177374,-7.46499749251705e-05,9.846189968056962
0.296,0,4,1,2.862405226111779,129.70073357060082,-0.9516696081785994,6.136886149942399,160,7,1,-1,-1,-1,-0.0595,6.077386149942399,6.1963861499423984,0.3268016563366994,0.4010896543217537,-1.5998359438761448e-05,-0.0039049214237726745,-6.07625880620937e-05,9.841693074312056
0.304,0,4,1,3.8140748342903783,133.5148084048912,0.9516696081785994,6.089301861405691,160,7,1,0,-1,1,-0.0005000000000000004,6.088801861405691,6.08980186140569,0.3258197594895932,0.4010924278731249,-1.5998235882252673e-05,0.11831088257871192,-0.00010697129621190829,9.814328148556497
0.312,0,4,1,3.8140748342903783,137.32888323918158,0.0,6.089301861405691,160,7,1,0,-1,0,-0.005,6.084301861405691,6.0943018614056905,0.32484547323087143,0.4010948215666764,-1.599680665452692e-05,-0.11857452532469269,0.005600990151305422,9.802121994303862
0.32,0,4,1,3.8140748342903783,141.14295807347196,0.0,6.089301861405691,160,7,1,0,-1,0,-0.005,6.084301861405691,6.0943018614056905,0.32387118789144936,0.4010972201208963,-1.5995210381270983e-05,0.0020621681952269445,-7.457895404876224e-05,9.793648351320433
0.328,0,4,1,3.8140748342903783,144.95703290776234,0.0,6.089301861405691,160,7,1,0,-1,0,-0.005,6.084301861405691,6.0943018614056905,0.32289690251931114,0.4010995945480862,-1.5993393665418576e-05,0.0035736536257352,0.00038086701791280124,9.809417057723817
0.336,0,4,1,3.8140748342903783,148.77110774205272,0.0,6.089301861405691,160,7,1,0,-1,0,-0.005,6.084301861405691,6.0943018614056905,0.3219226171028462,0.4011019440756845,-1.5991320703139314e-05,0.005009813161189912,0.00038966413740774736,9.770091081519455
0.34400000000000003,0,4,1,3.8140748342903783,152.5851825763431,0.0,6.089301861405691,160,7,1,0,-1,0,-0.005,6.084301861405691,6.0943018614056905,0.3209483316340381,0.4011042680699,-1.5988972502609458e-05,0.006483365855674254,0.0003999588341078629,9.75651167230673
0.352,0,4,1,3.8140748342903783,156.39925741063348,0.0,6.089301861405691,160,7,1,0,-1,0,-0.005,6.084301861405691,6.0943018614056905,0.3199740461074134,0.4011065660071161,-1.5986344440213282e-05,0.007900785252473758,0.0004104917872831386,9.811663631235719
0.36,0,4,1,3.8140748342903783,160.21333224492386,0.0,6.089301861405691,160,7,1,0,-1,0,-0.005,6.084301861405691,6.0943018614056905,0.3189997605193943,0.40110883745664866,-1.5983444175438413e-05,0.009296649777584078,0.0004175821892931539,9.842626712383828
0.368,0,4,1,3.8140748342903783,164.02740707921424,0.0,6.089301861405691,160,7,1,0,-1,0,-0.005,6.084301861405691,6.0943018614056905,0.3180254748677998,0.40111108206578566,-1.59802898423312e-05,0.010671899310736428,0.0004202468796040824,9.808558205539809
0.376,0,4,1,3.8140748342903783,167.84148191350462,0.0,6.089301861405691,160,7,1,0,-1,0,-0.005,6.084301861405691,6.0943018614056905,0.31705118915146524,0.4011132995469114,-1.597690844499372e-05,0.011958926968769955,0.00042504405721385384,9.810205260425539
0.384,0,4,1,3.8140748342903783,171.655556747795,0.0,6.089301861405691,160,7,1,0,-1,0,-0.005,6.084301861405691,6.0943018614056905,0.31607690336995564,0.4011154896665098,-1.5973334403635714e-05,0.013298583915224435,0.0004307121110619113,9.808348850104997
0.392,0,4,1,3.8140748342903783,175.46963158208538,0.0,6.089301861405691,160,7,1,0,-1,0,-0.005,6.084301861405691,6.0943018614056905,0.3151026175233495,0.40111765223583523,-1.5969608211858707e-05,0.01450886608587216,0.00043402731019628275,9.816659746552578
0.4,0,4,1,3.8140748342903783,179.28370641637576,0.0,6.089301861405691,160,7,1,0,-1,0,-0.005,6.084301861405691,6.0943018614056905,0.31412833161207854,0.4011197871030452,-1.5965775177855662e-05,0.015702457853208104,0.00043297990652298033,9.79961393325093
0.40800000000000003,0,4,1,3.8140748342903783,183.09778125066615,0.0,6.089301861405691,160,7,1,0,-1,0,-0.005,6.084301861405691,6.0943018614056905,0.31315404563680965,0.40112189414660293,-1.596188423069224e-05,0.016777713535443016,0.0004365577897859901,9.778548881644328
0.41600000000000004,0,4,1,3.8140748342903783,186.91185608495653,0.0,6.089301861405691,160,7,1,0,-1,0,-0.005,6.084301861405691,6.0943018614056905,0.3121797595983595,0.4011239732697704,-1.5957986780498062e-05,0.01783957052138185,0.00043845620092569664,9.82835865073303
0.424,0,4,1,3.8140748342903783,190.7259309192469,0.0,6.089301861405691,160,7,1,0,-1,0,-0.005,6.084301861405691,6.0943018614056905,0.31120547349763333,0.4011260243960343,-1.5954135626702892e-05,0.01881112964884479,0.00044126989052148077,9.807027944720641
0.432,0,4,1,3.8140748342903783,194.5400057535373,0.0,6.089301861405691,160,7,1,0,-1,0,-0.005,6.084301861405691,6.0943018614056905,0.31023118733558297,0.4011280474653211,-1.5950383912199592e-05,0.01981102239048801,0.0004413536869740811,9.857406466614382
0.44,0,4,1,3.8140748342903783,198.35408058782767,0.0,6.089301861405691,160,7,1,0,-1,0,-0.005,6.084301861405691,6.0943018614056905,0.3092569011131777,0.40113004243087863,-1.5946784125692517e-05,0.0205153656891493,0.0004397008280517219,9.834456618478942
0.448,0,4,1,3.8140748342903783,202.16815542211805,0.0,6.089301861405691,160,7,1,0,-1,0,-0.005,6.084301861405691,6.0943018614056905,0.30828261483138636,0.40113200925671477,-1.594338715527055e-05,0.021183744040723027,0.0004410786467842264,9.79179094648821
0.456,0,4,1,3.8140748342903783,205.98223025640843,0.0,6.089301861405691,160,7,1,0,-1,0,-0.005,6.084301861405691,6.0943018614056905,0.3073083284911663,0.4011339479155022,-1.594024139902131e-05,0.022056380528722844,0.00044113199351062814,9.81723501133184
0.464,0,4,1,3.8140748342903783,209.7963050906988,0.0,6.089301861405691,160,7,1,0,-1,0,-0.005,6.084301861405691,6.0943018614056905,0.30633404209345755,0.40113585838686894,-1.5937391938983594e-05,0.022653778001522882,0.0004426473888712161,9.803625146533216
0.47200000000000003,0,4,1,3.8140748342903783,213.6103799249892,0.0,6.089301861405691,160,7,1,0,-1,0,-0.005,6.084301861405691,6.0943018614056905,0.30535975563918166,0.40113774065600727,-1.593487978540989e-05,0.023146996453372065,0.00044367384458184544,9.777811108823514
0.48,0,4,1,3.8140748342903783,217.42445475927957,0.0,6.089301861405691,160,7,1,0,-1,0,-0.005,6.084301861405691,6.0943018614056905,0.30438546912924164,0.40113959471254634,-1.5932741198257036e-05,0.023684721251615706,0.00044123935948471577,9.8150774746231
0.488,0,4,1,3.8140748342903783,221.23852959356995,0.0,6.089301861405691,160,7,1,0,-1,0,-0.005,6.084301861405691,6.0943018614056905,0.3034111825645247,0.40114142054963886,-1.5931007092753746e-05,0.023925161876967915,0.00044437508649422243,9.806985668704435
0.496,0,4,1,3.8140748342903783,225.05260442786033,0.0,6.089301861405691,160,7,1,0,-1,0,-0.005,6.084301861405691,6.0943018614056905,0.30243689594590484,0.40114321816322446,-1.592970253515985e-05,0.024301532215175826,0.00044449913829157985,9.818189422444469
0.504,0,4,1,3.8140748342903783,228.8666792621507,0.0,6.089301861405691,160,7,1,0,-1,0,-0.005,6.084301861405691,6.0943018614056905,0.3014626092742466,0.4011449875514351,-1.5928846334159127e-05,0.02448725993072975,0.00044390753928790546,9.813557130908976
0.512,0,4,1,3.8140748342903783,232.6807540964411,0.0,6.089301861405691,160,7,1,0,-1,0,-0.005,6.084301861405691,6.0943018614056905,0.3004883225504084,0.4011467287141174,-1.5928450732267604e-05,0.024373791998890452,0.0004416052576430917,9.743682605349575
0.52,0,4,1,3.8140748342903783,236.49482893073147,0.0,6.089301861405691,160,7,1,0,-1,0,-0.005,6.084301861405691,6.0943018614056905,0.2995140357752457,0.40114844165244806,-1.5928521200629653e-05,0.024298314446230797,0.00044497728096141645,9.803506245627796
0.528,0,4,1,3.8140748342903783,240.30890376502185,0.0,6.089301861405691,160,7,1,0,-1,0,-0.005,6.084301861405691,6.0943018614056905,0.2985397489496135,0.4011501263686251,-1.592905633904934e-05,0.024458237399937,0.00044278674170062857,9.786277743076576
0.536,0,4,1,3.8140748342903783,244.12297859931223,0.0,6.089301861405691,160,7,1,0,-1,0,-0.005,6.084301861405691,6.0943018614056905,0.29756546207436857,0.4011517828656202,-1.5930047882056764e-05,0.02422479702888911,0.00044300226802117514,9.760004461715956
0.544,0,4,1,3.8140748342903783,247.9370534336026,0.0,6.089301861405691,160,7,1,0,-1,0,-0.005,6.084301861405691,6.0943018614056905,0.296591175150371,0.4011534111469785,-1.593148081016453e-05,0.02383054522109378,0.0004441934052381011,9.78975537573812
0.552,0,4,1,3.8140748342903783,251.751128267893,0.0,6.089301861405691,160,7,1,0,-1,0,-0.005,6.084301861405691,6.0943018614056905,0.29561688817848497,0.40115501121665864,-1.5933333564028054e-05,0.02341262523373671,0.00044401726543774893,9.81076845861735
0.56,0,4,1,3.8140748342903783,255.56520310218337,0.0,6.089301861405691,160,7,1,0,-1,0,-0.005,6.084301861405691,6.0943018614056905,0.29464260115957897,0.40115658307890323,-1.593557835804539e-05,0.02307571452714592,0.0004444123702271675,9.80804686477638
0.5680000000000001,0,4,1,3.8140748342903783,259.3792779364737,0.0,6.089301861405691,160,7,1,0,-1,0,-0.005,6.084301861405691,6.0943018614056905,0.29366831409452565,0.40115812673813356,-1.593818158827226e-05,0.022483001046524724,0.00044237491640108576,9.792003655701324
0.5760000000000001,0,4,1,3.8140748342903783,263.1933527707641,0.0,6.089301861405691,160,7,1,0,-1,0,-0.005,6.084301861405691,6.0943018614056905,0.2926940269842005,0.40115964219886474,-1.594110432833959e-05,0.021842060423816707,0.0004416520753002841,9.783177127892781
0.584,0,4,1,3.8140748342903783,267.00742760505443,0.0,6.089301861405691,160,7,1,0,-1,0,-0.005,6.084301861405691,6.0943018614056905,0.2917197398294814,0.4011611294656356,-1.5944302905697427e-05,0.021072350314934023,0.0004436010837431325,9.782198213607774
0.592,0,4,1,3.8140748342903783,270.8215024393448,0.0,6.089301861405691,160,7,1,0,-1,0,-0.005,6.084301861405691,6.0943018614056905,0.29074545263124624,0.4011625885429516,-1.5947729549402323e-05,0.020303054948804893,0.00044234914500637467,9.781458149732979
0.6,0,4,1,3.8140748342903783,274.63557727363514,0.0,6.089301861405691,160,7,1,0,-1,0,-0.005,6.084301861405691,6.0943018614056905,0.2897711653903718,0.4011640194352371,-1.5951333099745862e-05,0.019451095022555327,0.0004400407998995545,9.818962589952806
0.608,0,4,1,3.8140748342903783,278.4496521079255,0.0,6.089301861405691,160,7,1,0,-1,0,-0.005,6.084301861405691,6.0943018614056905,0.2887968781077313,0.4011654221467956,-1.5955059768778257e-05,0.01841100055914166,0.0004414611742732312,9.788834762559214
0.616,0,4,1,3.8140748342903783,282.26372694221584,0.0,6.089301861405691,160,7,1,0,-1,0,-0.005,6.084301861405691,6.0943018614056905,0.28782259078419303,0.40116679668177646,-1.5958853940784348e-05,0.017464568279404513,0.0004432665057689659,9.856273064041375
0.624,0,4,1,3.8140748342903783,286.0778017765062,0.0,6.089301861405691,160,7,1,0,-1,0,-0.005,6.084301861405691,6.0943018614056905,0.2868483034206182,0.40116814304414605,-1.596265900001559e-05,0.016553353142256838,0.00044242725115583084,9.82748118483084
0.632,0,4,1,3.8140748342903783,289.89187661079654,0.0,6.089301861405691,160,7,1,0,-1,0,-0.005,6.084301861405691,6.0943018614056905,0.2858740160178593,0.4011694612376638,-1.596641817387147e-05,0.01527010934648921,0.00044475031327467004,9.801999884689119
0.64,0,4,1,3.8140748342903783,293.7059514450869,0.0,6.089301861405691,160,7,1,0,-1,0,-0.005,6.084301861405691,6.0943018614056905,0.28489972857675877,0.4011707512658607,-1.5970075378478332e-05,0.014163956999476042,0.00044424130637524733,9.851489837900631
0.648,0,4,1,3.8140748342903783,297.52002627937725,0.0,6.089301861405691,160,7,1,0,-1,0,-0.005,6.084301861405691,6.0943018614056905,0.28392544109814805,0.40117201313202167,-1.597357605423455e-05,0.012848735026102506,0.0004427111242036147,9.818189463289306
0.656,0,4,1,3.8140748342903783,301.3341011136676,0.0,6.089301861405691,160,7,1,0,-1,0,-0.005,6.084301861405691,6.0943018614056905,0.28295115358284667,0.40117324683916933,-1.5976867978941336e-05,0.01154354306191284,0.0004412015829613422,9.798005892676334
0.664,0,4,1,3.8140748342903783,305.14817594795795,0.0,6.089301861405691,160,7,1,0,-1,0,-0.005,6.084301861405691,6.0943018614056905,0.2819768660316624,0.40117445239005045,-1.597990204593898e-05,0.010185015176532945,0.00044232223811792385,9.819620166260123
0.672,0,4,1,3.8140748342903783,308.9622507822483,0.0,6.089301861405691,160,7,1,0,-1,0,-0.005,6.084301861405691,6.0943018614056905,0.28100257844539095,0.40117562978712396,-1.5982632996106375e-05,0.008778452394954927,0.0004411990089908988,9.83337867501561
0.68,0,4,1,3.8140748342903783,312.77632561653866,0.0,6.089301861405691,160,7,1,0,-1,0,-0.005,6.084301861405691,6.0943018614056905,0.280028290824817,0.40117677903255083,-1.5985020092460292e-05,0.007403788909832903,0.0004393432448144091,9.79407796864253
0.6880000000000001,0,4,1,3.8140748342903783,316.590400450829,0.0,6.089301861405691,160,7,1,0,-1,0,-0.005,6.084301861405691,6.0943018614056905,0.27905400317071516,0.40117790012818527,-1.5987027727386652e-05,0.005981689310718359,0.0004395781663154057,9.788766980422777
0.6960000000000001,0,4,1,3.8140748342903783,320.40447528511936,0.0,6.089301861405691,160,7,1,0,-1,0,-0.005,6.084301861405691,6.0943018614056905,0.2780797154838515,0.40117899307556754,-1.5988625953419072e-05,0.00450502872835089,0.0004422153885150392,9.839737012758556
0.704,0,4,1,3.8140748342903783,324.2185501194097,0.0,6.089301861405691,160,7,1,0,-1,0,-0.005,6.084301861405691,6.0943018614056905,0.2771054277649853,0.401180057875918,-1.5989790929695977e-05,0.0030313639659404934,0.0004436374521382805,9.76988373410339
0.712,0,4,1,3.8140748342903783,328.03262495370006,0.0,6.089301861405691,160,7,1,0,-1,0,-0.005,6.084301861405691,6.0943018614056905,0.27613114001487143,0.4011810945301328,-1.599050527737768e-05,0.0015356535123959068,0.00044110158353846717,9.804150380157994
0.72,0,4,1,3.8140748342903783,331.8466997879904,0.0,6.089301861405691,160,7,1,0,-1,0,-0.005,6.084301861405691,6.0943018614056905,0.2751568522342625,0.40118210303878027,-1.599075833871172e-05,4.1539750802963356e-05,0.0004416205490359428,9.791729760558459
0.728,0,4,1,3.8140748342903783,335.66077462228077,0.0,6.089301861405691,160,7,1,0,-1,0,-0.005,6.084301861405691,6.0943018614056905,0.27418256442391153,0.4011830834020995,-1.5990546335876293e-05,-0.0014520937869073563,0.00044349042045501824,9.805671156674551
0.736,0,4,1,3.8140748342903783,339.4748494565711,0.0,6.089301861405691,160,7,1,0,-1,0,-0.005,6.084301861405691,6.0943018614056905,0.2732082765845749,0.40118403561999916,-1.5989872427216514e-05,-0.002945984097472948,0.00044251326570884155,9.827822391159234
0.744,0,4,1,3.8140748342903783,343.2889242908615,0.0,6.089301861405691,160,7,1,0,-1,0,-0.005,6.084301861405691,6.0943018614056905,0.2722339887170145,0.40118495969205836,-1.5988746660080752e-05,-0.004436156199522628,0.00044068187210545155,9.837039941614696
0.752,0,4,1,3.8140748342903783,347.1029991251518,0.0,6.089301861405691,160,7,1,0,-1,0,-0.005,6.084301861405691,6.0943018614056905,0.27125970082200046,0.40118585561752834,-1.59871858210342e-05,-0.005881840726767981,0.00044071480230106313,9.813189883815674
0.76,0,4,1,3.8140748342903783,350.9170739594422,0.0,6.089301861405691,160,7,1,0,-1,0,-0.005,6.084301861405691,6.0943018614056905,0.2702854129003137,0.4011867233953355,-1.5985213185324906e-05,-0.007304753476317775,0.0004434839670168413,9.791446541925778
0.768,0,4,1,3.8140748342903783,354.73114879373253,0.0,6.089301861405691,160,7,1,0,-1,0,-0.005,6.084301861405691,6.0943018614056905,0.26931112495274767,0.4011875630240858,-1.5982858169897446e-05,-0.008649988580910017,0.00044387841822293483,9.860137282871545
0.776,0,4,1,3.8140748342903783,358.5452236280229,0.0,6.089301861405691,160,7,1,0,-1,0,-0.005,6.084301861405691,6.0943018614056905,0.2683368369801105,0.4011883745020699,-1.598015589447145e-05,-0.010120880696866591,0.0004424158331787413,9.744952152471834
0.784,0,4,1,3.8140748342903783,362.35929846231323,0.0,6.089301861405691,160,7,1,0,-1,0,-0.005,6.084301861405691,6.0943018614056905,0.2673625489832259,0.4011891578272699,-1.5977146657910127e-05,-0.011480161588346305,0.0004423582457080251,9.763002554439735
0.792,0,4,1,3.8140748342903783,366.1733732966036,0.0,6.089301861405691,160,7,1,0,-1,0,-0.005,6.084301861405691,6.0943018614056905,0.2663882609629344,0.401189912997367,-1.597387533720275e-05,-0.012798766868337693,0.0004404746236072966,9.789198811370182
0.8,0,4,1,3.8140748342903783,369.98744813089394,0.0,6.089301861405691,160,7,1,0,-1,0,-0.005,6.084301861405691,6.0943018614056905,0.26541397292009367,0.40119064000975047,-1.5970390718024474e-05,-0.013959201800649265,0.00044469368413993857,9.804513975371426
0.808,0,4,1,3.8140748342903783,373.8015229651843,0.0,6.089301861405691,160,7,1,0,-1,0,-0.005,6.084301861405691,6.0943018614056905,0.26443968485557856,0.4011913388615273,-1.5966744767319935e-05,-0.015254991171314956,0.0004405057952251558,9.83271809860069
0.8160000000000001,0,4,1,3.8140748342903783,377.61559779947464,0.0,6.089301861405691,160,7,1,0,-1,0,-0.005,6.084301861405691,6.0943018614056905,0.26346539677028025,0.4011920095495335,-1.5962991858266967e-05,-0.01635351469338615,0.0004432149935942998,9.783422091692874
0.8240000000000001,0,4,1,3.8140748342903783,381.429672633765,0.0,6.089301861405691,160,7,1,0,-1,0,-0.005,6.084301861405691,6.0943018614056905,0.26249110866510555,0.40119265207034555,-1.5959187959282972e-05,-0.017334512648509114,0.00044158115736617047,9.815522114276915
0.8320000000000001,0,4,1,3.8140748342903783,385.24374746805535,0.0,6.089301861405691,160,7,1,0,-1,0,-0.005,6.084301861405691,6.0943018614056905,0.2615168205409751,0.4011932664202938,-1.5955389799421696e-05,-0.018572918874282016,0.0004430212466435859,9.814669729213966
0.84,0,4,1,3.8140748342903783,389.0578223023457,0.0,6.089301861405691,160,7,1,0,-1,0,-0.005,6.084301861405691,6.0943018614056905,0.2605425323988217,0.40119385259547613,-1.595165402226706e-05,-0.01937772631636024,0.00044324514822928815,9.787690591746165
0.848,0,4,1,3.8140748342903783,392.87189713663605,0.0,6.089301861405691,160,7,1,0,-1,0,-0.005,6.084301861405691,6.0943018614056905,0.2595682442395878,0.4011944105917725,-1.594803634120609e-05,-0.020170170250028225,0.00044346053871156696,9.772452942292757
0.856,0,4,1,3.8140748342903783,396.6859719709264,0.0,6.089301861405691,160,7,1,0,-1,0,-0.005,6.084301861405691,6.0943018614056905,0.25859395606422336,0.40119494040486064,-1.5944590708531076e-05,-0.02121169942316981,0.0004428397278641162,9.751223903271667
0.864,0,4,1,3.8140748342903783,400.50004680521675,0.0,6.089301861405691,160,7,1,0,-1,0,-0.005,6.084301861405691,6.0943018614056905,0.25761966787368257,0.40119544203023205,-1.5941368510847057e-05,-0.02176822122922827,0.0004395982792463086,9.827905801145107
0.872,0,4,1,3.8140748342903783,404.3141216395071,0.0,6.089301861405691,160,7,1,0,-1,0,-0.005,6.084301861405691,6.0943018614056905,0.2566453796689214,0.4011959154632091,-1.5938417802627627e-05,-0.02230681663600547,0.0004463162794999404,9.834644503010109
0.88,0,4,1,3.8140748342903783,408.12819647379746,0.0,6.089301861405691,160,7,1,0,-1,0,-0.005,6.084301861405691,6.0943018614056905,0.25567109145089467,0.40119636069896264,-1.5935782589640568e-05,-0.022840794211997594,0.00044183953112372976,9.795209518591474
0.888,0,4,1,3.8140748342903783,411.9422713080878,0.0,6.089301861405691,160,7,1,0,-1,0,-0.005,6.084301861405691,6.0943018614056905,0.25469680322055316,0.4011967777325299,-1.593350217265685e-05,-0.023490667230787913,0.00044511184470532006,9.800853012767057
0.896,0,4,1,3.8140748342903783,415.75634614237816,0.0,6.089301861405691,160,7,1,0,-1,0,-0.005,6.084301861405691,6.0943018614056905,0.25372251497884085,0.40119716655883325,-1.5931610561237264e-05,-0.02376152864389119,0.0004440956345083666,9.803897843980671
0.904,0,4,1,3.8140748342903783,419.5704209766685,0.0,6.089301861405691,160,7,1,0,-1,0,-0.005,6.084301861405691,6.0943018614056905,0.2527482267266929,0.40119752717269913,-1.5930135966530506e-05,-0.024182065106338888,0.0004436941562872789,9.834499866230528
0.912,0,4,1,3.8140748342903783,423.38449581095887,0.0,6.089301861405691,160,7,1,0,-1,0,-0.005,6.084301861405691,6.0943018614056905,0.25177393846503304,0.4011978595688776,-1.5929100380663447e-05,-0.02432095402375343,0.0004431561341949939,9.832734097555347
0.92,0,4,1,3.8140748342903783,427.1985706452492,0.0,6.089301861405691,160,7,1,0,-1,0,-0.005,6.084301861405691,6.0943018614056905,0.25079965019477224,0.4011981637420617,-1.592851924858349e-05,-0.02442731797002646,0.0004437560613681381,9.791720445263241
0.928,0,4,1,3.8140748342903783,431.0126454795396,0.0,6.089301861405691,160,7,1,0,-1,0,-0.005,6.084301861405691,6.0943018614056905,0.24982536191680715,0.4011984396869077,-1.592840123777403e-05,-0.02443994796260886,0.00044311028052170296,9.816708021620691
0.936,0,4,1,3.8140748342903783,434.8267203138299,0.0,6.089301861405691,160,7,1,0,-1,0,-0.005,6.084301861405691,6.0943018614056905,0.2488510736320195,0.40119868739805487,-1.5928748108962054e-05,-0.024268974213896066,0.00044446170693375936,9.837513251601953
0.9440000000000001,0,4,1,3.8140748342903783,438.6407951481203,0.0,6.089301861405691,160,7,1,0,-1,0,-0.005,6.084301861405691,6.0943018614056905,0.2478767853412755,0.4011989068701455,-1.5929554689864817e-05,-0.024301895878820323,0.0004438942967123887,9.823137041710782
0.9520000000000001,0,4,1,3.8140748342903783,442.4548699824106,0.0,6.089301861405691,160,7,1,0,-1,0,-0.005,6.084301861405691,6.0943018614056905,0.2469024970454262,0.4011990980978451,-1.5930808952209843e-05,-0.023786346622834697,0.0004419159876457419,9.793301175361801
0.96,0,4,1,3.8140748342903783,446.268944816701,0.0,6.089301861405691,160,7,1,0,-1,0,-0.005,6.084301861405691,6.0943018614056905,0.24592820874530794,0.40119926107586223,-1.5932492191230233e-05,-0.023391112667189552,0.00044480391923335357,9.808730997793527
0.968,0,4,1,2.862405226111779,449.13135004281276,-0.9516696081785994,6.136886149942399,160,7,1,0,-1,0,-0.005,6.131886149942399,6.1418861499423985,0.2449539204417435,0.4011993957989684,-1.5934579304448596e-05,-0.023232181972734505,0.0004434975285246652,9.815415528740983
0.976,0,4,1,3.8140748342903783,452.9454248771031,0.9516696081785994,6.089301861405691,160,7,1,0,-1,0,-0.005,6.084301861405691,6.0943018614056905,0.2439720196810271,0.40119950315396985,-1.594400874330333e-05,0.09777240891919152,0.0004412991324020409,9.805811067912456
0.984,0,4,1,2.862405226111779,455.8078301032149,-0.9516696081785994,6.136886149942399,160,7,1,0,-1,0,-0.005,6.131886149942399,6.1418861499423985,0.24299773025114274,0.40119958123872135,-1.5946583889306018e-05,-0.14007808654684498,0.00045121398973634866,9.791464864589901
0.992,0,4,1,2.862405226111779,458.67023532932666,0.0,6.136886149942399,160,7,1,0,-1,0,-0.005,6.131886149942399,6.1418861499423985,0.24201582950638684,0.4011996315093082,-1.595551035631082e-05,0.10060662018142376,0.0004413518220731265,9.765775898728709
1.0,0,4,1,2.862405226111779,461.53264055543843,0.0,6.136886149942399,160,7,1,0,-1,0,-0.005,6.131886149942399,6.1418861499423985,0.24103392763419917,0.40119965317591827,-1.5963678595385528e-05,-0.01616530031123642,0.0004487861808378283,9.77881056361092
1.008,0,4,1,2.862405226111779,464.3950457815502,0.0,6.136886149942399,160,7,1,0,-1,0,-0.005,6.131886149942399,6.1418861499423985,0.2400520257787605,0.40119964623865656,-1.597095827142632e-05,-0.013812846967378408,0.00044708687293095145,9.815643377599931
1.016,0,4,1,2.862405226111779,467.257451007662,0.0,6.136886149942399,160,7,1,0,-1,0,-0.005,6.131886149942399,6.1418861499423985,0.2390701239377767,0.401199610697479,-1.5977243311860595e-05,-0.011506502724789938,0.0004500706619965277,9.809954939607886
1.024,0,4,1,2.862405226111779,470.11985623377376,0.0,6.136886149942399,160,7,1,0,-1,0,-0.005,6.131886149942399,6.1418861499423985,0.23808822210951724,0.40119954655223783,-1.598244203224186e-05,-0.009052044879678185,0.00045046883535527945,9.807837277385463
1.032,0,4,1,2.862405226111779,472.98226145988554,0.0,6.136886149942399,160,7,1,0,-1,0,-0.005,6.131886149942399,6.1418861499423985,0.23710632029284606,0.4011994538028017,-1.598647853721588e-05,-0.006634203475224873,0.0004460406104104748,9.787647133694243
1.04,0,4,1,2.862405226111779,475.8446666859973,0.0,6.136886149942399,160,7,1,0,-1,0,-0.005,6.131886149942399,6.1418861499423985,0.23612441848710286,0.4011993324491563,-1.5989293934691798e-05,-0.004193187609778618,0.00044984745318567943,9.824509670977514
1.048,0,4,1,2.862405226111779,478.7070719121091,0.0,6.136886149942399,160,7,1,0,-1,0,-0.005,6.131886149942399,6.1418861499423985,0.2351425166920052,0.4011991824914874,-1.599084727979018e-05,-0.001709383988885422,0.0004501937925699257,9.813773789485618
1.056,0,4,1,2.862405226111779,481.56947713822086,0.0,6.136886149942399,160,7,1,0,-1,0,-0.005,6.131886149942399,6.1418861499423985,0.23416061490756687,0.40119900393024865,-1.5991116238281075e-05,0.0007851595049644533,0.00045255509677371626,9.793500337280419
1.064,0,4,1,2.862405226111779,484.43188236433264,0.0,6.136886149942399,160,7,1,0,-1,0,-0.005,6.131886149942399,6.1418861499423985,0.23317871313402966,0.4011987967662163,-1.5990097461952152e-05,0.003258568977257549,0.00044762590862974273,9.81671028004835
1.072,0,4,1,2.862405226111779,487.2942875904444,0.0,6.136886149942399,160,7,1,0,-1,0,-0.005,6.131886149942399,6.1418861499423985,0.23219681137180634,0.40119856100053247,-1.5987806672137367e-05,0.005728840125460354,0.0004506071835466318,9.83927965481729
1.08,0,4,1,2.862405226111779,490.1566928165562,0.0,6.136886149942399,160,7,1,0,-1,0,-0.005,6.131886149942399,6.1418861499423985,0.23121490962143249,0.40119829663473877,-1.5984278452339448e-05,0.008165565471300687,0.0004493240442221838,9.856393017414538
1.088,0,4,1,2.862405226111779,493.01909804266796,0.0,6.136886149942399,160,7,1,0,-1,0,-0.005,6.131886149942399,6.1418861499423985,0.2302330078835263,0.40119800367080116,-1.597956575402973e-05,0.010618483851983088,0.0004512885221324661,9.791126979021014
1.096,0,4,1,2.862405226111779,495.88150326877974,0.0,6.136886149942399,160,7,1,0,-1,0,-0.005,6.131886149942399,6.1418861499423985,0.2292511061587549,0.4011976821111274,-1.5973739124352723e-05,0.01290712879400392,0.00044995169431406385,9.809010761776419
1.104,0,4,1,2.862405226111779,498.7439084948915,0.0,6.136886149942399,160,7,1,0,-1,0,-0.005,6.131886149942399,6.1418861499423985,0.22826920444780685,0.4011973319585783,-1.5966885667609634e-05,0.015355279296031834,0.00044942907354628776,9.849815432430526
1.112,0,4,1,2.862405226111779,501.6063137210033,0.0,6.136886149942399,160,7,1,0,-1,0,-0.005,6.131886149942399,6.1418861499423985,0.22728730275136952,0.4011969532164734,-1.5959107757665056e-05,0.01764378474167135,0.00044700850914550244,9.83697732880923
1.12,0,4,1,2.862405226111779,504.46871894711506,0.0,6.136886149942399,160,7,1,0,-1,0,-0.005,6.131886149942399,6.1418861499423985,0.22630540107011166,0.4011965458885911,-1.595052151984709e-05,0.019823961837976127,0.00044640179266538187,9.712551463777107
1.1280000000000001,0,4,1,2.862405226111779,507.33112417322684,0.0,6.136886149942399,160,7,1,0,-1,0,-0.005,6.131886149942399,6.1418861499423985,0.2253234994046702,0.4011961099791653,-1.594125510615517e-05,0.021916920308047927,0.00044998050403053313,9.882046278545783
1.1360000000000001,0,4,1,2.862405226111779,510.1935293993386,0.0,6.136886149942399,160,7,1,0,-1,0,-0.005,6.131886149942399,6.1418861499423985,0.22434159775564136,0.4011956454928779,-1.5931446790002843e-05,0.023969672712719867,0.0004492861067016166,9.816677669485296
1.1440000000000001,0,4,1,2.862405226111779,513.0559346254504,0.0,6.136886149942399,160,7,1,0,-1,0,-0.005,6.131886149942399,6.1418861499423985,0.22335969612357523,0.40119515243484755,-1.5921242908582475e-05,0.025949699410100318,0.0004469306085997258,9.798467053291699
1.1520000000000001,0,4,1,2.862405226111779,515.9183398515622,0.0,6.136886149942399,160,7,1,0,-1,0,-0.005,6.131886149942399,6.1418861499423985,0.222377794508974,0.4011946308106161,-1.591079568398837e-05,0.027821642261595832,0.000447197219611963,9.84865167896497
1.16,0,4,1,2.862405226111779,518.780745077674,0.0,6.136886149942399,160,7,1,0,-1,0,-0.005,6.131886149942399,6.1418861499423985,0.2213958929122934,0.40119408062613193,-1.5900260956271464e-05,0.029389932025935366,0.00044628876552641443,9.784199330059996
1.168,0,4,1,2.862405226111779,521.6431503037859,0.0,6.136886149942399,160,7,1,0,-1,0,-0.005,6.131886149942399,6.1418861499423985,0.22041399133394654,0.4011935018877306,-1.588979586156919e-05,0.031178618744221197,0.00044910112046698874,9.774473412868206
1.176,0,4,1,2.862405226111779,524.5055555298977,0.0,6.136886149942399,160,7,1,0,-1,0,-0.005,6.131886149942399,6.1418861499423985,0.2194320897743107,0.4011928946021141,-1.58795564906538e-05,0.03276524998548331,0.0004479768901423941,9.85701231101699
1.184,0,4,1,2.862405226111779,527.3679607560096,0.0,6.136886149942399,160,7,1,0,-1,0,-0.005,6.131886149942399,6.1418861499423985,0.21845018823373547,0.40119225877632764,-1.586969556268379e-05,0.03404682361081856,0.00044903486678044436,9.8358001882141
1.192,0,4,1,2.862405226111779,530.2303659821214,0.0,6.136886149942399,160,7,1,0,-1,0,-0.005,6.131886149942399,6.1418861499423985,0.21746828779432972,0.4011915939626789,-1.584670246821719e-05,0.0340446722383727,0.00045432159162978855,9.847022719952909
1.2,0,4,1,2.862405226111779,533.0927712082332,0.0,6.136886149942399,160,7,1,0,-1,0,-0.005,6.131886149942399,6.1418861499423985,0.21648638616358595,0.4011909012927099,-1.5853654035904996e-05,0.03351361468349978,0.00043782348360918026,9.841398438216569
1.208,0,4,1,2.862405226111779,535.955176434345,0.0,6.136886149942399,160,7,1,0,-1,0,-0.005,6.131886149942399,6.1418861499423985,0.2155044845723093,0.40119018017923597,-1.5860674322817556e-05,0.033077173705104136,0.00045174412900225,9.801659065034018
1.216,0,4,1,2.862405226111779,538.8175816604569,0.0,6.136886149942399,160,7,1,0,-1,0,-0.005,6.131886149942399,6.1418861499423985,0.2145225830173722,0.40118943063231366,-1.5867720522883683e-05,0.03257250784305825,0.0004465246983181477,9.795481594310255
1.224,0,4,1,2.862405226111779,541.6799868865687,0.0,6.136886149942399,160,7,1,0,-1,0,-0.005,6.131886149942399,6.1418861499423985,0.2135406814963208,0.40118865266144427,-1.5874888153738845e-05,0.0316991541191869,0.00044540117012467666,9.807574922886232
1.232,0,4,1,2.862405226111779,544.5423921126805,0.0,6.136886149942399,160,7,1,0,-1,0,-0.005,6.131886149942399,6.1418861499423985,0.212558780007402,0.40118784627550674,-1.5882231708898645e-05,0.031150676863380595,0.0004459204874603188,9.80214690208446
1.24,0,4,1,2.862405226111779,547.4047973387924,0.0,6.136886149942399,160,7,1,0,-1,0,-0.005,6.131886149942399,6.1418861499423985,0.21157687854942284,0.40118701148283115,-1.5889770747248844e-05,0.03010876598554284,0.0004457449837246745,9.883634942887875
1.248,0,4,1,2.862405226111779,550.2672025649042,0.0,6.136886149942399,160,7,1,0,-1,0,-0.005,6.131886149942399,6.1418861499423985,0.2105949771216364,0.4011861482912521,-1.5897496065826397e-05,0.02920255275253708,0.00044387946787891145,9.826407353523003
1.256,0,4,1,3.8140748342903783,554.0812773991946,0.9516696081785994,6.089301861405691,160,7,1,1,0,1,0.0545,6.143801861405691,6.034801861405691,0.2096130757236485,0.40118525670814675,-1.5905375012698064e-05,0.028060423619210687,0.0004478976897577812,9.840139402745654
1.264,0,4,1,2.862405226111779,556.9436826253065,-0.9516696081785994,6.136886149942399,160,7,1,0,0,-1,-0.0045,6.132386149942398,6.141386149942399,0.20863878685590964,0.40118436219134546,-1.5921627932428614e-05,-0.09417342822092224,0.00013047880764144697,9.790031292831227
1.272,0,4,1,2.862405226111779,559.8060878514183,0.0,6.136886149942399,160,7,1,0,0,0,0.0,6.136886149942399,6.136886149942399,0.20765688627019366,0.40118377603547345,-1.5929177178224813e-05,0.1428891733169268,-0.004896138321300639,9.787045882295102
1.28,0,4,1,2.862405226111779,562.6684930775301,0.0,6.136886149942399,160,7,1,0,0,0,0.0,6.136886149942399,6.136886149942399,0.20667498458874578,0.40118315977966895,-1.593662558483505e-05,0.02237816412353174,0.00047145463385208687,9.847068316792237
1.288,0,4,1,2.862405226111779,565.530898303642,0.0,6.136886149942399,160,7,1,0,0,0,0.0,6.136886149942399,6.136886149942399,0.20569308294062874,0.4011825410698121,-1.5943908022016118e-05,0.020758583101383593,3.9371829244566636e-05,9.805935827020138
1.296,0,4,1,2.862405226111779,568.3933035297538,0.0,6.136886149942399,160,7,1,0,0,0,0.0,6.136886149942399,6.136886149942399,0.20471118131657,0.40118192033425853,-1.5950940609837233e-05,0.019217960327675598,3.2498025713646456e-05,9.815201436466356
1.304,0,4,1,2.862405226111779,571.2557087558656,0.0,6.136886149942399,160,7,1,0,0,0,0.0,6.136886149942399,6.136886149942399,0.20372927970955518,0.40118129792791735,-1.5957638509384725e-05,0.017569193724416794,2.6874643081883345e-05,9.84197537804764
1.312,0,4,1,2.862405226111779,574.1181139819774,0.0,6.136886149942399,160,7,1,0,0,0,0.0,6.136886149942399,6.136886149942399,0.2027473781143853,0.40118067414901487,-1.596391810040898e-05,0.015756539531045194,2.182188312578917e-05,9.861816100684983
1.32,0,4,1,2.862405226111779,576.9805192080893,0.0,6.136886149942399,160,7,1,0,0,0,0.0,6.136886149942399,6.136886149942399,0.2017654765272313,0.40118004924684086,-1.5969698910387256e-05,0.014088336830289485,1.7842855906355217e-05,9.8638719905478
1.328,0,4,1,2.862405226111779,579.8429244342011,0.0,6.136886149942399,160,7,1,0,0,0,0.0,6.136886149942399,6.136886149942399,0.2007835749452905,0.4011794234287712,-1.5974905379093074e-05,0.0122450798889696,1.4292712136447008e-05,9.762092283850796
1.336,0,4,1,2.862405226111779,582.7053296603129,0.0,6.136886149942399,160,7,1,0,0,0,0.0,6.136886149942399,6.136886149942399,0.1998016733665232,0.4011787968665378,-1.5979468451689932e-05,0.010348011187073588,1.1555746091787949e-05,9.79111279070007
1.344,0,4,1,2.862405226111779,585.5677348864248,0.0,6.136886149942399,160,7,1,0,0,0,0.0,6.136886149942399,6.136886149942399,0.1988197717894524,0.4011781697017536,-1.5983326992565633e-05,0.0083185513161448,9.264703778580669e-06,9.832547815690814
1.352,0,4,1,2.862405226111779,588.4301401125366,0.0,6.136886149942399,160,7,1,0,0,0,0.0,6.136886149942399,6.136886149942399,0.1978378702130123,0.40117754205072725,-1.5986429012555467e-05,0.006389158591868962,7.391711125549163e-06,9.81152291611632
1.36,0,4,1,2.862405226111779,591.2925453386484,0.0,6.136886149942399,160,7,1,0,0,0,0.0,6.136886149942399,6.136886149942399,0.19685596863643517,0.40117691400861993,-1.598873270277322e-05,0.004394154799673819,5.874880835848275e-06,9.793941614801248
1.368,0,4,1,2.862405226111779,594.1549505647603,0.0,6.136886149942399,160,7,1,0,0,0,0.0,6.136886149942399,6.136886149942399,0.195874067059168,0.40117628565300406,-1.599020726942603e-05,0.0023754741703016146,4.613077062013714e-06,9.80565898062472
1.3760000000000001,0,4,1,2.862405226111779,597.0173557908721,0.0,6.136886149942399,160,7,1,0,0,0,0.0,6.136886149942399,6.136886149942399,0.1948921654808116,0.4011756570468898,-1.5990833565255463e-05,0.00037366730232140267,3.653972515483674e-06,9.855306194194892
1.3840000000000001,0,4,1,2.862405226111779,599.8797610169839,0.0,6.136886149942399,160,7,1,0,0,0,0.0,6.136886149942399,6.136886149942399,0.19391026390107746,0.4011750282412814,-1.5990604515330603e-05,-0.001647323234314278,2.848622527269765e-06,9.829488223442775
1.3920000000000001,0,4,1,2.862405226111779,602.7421662430958,0.0,6.136886149942399,160,7,1,0,0,0,0.0,6.136886149942399,6.136886149942399,0.19292836231975763,0.4011743992773244,-1.598952533635352e-05,-0.003665698192799098,2.210425240707828e-06,9.850992453042691
1.4000000000000001,0,4,1,2.862405226111779,605.6045714692076,0.0,6.136886149942399,160,7,1,0,0,0,0.0,6.136886149942399,6.136886149942399,0.1919464607367045,0.4011737701881004,-1.5987613550915228e-05,-0.005648756549319801,1.694849607319084e-06,9.833460155935887
1.408,0,4,1,2.862405226111779,608.4669766953194,0.0,6.136886149942399,160,7,1,0,0,0,0.0,6.136886149942399,6.136886149942399,0.1909645591518177,0.40117314100011847,-1.598489880072669e-05,-0.007645382351187667,1.308219216728813e-06,9.818868393463221
1.416,0,4,1,2.862405226111779,611.3293819214313,0.0,6.136886149942399,160,7,1,0,0,0,0.0,6.136886149942399,6.136886149942399,0.18998265756503657,0.4011725117345506,-1.5981422464578926e-05,-0.009608844472846378,9.911064522524031e-07,9.849818873542311
1.424,0,4,1,2.862405226111779,614.1917871475431,0.0,6.136886149942399,160,7,1,0,0,0,0.0,6.136886149942399,6.136886149942399,0.18900075597633537,0.4011718824082496,-1.5977237089549734e-05,-0.011487399396416253,7.443031239908352e-07,9.777910391510725
1.432,0,4,1,3.8140748342903783,618.0058619818335,0.9516696081785994,6.089301861405691,160,7,1,1,1,1,0.0595,6.1488018614056905,6.029801861405691,0.18801885438572158,0.40117125303458445,-1.5972405646290377e-05,-0.01335431655205783,5.565602023108367e-07,9.800126268777841
1.44,0,4,1,2.862405226111779,620.8682672079453,-0.9516696081785994,6.136886149942399,160,7,1,0,1,-1,0.0005000000000000004,6.137386149942398,6.136386149942399,0.18704456525180282,0.40117061853486796,-1.596220963292691e-05,-0.135484229748305,0.00012944568823406385,9.830027562234257
1.448,0,4,1,2.862405226111779,623.7306724340572,0.0,6.136886149942399,160,7,1,0,1,0,0.005,6.1418861499423985,6.131886149942399,0.18606266424666837,0.4011703500988411,-1.595573880274967e-05,0.10026803138934771,-0.005754640249653596,9.818044762847148
1.456,0,4,1,2.862405226111779,626.593077660169,0.0,6.136886149942399,160,7,1,0,1,0,0.005,6.1418861499423985,6.131886149942399,0.18508076238119808,0.4011700778733655,-1.594892728879263e-05,-0.020117478958669895,5.8491426841230444e-05,9.839052210150864
1.464,0,4,1,2.862405226111779,629.4554828862808,0.0,6.136886149942399,160,7,1,0,1,0,0.005,6.1418861499423985,6.131886149942399,0.1840988605438466,0.40116983153432273,-1.5941867171605575e-05,-0.021846858028537537,-0.00040637382972528904,9.791596200102726
1.472,0,4,1,2.862405226111779,632.3178881123927,0.0,6.136886149942399,160,7,1,0,1,0,0.005,6.1418861499423985,6.131886149942399,0.18311695872458567,0.40116961151937175,-1.5934660974322584e-05,-0.02330084296438439,-0.00041423690568060176,9.83534926483759
1.48,0,4,1,2.862405226111779,635.1802933385045,0.0,6.136886149942399,160,7,1,0,1,0,0.005,6.1418861499423985,6.131886149942399,0.18213505691619244,0.4011694181912637,-1.592741439666867e-05,-0.024643357171037095,-0.0004191252933591524,9.767339236309942
1.488,0,4,1,2.862405226111779,638.0426985646163,0.0,6.136886149942399,160,7,1,0,1,0,0.005,6.1418861499423985,6.131886149942399,0.18115315511366,0.40116925185564567,-1.5920234392612087e-05,-0.026140579423962647,-0.0004215053937586324,9.797431121779649
1.496,0,4,1,2.862405226111779,640.9051037907282,0.0,6.136886149942399,160,7,1,0,1,0,0.005,6.1418861499423985,6.131886149942399,0.18017125331366612,0.40116911276897077,-1.5913227354474868e-05,-0.027249227228389395,-0.00043088816664424564,9.748894360915981
1.504,0,4,1,2.862405226111779,643.76750901684,0.0,6.136886149942399,160,7,1,0,1,0,0.005,6.1418861499423985,6.131886149942399,0.1791893515141573,0.40116900114563947,-1.5906497373169987e-05,-0.02852126809278547,-0.00043074029148203343,9.800109296412886
1.512,0,4,1,2.862405226111779,646.6299142429518,0.0,6.136886149942399,160,7,1,0,1,0,0.005,6.1418861499423985,6.131886149942399,0.17820744971402655,0.401168917164356,-1.5900144581441553e-05,-0.029582137738528542,-0.0004357044680538703,9.803500301638346
1.52,0,4,1,2.862405226111779,649.4923194690637,0.0,6.136886149942399,160,7,1,0,1,0,0.005,6.1418861499423985,6.131886149942399,0.17722554791286468,0.40116886097371224,-1.5894263590662122e-05,-0.030531100292720742,-0.0004371839579898809,9.802053127916844
1.528,0,4,1,2.862405226111779,652.3547246951755,0.0,6.136886149942399,160,7,1,0,1,0,0.005,6.1418861499423985,6.131886149942399,0.17624364611076876,0.40116883269704134,-1.5888942034282538e-05,-0.031456514909961764,-0.00043880801175161336,9.796542215641155
1.536,0,4,1,2.862405226111779,655.2171299212873,0.0,6.136886149942399,160,7,1,0,1,0,0.005,6.1418861499423985,6.131886149942399,0.1752617443081955,0.4011688324365966,-1.5884259231628214e-05,-0.03210946291087267,-0.0004366672378146049,9.848756508083099
1.544,0,4,1,2.862405226111779,658.0795351473992,0.0,6.136886149942399,160,7,1,0,1,0,0.005,6.1418861499423985,6.131886149942399,0.17427984250584938,0.401168860277121,-1.5880284987631818e-05,-0.03264132178099656,-0.0004441354333171696,9.848459169813209
1.552,0,4,1,2.862405226111779,660.941940373511,0.0,6.136886149942399,160,7,1,0,1,0,0.005,6.1418861499423985,6.131886149942399,0.173297940704598,0.40116891628887397,-1.5877078541814624e-05,-0.03305884818724658,-0.000440999346468933,9.821419278282375
1.56,0,4,1,2.862405226111779,663.8043455996228,0.0,6.136886149942399,160,7,1,0,1,0,0.005,6.1418861499423985,6.131886149942399,0.17231603894265707,0.40116900043739173,-1.5871411542026787e-05,-0.03289700092943565,-0.0004403483492602115,9.822248272987133
1.568,0,4,1,2.862405226111779,666.6667508257347,0.0,6.136886149942399,160,7,1,0,1,0,0.005,6.1418861499423985,6.131886149942399,0.1713341371474913,0.4011691129931691,-1.587335769506759e-05,-0.032670444255429754,-0.0004457703734347696,9.786132337991539
1.576,0,4,1,2.862405226111779,669.5291560518465,0.0,6.136886149942399,160,7,1,0,1,0,0.005,6.1418861499423985,6.131886149942399,0.17035223535738697,0.40116925388614816,-1.5875957927700968e-05,-0.032857014861184135,-0.00044519403402077583,9.786723386842642
1.584,0,4,1,2.862405226111779,672.3915612779583,0.0,6.136886149942399,160,7,1,0,1,0,0.005,6.1418861499423985,6.131886149942399,0.16937033357311898,0.40116942315045806,-1.5879188077461484e-05,-0.032429916102790855,-0.000444942207686741,9.798490553838633
1.592,0,4,1,2.862405226111779,675.2539665040701,0.0,6.136886149942399,160,7,1,0,1,0,0.005,6.1418861499423985,6.131886149942399,0.16838843179545554,0.40116962081472374,-1.588304681967613e-05,-0.031700967117904086,-0.00044621896739606003,9.84622334944756
1.6,0,4,1,2.862405226111779,678.116371730182,0.0,6.136886149942399,160,7,1,0,1,0,0.005,6.1418861499423985,6.131886149942399,0.16740653002516595,0.40116984690309937,-1.5887514284268836e-05,-0.031231630946653266,-0.00044872685443157745,9.821110444132183
1.608,0,4,1,2.862405226111779,680.9787769562938,0.0,6.136886149942399,160,7,1,0,1,0,0.005,6.1418861499423985,6.131886149942399,0.16642462826301238,0.4011701014360915,-1.5892553968352083e-05,-0.030410780762082576,-0.0004483481185804199,9.785822911124226
1.616,0,4,1,2.862405226111779,683.8411821824056,0.0,6.136886149942399,160,7,1,0,1,0,0.005,6.1418861499423985,6.131886149942399,0.1654427265097462,0.401170384431226,-1.5898114793227308e-05,-0.029662715290965636,-0.00044742256978138126,9.83423794319899
1.624,0,4,1,2.862405226111779,686.7035874085175,0.0,6.136886149942399,160,7,1,0,1,0,0.005,6.1418861499423985,6.131886149942399,0.1644608247661076,0.40117069590358795,-1.590413307724775e-05,-0.02852713050024981,-0.00044625396538711137,9.826490804355858
1.6320000000000001,0,4,1,2.862405226111779,689.5659926346293,0.0,6.136886149942399,160,7,1,0,1,0,0.005,6.1418861499423985,6.131886149942399,0.16347892303282752,0.40117103586625474,-1.591053445384842e-05,-0.027554943459047937,-0.0004457569572623335,9.805517653404076
1.6400000000000001,0,4,1,2.862405226111779,692.4283978607411,0.0,6.136886149942399,160,7,1,0,1,0,0.005,6.1418861499423985,6.131886149942399,0.1624970213106314,0.40117140433064263,-1.5917235755299672e-05,-0.026489480948433772,-0.0004477326050233605,9.80629469924408
1.6480000000000001,0,4,1,2.862405226111779,695.290803086853,0.0,6.136886149942399,160,7,1,0,1,0,0.005,6.1418861499423985,6.131886149942399,0.16151511960024403,0.4011718013067821,-1.592414687218678e-05,-0.02515786947115594,-0.0004479712600690374,9.783143375803633
1.6560000000000001,0,4,1,3.8140748342903783,699.1048779211434,0.9516696081785994,6.089301861405691,160,7,1,0,1,0,0.005,6.0943018614056905,6.084301861405691,0.16053321790239472,0.4011722268035355,-1.5931172592454496e-05,-0.023889986533688616,-0.0004478372617709374,9.797196550435187
1.6640000000000001,0,4,1,3.8140748342903783,702.9189527554338,0.0,6.089301861405691,160,7,1,0,1,0,0.005,6.0943018614056905,6.084301861405691,0.15955892867082558,0.4011726773687608,-1.5930906435890693e-05,-0.14245700590905758,-0.0004505512651058429,9.800608367365328
1.672,0,4,1,3.8140748342903783,706.7330275897242,0.0,6.089301861405691,160,7,1,0,1,0,0.005,6.0943018614056905,6.084301861405691,0.1585846405756424,0.4011731561352192,-1.5931061259855106e-05,-0.023867693161652243,-0.000442842208808132,9.785230897545864
1.68,0,4,1,3.8140748342903783,710.5471024240146,0.0,6.089301861405691,160,7,1,0,1,0,0.005,6.0943018614056905,6.084301861405691,0.15761035247512634,0.4011736631147209,-1.5931650207136674e-05,-0.023720987568944557,-0.0004425922775027002,9.843337359424131
1.688,0,4,1,3.8140748342903783,714.361177258305,0.0,6.089301861405691,160,7,1,0,1,0,0.005,6.0943018614056905,6.084301861405691,0.15663606437408312,0.40117419831749185,-1.5932666823374048e-05,-0.023555739887361805,-0.0004446465480709425,9.840453911583332
1.696,0,4,1,3.8140748342903783,718.1752520925954,0.0,6.089301861405691,160,7,1,0,1,0,0.005,6.0943018614056905,6.084301861405691,0.15566177627665706,0.40117476175273925,-1.593409774790569e-05,-0.02337829932417807,-0.0004432058523897505,9.827492892625479
1.704,0,4,1,3.8140748342903783,721.9893269268858,0.0,6.089301861405691,160,7,1,0,1,0,0.005,6.0943018614056905,6.084301861405691,0.15468748818632064,0.4011753534288197,-1.593592307844345e-05,-0.02290430717852428,-0.00044545583893489506,9.768294446164006
1.712,0,4,1,3.8140748342903783,725.8034017611762,0.0,6.089301861405691,160,7,1,0,1,0,0.005,6.0943018614056905,6.084301861405691,0.1537132001060069,0.40117597335337424,-1.59381167411949e-05,-0.022411575364635984,-0.00044236219872449966,9.754109052184653
1.72,0,4,1,3.8140748342903783,729.6174765954667,0.0,6.089301861405691,160,7,1,0,1,0,0.005,6.0943018614056905,6.084301861405691,0.15273891203821638,0.40117662153343486,-1.594064693809412e-05,-0.02190503466530799,-0.00044272182492488977,9.781587382208933
1.728,0,4,1,3.8140748342903783,733.4315514297571,0.0,6.089301861405691,160,7,1,0,1,0,0.005,6.0943018614056905,6.084301861405691,0.1517646239851031,0.40117729797550894,-1.5943476667425183e-05,-0.021195308077078055,-0.0004444631147307159,9.845109715969464
1.736,0,4,1,3.8140748342903783,737.2456262640475,0.0,6.089301861405691,160,7,1,0,1,0,0.005,6.0943018614056905,6.084301861405691,0.1507903359485439,0.4011780026856438,-1.5946564312974143e-05,-0.020425837584868455,-0.00044303545862869897,9.823121983558469
1.744,0,4,1,3.8140748342903783,741.0597010983379,0.0,6.089301861405691,160,7,1,0,1,0,0.005,6.0943018614056905,6.084301861405691,0.1498160479301949,0.40117873566947654,-1.5949864294238086e-05,-0.019752756359973367,-0.0004436216802754366,9.810519595071252
1.752,0,4,1,3.8140748342903783,744.8737759326283,0.0,6.089301861405691,160,7,1,0,1,0,0.005,6.0943018614056905,6.084301861405691,0.14884175993153667,0.4011794969322709,-1.595332777014173e-05,-0.018903349723084283,-0.00044477210064224575,9.797327424697789
1.76,0,4,1,3.8140748342903783,748.6878507669187,0.0,6.089301861405691,160,7,1,0,1,0,0.005,6.0943018614056905,6.084301861405691,0.14786747195391137,0.40118028647894427,-1.595690338618283e-05,-0.018001643413436234,-0.0004458943711943008,9.803837934050758
1.768,0,4,1,3.8140748342903783,752.5019256012091,0.0,6.089301861405691,160,7,1,0,1,0,0.005,6.0943018614056905,6.084301861405691,0.14689318399855253,0.4011811043140869,-1.5960538055590293e-05,-0.01702438725639155,-0.00044528859961528723,9.823334104995116
1.776,0,4,1,3.8140748342903783,756.3160004354995,0.0,6.089301861405691,160,7,1,0,1,0,0.005,6.0943018614056905,6.084301861405691,0.1459188960666092,0.40118195044197413,-1.5964177763026777e-05,-0.01600935008537931,-0.0004450195959102584,9.815679410840273
1.784,0,4,1,3.8140748342903783,760.1300752697899,0.0,6.089301861405691,160,7,1,0,1,0,0.005,6.0943018614056905,6.084301861405691,0.1449446081591657,0.4011828248665744,-1.5967768379938213e-05,-0.014740099305973328,-0.0004455730267273461,9.76167111629478
1.792,0,4,1,3.8140748342903783,763.9441501040803,0.0,6.089301861405691,160,7,1,0,1,0,0.005,6.0943018614056905,6.084301861405691,0.14397032027725704,0.40118372759155324,-1.597125647941934e-05,-0.01374009461454904,-0.0004438337832178631,9.837842475687694
1.8,0,4,1,3.8140748342903783,767.7582249383707,0.0,6.089301861405691,160,7,1,0,1,0,0.005,6.0943018614056905,6.084301861405691,0.1429960324218816,0.4011846586202741,-1.597459013914955e-05,-0.012432804996578287,-0.0004429696770621163,9.78052508903284
1.808,0,4,1,3.8140748342903783,771.5722997726612,0.0,6.089301861405691,160,7,1,0,1,0,0.005,6.0943018614056905,6.084301861405691,0.14202174459401093,0.40118561795579794,-1.5977719720788527e-05,-0.011082607389180956,-0.0004445296624066458,9.810734854753484
1.816,0,4,1,3.8140748342903783,775.3863746069516,0.0,6.089301861405691,160,7,1,0,1,0,0.005,6.0943018614056905,6.084301861405691,0.14104745679459738,0.4011866056008808,-1.5980598613999156e-05,-0.00983381530817074,-0.0004454230208400824,9.771438065628969
1.824,0,4,1,3.8140748342903783,779.200449441242,0.0,6.089301861405691,160,7,1,0,1,0,0.005,6.0943018614056905,6.084301861405691,0.14007316902457972,0.4011876215579705,-1.598318393484545e-05,-0.008465418319444638,-0.0004433064749730272,9.821538392973606
1.832,0,4,1,3.8140748342903783,783.0145242755324,0.0,6.089301861405691,160,7,1,0,1,0,0.005,6.0943018614056905,6.084301861405691,0.13909888128488726,0.40118866582920354,-1.598543716777555e-05,-0.007145099563226461,-0.0004452606687464291,9.775086589688122
1.84,0,4,1,3.8140748342903783,786.8285991098228,0.0,6.089301861405691,160,7,1,0,1,0,0.005,6.0943018614056905,6.084301861405691,0.13812459357644263,0.40118973841640126,-1.5987324742085945e-05,-0.005723449237180624,-0.0004428915373483074,9.770203411568852
1.848,0,4,1,3.8140748342903783,790.6426739441132,0.0,6.089301861405691,160,7,1,0,1,0,0.005,6.0943018614056905,6.084301861405691,0.13715030590016333,0.4011908393210664,-1.598881853406668e-05,-0.004271906516745031,-0.0004435148124483226,9.799835564062352
1.856,0,4,1,3.8140748342903783,794.4567487784036,0.0,6.089301861405691,160,7,1,0,1,0,0.005,6.0943018614056905,6.084301861405691,0.13617601825696243,0.40119196854438033,-1.598989628777761e-05,-0.002838150487300693,-0.0004441599292442906,9.806785569397082
1.864,0,4,1,3.8140748342903783,798.270823612694,0.0,6.089301861405691,160,7,1,0,1,0,0.005,6.0943018614056905,6.084301861405691,0.13520173064774843,0.4011931260872004,-1.599054194792275e-05,-0.0013793929636581458,-0.00044429128935174366,9.823268501474256
