Time,SetPointAngle,SensorAngleRow,SensorAngleWidth,Angle,IntegralAngle,DeltaAngle,BaseSpeed,SetPointError,SensorErrorRow,SensorErrorWidth,Error,IntegralError,DeltaError,DeltaSpeed,LeftSpeed,RightSpeed,X,Y,Z,Roll,Pitch,Yaw
0.032,0,4,1,6.842773412630916,6.842773412630916,6.842773412630916,5.704596124854936,160,9,1,27,27,27,1.6065,6.28,4.098096124854935,-0.41499300000000033,0.4049999999999952,-6.395993683771736e-05,-0.1902102213387707,1.4132094937241748,9.779371994083968
0.064,0,4,1,5.710593137499568,12.553366550130484,-1.132180275131348,5.787647729296528,160,9,1,12,39,-15,0.7275000000000001,6.28,5.060147729296528,-0.4117403670779066,0.4049867458260233,-3.151923361026723e-05,3.820738576252033,0.06765732369316652,9.639584580824106
0.096,0,4,1,5.142764557884225,17.696131108014708,-0.5678285796153437,5.830783204987616,160,9,1,6,45,-6,0.498,6.28,5.332783204987615,-0.40814599135844826,0.4048619282178847,-6.061609360800274e-05,0.6604307032000182,-0.07520159737562629,9.715106275296405
0.128,0,4,1,4.573921259900898,22.270052367915603,-0.5688432979833271,5.875075771441796,160,9,1,0,45,-6,0.198,6.073075771441796,5.677075771441795,-0.40442961415199874,0.40468687316698465,-7.393177019273875e-05,0.1269834800324597,-0.04467921622652789,9.852745932482062
0.16,0,4,1,4.004172940709389,26.27422530862499,-0.5697483191915085,5.920591547727139,160,9,1,-3,42,-3,0.04649999999999997,5.967091547727139,5.874091547727139,-0.4006736402804264,0.40447315618838947,-6.665867336846584e-05,-0.26515087399370063,-0.04129761049913384,9.85114278355096
0.192,0,4,1,4.004172940709389,30.27839824933438,0.0,5.920591547727139,160,9,1,-5,37,-2,-0.074,5.846591547727139,5.994591547727139,-0.39689211491806486,0.40424099575528494,-7.185507368835838e-05,-0.12461204927258171,-0.0235227448008699,9.786236038574703
0.224,0,4,1,3.4336303624506144,33.712028611784994,-0.5705425782587747,5.967401045967872,160,9,1,-7,30,-2,-0.20900000000000005,5.758401045967872,6.1764010459678715,-0.393111462893943,0.40400679263985706,-7.41119895565287e-05,0.011577461652249125,-0.009452624942232627,9.81953882109233
0.256,0,4,1,2.862405226111651,36.57443383789665,-0.5712251363389633,6.01557734440487,160,9,1,-6,24,1,-0.17550000000000004,5.84007734440487,6.191077344404871,-0.38931311945803393,0.40378036880003865,-7.181302910059563e-05,-0.052423595275683466,-0.0011189677938138346,9.79363976721864
0.28800000000000003,0,4,1,2.862405226111651,39.436839064008296,0.0,6.01557734440487,160,9,1,-5,19,1,-0.1505,5.86507734440487,6.16607734440487,-0.385480248190293,0.4035762224257778,-7.08244371404685e-05,-0.023485913123025115,0.013652757361403783,9.788433819085517
0.32,0,4,1,2.862405226111651,42.299244290119944,0.0,6.01557734440487,160,9,1,-5,14,0,-0.18,5.835577344404871,6.19557734440487,-0.38163549506894817,0.4033922329507761,-7.031820964013141e-05,-0.027727975252447357,0.009865904962639796,9.775506492174115
0.352,0,4,1,2.2906100426385936,44.589854332758534,-0.5717951834730575,6.065199984865566,160,9,1,-4,10,1,-0.14550000000000002,5.919699984865566,6.210699984865566,-0.37778980569712434,0.4032245544703861,-6.976813361679601e-05,-0.01852033066842106,0.006235843976816949,9.859864646624223
0.384,0,4,1,2.2906100426385936,46.880464375397125,0.0,6.065199984865566,160,9,1,-4,6,0,-0.17,5.895199984865566,6.235199984865566,-0.3739115065316135,0.403074258035144,-6.922485734418837e-05,0.03920847516416367,0.009509442482727523,9.803656779582163
0.41600000000000004,0,4,1,2.2906100426385936,49.171074418035715,0.0,6.065199984865566,160,9,1,-3,3,1,-0.1305,5.934699984865566,6.195699984865565,-0.37003252460210656,0.402938762528072,-6.858665545703482e-05,0.009353334440112318,0.007479718339054303,9.878357941337114
0.448,0,4,1,2.2906100426385936,51.461684460674306,0.0,6.065199984865566,160,9,1,-2,1,1,-0.0905,5.974699984865566,6.155699984865565,-0.36615298389606066,0.40281969575106064,-6.812884897568205e-05,0.009636215961931548,0.011082172541662267,9.752474532323884
0.48,0,4,1,2.2906100426385936,53.752294503312896,0.0,6.065199984865566,160,9,1,-2,-1,0,-0.10500000000000001,5.960199984865565,6.170199984865566,-0.3622731220454715,0.40271275156847214,-6.769132800774069e-05,0.009114222412190627,0.008927009951979543,9.735785760259121
0.512,0,4,1,1.7183580016555007,55.4706525049684,-0.5722520409830929,6.116357855429741,160,9,1,-2,-3,0,-0.115,6.001357855429741,6.231357855429741,-0.35839298518275864,0.40261372435828935,-6.728157471363842e-05,0.008220841826182011,0.006806469980390683,9.744647100710884
0.544,0,4,1,2.2906100426385936,57.76126254760699,0.5722520409830929,6.065199984865566,160,9,1,-1,-4,1,-0.0655,5.999699984865566,6.130699984865566,-0.3544798344052711,0.40252292317013777,-6.689043094663082e-05,0.04500330887756465,0.009621562532313782,9.852009272140455
0.5760000000000001,0,4,1,1.7183580016555007,59.47962054926249,-0.5722520409830929,6.116357855429741,160,9,1,-1,-5,0,-0.07500000000000001,6.041357855429741,6.191357855429741,-0.3505992082658153,0.40244267602403044,-6.650374768316265e-05,-0.021508348883352974,0.011956841700407735,9.814058048034749
0.608,0,4,1,1.7183580016555007,61.197978550917995,0.0,6.116357855429741,160,9,1,-1,-6,0,-0.08,6.036357855429741,6.196357855429741,-0.3466856920902896,0.4023667401594502,-6.613613526742015e-05,0.04577896990653223,0.008402996922660394,9.845453136331711
0.64,0,4,1,2.2906100426385936,63.488588593556585,0.5722520409830929,6.065199984865566,160,9,1,0,-6,1,-0.0255,6.039699984865566,6.090699984865566,-0.3427720114405266,0.402296728765556,-6.579683164270426e-05,0.012534644146239574,0.010323178738750074,9.80223178826651
0.672,0,4,1,1.1457628381751443,64.63435143173173,-1.1448472044634492,6.169143233402604,160,9,1,-1,-7,-1,-0.08950000000000001,6.079643233402604,6.258643233402604,-0.33889094291071803,0.40223363987681293,-6.548330521323996e-05,-0.027946998614662332,0.011287735778298908,9.789064353176986
0.704,0,4,1,1.7183580016555007,66.35270943338723,0.5725951634803563,6.116357855429741,160,9,1,0,-7,1,-0.030500000000000003,6.085857855429741,6.146857855429741,-0.33494327341498226,0.4021707635328717,-6.522519892552398e-05,0.07381459416196597,0.006704949173138179,9.826669910413274
0.736,0,4,1,0.5729386976839008,66.92564813107113,-1.1454193039715999,6.223655143819362,160,9,1,-2,-9,-2,-0.15400000000000003,6.069655143819362,6.28,-0.3310292413494426,0.40211595443382003,-6.497555699885339e-05,-0.02711543506768324,0.013119758488083059,9.793399860159116
0.768,0,4,1,0.5729386976839008,67.49858682875502,0.0,6.223655143819362,160,9,1,-1,-10,1,-0.0955,6.128155143819361,6.28,-0.3270777235805887,0.4020626345462317,-6.478887270447257e-05,0.0465500762557123,0.007521265308241709,9.824188954771266
0.8,0,4,1,1.1457628381751443,68.64434966693017,0.5728241404912435,6.169143233402604,160,9,1,0,-10,1,-0.045500000000000006,6.123643233402604,6.214643233402604,-0.3231073355454704,0.40201849116173427,-6.459494601895356e-05,0.028422940631013582,0.01451908755212236,9.871962962748444
0.8320000000000001,0,4,1,1.1457628381751443,69.79011250510531,0.0,6.169143233402604,160,9,1,0,-10,0,-0.05,6.119143233402604,6.219143233402604,-0.3191592285523778,0.40198123339137043,-6.446790686953988e-05,-0.016568553112684615,0.011738574788786925,9.84207256716305
0.864,0,4,1,0.5729386976839008,70.36305120278921,-0.5728241404912435,6.223655143819362,160,9,1,0,-10,0,-0.05,6.173655143819362,6.2736551438193615,-0.3152110859830758,0.4019477188325506,-6.436670090818886e-05,5.427455951146827e-05,0.008588318306467885,9.81809228285495
0.896,0,4,1,1.1457628381751443,71.50881404096435,0.5728241404912435,6.169143233402604,160,9,1,1,-9,1,0.009500000000000005,6.178643233402604,6.159643233402604,-0.3112280237146015,0.4019181798822117,-6.42851653328922e-05,0.035896941543273164,0.008815064242172228,9.79821959509391
0.928,0,4,1,0.5729386976839008,72.08175273864825,-0.5728241404912435,6.223655143819362,160,9,1,0,-9,-1,-0.049499999999999995,6.174155143819362,6.273155143819362,-0.3072798348959402,0.40189321446447823,-6.420650052235861e-05,-0.03787785226176588,0.008619361171327387,9.803379232161362
0.96,0,4,1,1.1457628381751443,73.2275155768234,0.5728241404912435,6.169143233402604,160,9,1,1,-8,1,0.014500000000000002,6.183643233402604,6.154643233402604,-0.30329676310837306,0.40186653782672155,-6.416210977418756e-05,0.03229806507040376,0.0026179435528293905,9.804780210746726
0.992,0,4,1,0.5729386976839008,73.80045427450729,-0.5728241404912435,6.223655143819362,160,9,1,0,-8,-1,-0.0445,6.1791551438193615,6.268155143819362,-0.29934855888304296,0.40184446599418766,-6.411005381238948e-05,-0.040580090040011736,0.008038839360831452,9.81485350764778
1.024,0,4,1,1.1457628381751443,74.94621711268243,0.5728241404912435,6.169143233402604,160,9,1,1,-7,1,0.0195,6.188643233402604,6.149643233402604,-0.2953654794184441,0.401820332543688,-6.408736917926962e-05,0.029631854776191274,0.0015890961165784313,9.86601439887976
1.056,0,4,1,0.5729386976839008,75.51915581036633,-0.5728241404912435,6.223655143819362,160,9,1,0,-7,-1,-0.0395,6.184155143819361,6.263155143819362,-0.29141726711360944,0.4018004235146074,-6.405282993591707e-05,-0.042812111209038266,0.007028821040149563,9.765184916156047
1.088,0,4,1,0.5729386976839008,76.09209450805022,0.0,6.223655143819362,160,9,1,0,-7,0,-0.035,6.1886551438193615,6.258655143819362,-0.28743418336196985,0.4017780982575008,-6.404358405536631e-05,0.028266849198546686,0.0005446428030936085,9.856218446791386
1.12,0,4,1,1.1457628381751443,77.23785734622537,0.5728241404912435,6.169143233402604,160,9,1,1,-6,1,0.024500000000000004,6.193643233402604,6.144643233402604,-0.28345107786815665,0.4017594283942048,-6.403510184228509e-05,-0.0021957274400659223,0.005989525480168528,9.833422864459681
1.1520000000000001,0,4,1,0.5729386976839008,77.81079604390926,-0.5728241404912435,6.223655143819362,160,9,1,0,-6,-1,-0.034499999999999996,6.189155143819361,6.258155143819362,-0.2795028522474351,0.40174416916546263,-6.4019261797707e-05,-0.03955052562680498,0.005294138720500553,9.846181594474137
1.184,0,4,1,1.1457628381751443,78.95655888208441,0.5728241404912435,6.169143233402604,160,9,1,1,-5,1,0.029500000000000002,6.198643233402604,6.139643233402604,-0.2755197507782678,0.4017261763932348,-6.401685549327525e-05,0.03237237780353605,-0.0006797758599875974,9.841689052067201
1.216,0,4,1,0.5729386976839008,79.5294975797683,-0.5728241404912435,6.223655143819362,160,9,1,0,-5,-1,-0.029500000000000002,6.194155143819362,6.253155143819361,-0.27157152464492434,0.40171157567389854,-6.400678031064262e-05,-0.03872596013382459,0.004791459840871291,9.814309406683432
1.248,0,4,1,0.5729386976839008,80.1024362774522,0.0,6.223655143819362,160,9,1,0,-5,0,-0.025,6.198655143819361,6.248655143819362,-0.2675884251034045,0.40169380314909403,-6.400612335578058e-05,0.03383736745557259,-0.0015478472076177546,9.802095693995788
1.28,0,4,1,0.5729386976839008,80.6753749751361,0.0,6.223655143819362,160,9,1,0,-5,0,-0.025,6.198655143819361,6.248655143819362,-0.2636053116403311,0.40167883933476023,-6.400175471071336e-05,0.003996190914278518,0.003971945606770324,9.79364837304626
1.312,0,4,1,0.5729386976839008,81.24831367281999,0.0,6.223655143819362,160,9,1,1,-4,1,0.0345,6.258155143819362,6.189155143819361,-0.25962218994013414,0.4016662714745115,-6.399451674517567e-05,0.00806671617307171,0.003413593102016671,9.809413339945957
1.344,0,4,1,0.5729386976839008,81.82125237050388,0.0,6.223655143819362,160,9,1,0,-4,-1,-0.0245,6.199155143819362,6.248155143819361,-0.25563906997753216,0.40165607952060306,-6.398315381184703e-05,0.011531618744025968,0.0032465269266828294,9.77008508905933
1.3760000000000001,0,4,1,0.5729386976839008,82.39419106818778,0.0,6.223655143819362,160,9,1,0,-4,0,-0.02,6.203655143819362,6.243655143819361,-0.25165595369389676,0.4016424311548927,-6.397394496473162e-05,0.01446113790852325,-0.0025178588037347463,9.756496822693986
1.408,0,4,1,0.0,82.39419106818778,-0.5729386976839008,6.279999999999999,160,9,1,0,-4,0,-0.02,6.26,6.28,-0.24767283016232133,0.40163111385095773,-6.396383458246065e-05,0.014327661235917897,0.0030375252093323506,9.811652098085881
1.44,0,4,1,0.0,82.39419106818778,0.0,6.279999999999999,160,9,1,0,-4,0,-0.02,6.26,6.28,-0.2436600432361367,0.4016216240984047,-6.394347250088771e-05,0.04319210159228186,0.002540190925603988,9.84258415712231
1.472,0,4,1,0.0,82.39419106818778,0.0,6.279999999999999,160,9,1,0,-4,0,-0.02,6.26,6.28,-0.23964725383468727,0.4016130657745168,-6.394974380577109e-05,0.013358455028412814,0.0015459764899530026,9.808525041798891
1.504,0,4,1,0.0,82.39419106818778,0.0,6.279999999999999,160,9,1,0,-4,0,-0.02,6.26,6.28,-0.2356344631582202,0.4016054316350343,-6.395673200242612e-05,0.011602564797001549,0.0015144649666944993,9.810201657419091
1.536,0,4,1,0.5729386976839008,82.96712976587168,0.5729386976839008,6.223655143819362,160,9,1,1,-3,1,0.0395,6.263155143819362,6.184155143819361,-0.2316216710229829,0.4015987157217075,-6.396353878786697e-05,0.009239326037909607,0.0015015396351255735,9.808350949190777
1.568,0,4,1,0.0,82.96712976587168,-0.5729386976839008,6.279999999999999,160,9,1,0,-3,-1,-0.0195,6.2604999999999995,6.28,-0.2276385415466065,0.4015929438176694,-6.397260806604785e-05,-0.02861030874292153,0.0014531949995789581,9.816672577163752
1.6,0,4,1,0.0,82.96712976587168,0.0,6.279999999999999,160,9,1,0,-3,0,-0.015,6.265,6.28,-0.22362559402150348,0.401583124866321,-6.397229475230311e-05,0.02658304142431519,-0.0033063515295983633,9.79963634456631
1.6320000000000001,0,4,1,0.0,82.96712976587168,0.0,6.279999999999999,160,9,1,0,-3,0,-0.015,6.265,6.28,-0.2196112039713123,0.4015741926721458,-6.397026636903273e-05,-0.003696654280886003,0.0013808564369428675,9.778563305199269
1.6640000000000001,0,4,1,0.0,82.96712976587168,0.0,6.279999999999999,160,9,1,0,-3,0,-0.015,6.265,6.28,-0.2155968128972576,0.4015659599611963,-6.396714768950804e-05,-0.007320429979708127,0.0011350476235407157,9.82837315791997
1.696,0,4,1,0.0,82.96712976587168,0.0,6.279999999999999,160,9,1,0,-3,0,-0.015,6.265,6.28,-0.2115824206456768,0.4015584459161002,-6.396362061049377e-05,-0.00909206634193032,0.0010986097647135713,9.807042917791161
1.728,0,4,1,0.0,82.96712976587168,0.0,6.279999999999999,160,9,1,0,-3,0,-0.015,6.265,6.28,-0.20756802713830413,0.40155166108379337,-6.396045361589837e-05,-0.010371629218881491,0.0010567753155306964,9.857422187908815
1.76,0,4,1,0.0,82.96712976587168,0.0,6.279999999999999,160,9,1,0,-3,0,-0.015,6.265,6.28,-0.20355363239168642,0.40154560938182216,-6.395830828715039e-05,-0.010918610996319333,0.0010178090051306194,9.83447357748913
1.792,0,4,1,0.0,82.96712976587168,0.0,6.279999999999999,160,9,1,0,-3,0,-0.015,6.265,6.28,-0.1995392364869462,0.4015402899823866,-6.395758261064019e-05,-0.01083660974915437,0.0009952950321228298,9.791809964262496
1.824,0,4,1,0.5729386976839008,83.54006846355557,0.5729386976839008,6.223655143819362,160,9,1,1,-2,1,0.0445,6.268155143819362,6.1791551438193615,-0.19552483954545877,0.4015356989544942,-6.39583224907106e-05,-0.010245807285956495,0.0009797006250167092,9.81725710820651
1.856,0,4,1,0.5729386976839008,84.11300716123947,0.0,6.223655143819362,160,9,1,1,-1,0,0.045000000000000005,6.268655143819362,6.178655143819362,-0.1915417046659535,0.4015318902466405,-6.394410405590606e-05,-0.04567448719661283,0.0009744650038367608,9.803613624791623
1.8880000000000001,0,4,1,0.5729386976839008,84.68594585892336,0.0,6.223655143819362,160,9,1,0,-1,-1,-0.0095,6.214155143819362,6.233155143819362,-0.18755856614999136,0.401523662499815,-6.39264544121023e-05,-0.014918455055076881,-0.004077723023974368,9.777834052856628
1.92,0,4,1,0.5729386976839008,85.25888455660726,0.0,6.223655143819362,160,9,1,0,-1,0,-0.005,6.218655143819362,6.228655143819362,-0.1835754436879903,0.401510922178467,-6.393455235907675e-05,-0.013919047390069529,-0.004204962067420695,9.815077030597427
1.952,0,4,1,0.5729386976839008,85.83182325429115,0.0,6.223655143819362,160,9,1,0,-1,0,-0.005,6.218655143819362,6.228655143819362,-0.1795923196651534,0.40149912714788494,-6.394397944826762e-05,-0.011949510083178981,0.0010103580028771465,9.807012894907494
1.984,0,4,1,0.5729386976839008,86.40476195197505,0.0,6.223655143819362,160,9,1,0,-1,0,-0.005,6.218655143819362,6.228655143819362,-0.17560919590198448,0.401487880431749,-6.39533997030331e-05,-0.009379258995112478,0.000520003218219029,9.818221902282184
2.016,0,4,1,0.5729386976839008,86.97770064965894,0.0,6.223655143819362,160,9,1,0,-1,0,-0.005,6.218655143819362,6.228655143819362,-0.17162607172573616,0.40147720476646825,-6.39613634744983e-05,-0.006194893529486345,0.00045601621236459017,9.813594213400606
2.048,0,4,1,0.5729386976839008,87.55063934734284,0.0,6.223655143819362,160,9,1,0,-1,0,-0.005,6.218655143819362,6.228655143819362,-0.16764294669278879,0.40146710667976215,-6.39666770385957e-05,-0.0026147707020514723,0.0004005309179967847,9.743722458627852
2.08,0,4,1,0.5729386976839008,88.12357804502673,0.0,6.223655143819362,160,9,1,0,-1,0,-0.005,6.218655143819362,6.228655143819362,-0.1636598205391131,0.40145758126110853,-6.396864144445416e-05,0.0010698884988443662,0.00036753719334782427,9.803547240711133
2.112,0,4,1,0.5729386976839008,88.69651674271063,0.0,6.223655143819362,160,9,1,0,-1,0,-0.005,6.218655143819362,6.228655143819362,-0.15967669313391034,0.4014486162966769,-6.396720550061637e-05,0.004734914865148539,0.00034971575132355264,9.786317216526148
2.144,0,4,1,0.5729386976839008,89.26945544039452,0.0,6.223655143819362,160,9,1,0,-1,0,-0.005,6.218655143819362,6.228655143819362,-0.1556935644397705,0.401440195629226,-6.396298520616392e-05,0.00809326569560055,0.0003528225337882598,9.760040310674514
2.176,0,4,1,0.5729386976839008,89.84239413807842,0.0,6.223655143819362,160,9,1,0,-1,0,-0.005,6.218655143819362,6.228655143819362,-0.15171043448071236,0.4014323017322037,-6.39571364160138e-05,0.010926462200259952,0.00037276990449491306,9.789786398536659
2.208,0,4,1,0.5729386976839008,90.41533283576231,0.0,6.223655143819362,160,9,1,0,-1,0,-0.005,6.218655143819362,6.228655143819362,-0.14772730331815734,0.40142491755170295,-6.395110473824198e-05,0.013119494901909067,0.00040372203280703435,9.81079412349255
2.24,0,4,1,0.5729386976839008,90.98827153344621,0.0,6.223655143819362,160,9,1,0,-1,0,-0.005,6.218655143819362,6.228655143819362,-0.14374417103402048,0.40141802770979707,-6.3946307685794e-05,0.014628461099891098,0.0004431554306912329,9.80806759603138
2.2720000000000002,0,4,1,0.5729386976839008,91.5612102311301,0.0,6.223655143819362,160,9,1,0,-1,0,-0.005,6.218655143819362,6.228655143819362,-0.13976103781074023,0.40141161914665546,-6.394311601839488e-05,0.014484424635062523,0.0004832113137703807,9.792022412265581
2.3040000000000003,0,4,1,0.5729386976839008,92.134148928814,0.0,6.223655143819362,160,9,1,0,-1,0,-0.005,6.218655143819362,6.228655143819362,-0.1357779035476582,0.4014056813025561,-6.394579784436451e-05,0.013498484614376536,0.0005261112757802768,9.783191278882583
2.336,0,4,1,0.5729386976839008,92.7070876264979,0.0,6.223655143819362,160,9,1,0,-1,0,-0.005,6.218655143819362,6.228655143819362,-0.13179476844041388,0.4014002064327336,-6.39502957535381e-05,0.011680583772765422,0.0005705756385571295,9.782216438865031
2.368,0,4,1,0.5729386976839008,93.28002632418179,0.0,6.223655143819362,160,9,1,0,-1,0,-0.005,6.218655143819362,6.228655143819362,-0.12781163257793796,0.4013951891344112,-6.395555415840068e-05,0.009210179671957919,0.000607236261730532,9.781477667805268
2.4,0,4,1,0.5729386976839008,93.85296502186569,0.0,6.223655143819362,160,9,1,0,-1,0,-0.005,6.218655143819362,6.228655143819362,-0.12382849604392317,0.4013906260558706,-6.396031997049634e-05,0.006181635003233244,0.0006373223235254458,9.818983217210956
2.432,0,4,1,0.5729386976839008,94.42590371954958,0.0,6.223655143819362,160,9,1,0,-1,0,-0.005,6.218655143819362,6.228655143819362,-0.11984535891654799,0.40138651550773324,-6.396344227186344e-05,0.0027607591597850795,0.0006673783878125896,9.788855280610766
2.464,0,4,1,0.5729386976839008,94.99884241723348,0.0,6.223655143819362,160,9,1,0,-1,0,-0.005,6.218655143819362,6.228655143819362,-0.11586222126894417,0.40138285707019516,-6.39641504610964e-05,-0.0007956795601888069,0.0006927835598129673,9.85629200495025
2.496,0,4,1,0.5729386976839008,95.57178111491737,0.0,6.223655143819362,160,9,1,0,-1,0,-0.005,6.218655143819362,6.228655143819362,-0.11187908317021242,0.4013796512283878,-6.396224059947858e-05,-0.004357917390840777,0.0007089798160753966,9.827496485153116
2.528,0,4,1,0.5729386976839008,96.14471981260127,0.0,6.223655143819362,160,9,1,0,-1,0,-0.005,6.218655143819362,6.228655143819362,-0.10789594468666533,0.40137689905513846,-6.395812665494285e-05,-0.00758540065197244,0.000725690491255479,9.802009935634295
2.56,0,4,1,0.0,96.14471981260127,-0.5729386976839008,6.279999999999999,160,9,1,0,-1,0,-0.005,6.2749999999999995,6.28,-0.10391280588293517,0.40137460195026103,-6.395274504432912e-05,-0.010464500230794949,0.0007338985655493463,9.851493688674887
2.592,0,4,1,0.0,96.14471981260127,0.0,6.279999999999999,160,9,1,0,-1,0,-0.005,6.2749999999999995,6.28,-0.09989520737662105,0.40137274619100693,-6.396071186436265e-05,0.027976243993368434,0.0007371833698309846,9.818201262728275
2.624,0,4,1,0.0,96.14471981260127,0.0,6.279999999999999,160,9,1,0,-1,0,-0.005,6.2749999999999995,6.28,-0.09587760755530343,0.4013711060731526,-6.396431804266654e-05,-0.0007641737324606703,0.0005006585096582322,9.798013706655729
2.656,0,4,1,0.0,96.14471981260127,0.0,6.279999999999999,160,9,1,0,-1,0,-0.005,6.2749999999999995,6.28,-0.09186000771262386,0.4013696831016777,-6.396267682641683e-05,0.004268242217777335,0.0004998991734821151,9.819625508456605
2.688,0,4,1,0.0,96.14471981260127,0.0,6.279999999999999,160,9,1,0,-1,0,-0.005,6.2749999999999995,6.28,-0.08784240784596345,0.4013684801992935,-6.39561490974605e-05,0.009015583966841807,0.0004939167286824452,9.833378167443602
2.72,0,4,1,0.0,96.14471981260127,0.0,6.279999999999999,160,9,1,0,-1,0,-0.005,6.2749999999999995,6.28,-0.08382480795446387,0.40136750097431595,-6.394624966968125e-05,0.013293952137939111,0.00048449103545629603,9.794069212964294
2.7520000000000002,0,4,1,0.0,96.14471981260127,0.0,6.279999999999999,160,9,1,0,-1,0,-0.005,6.2749999999999995,6.28,-0.07980720803824498,0.40136674918658966,-6.393528948650702e-05,0.016788035266415934,0.0004752207327083424,9.788749117525013
2.7840000000000003,0,4,1,0.0,96.14471981260127,0.0,6.279999999999999,160,9,1,0,-1,0,-0.005,6.2749999999999995,6.28,-0.07578960864876329,0.40136622846119124,-6.392440306511593e-05,0.016226924943866072,0.000463584006145619,9.839717166188386
2.816,0,4,1,0.0,96.14471981260127,0.0,6.279999999999999,160,9,1,0,-1,0,-0.005,6.2749999999999995,6.28,-0.071772008615459,0.40136594113518786,-6.393123924966493e-05,0.014763954023671094,0.0004533436705617138,9.769849301571828
2.848,0,4,1,0.0,96.14471981260127,0.0,6.279999999999999,160,9,1,0,-1,0,-0.005,6.2749999999999995,6.28,-0.0677544085691282,0.4013658901022904,-6.393964557145117e-05,0.012362413147878094,0.0004398832519168382,9.804134364735292
2.88,0,4,1,0.0,96.14471981260127,0.0,6.279999999999999,160,9,1,0,-1,0,-0.005,6.2749999999999995,6.28,-0.0637368085212433,0.4013660773250032,-6.394811913176812e-05,0.009240842853187742,0.0004295996295986049,9.791718423238976
2.912,0,4,1,0.0,96.14471981260127,0.0,6.279999999999999,160,9,1,0,-1,0,-0.005,6.2749999999999995,6.28,-0.059719208484519,0.40136650422308223,-6.395506496380439e-05,0.005601927111730571,0.00042144787324401614,9.805664171206987
2.944,0,4,1,0.0,96.14471981260127,0.0,6.279999999999999,160,9,1,0,-1,0,-0.005,6.2749999999999995,6.28,-0.05570160847218068,0.4013671717400608,-6.395916765538842e-05,0.0016160461615518005,0.0004117341534121894,9.827818459525224
2.976,0,4,1,0.0,96.14471981260127,0.0,6.279999999999999,160,9,1,0,-1,0,-0.005,6.2749999999999995,6.28,-0.05168400849771951,0.4013680804288883,-6.39597170414008e-05,-0.0024825284580701087,0.0004025888685220851,9.837037119722877
3.008,0,4,1,0.0,96.14471981260127,0.0,6.279999999999999,160,9,1,0,-1,0,-0.005,6.2749999999999995,6.28,-0.04766640857522242,0.40136923054338014,-6.395678821691231e-05,-0.006413268247946856,0.00039651658561894404,9.813186112488498
3.04,0,4,1,0.0,96.14471981260127,0.0,6.279999999999999,160,9,1,0,-1,0,-0.005,6.2749999999999995,6.28,-0.04364880871995073,0.4013706221256688,-6.395123413688135e-05,-0.009947043114327495,0.00039415659952517413,9.791440207495906
3.072,0,4,1,0.0,96.14471981260127,0.0,6.279999999999999,160,9,1,0,-1,0,-0.005,6.2749999999999995,6.28,-0.03963120894873632,0.40137225508326363,-6.394449308560167e-05,-0.012806872358608709,0.0003908198296573803,9.860127586131158
3.104,0,4,1,0.5729386976839008,96.71765851028516,0.5729386976839008,6.223655143819362,160,9,1,1,0,1,0.0545,6.278155143819362,6.169155143819362,-0.03561360927988001,0.4013741292521817,-6.393825675364215e-05,-0.015130890531551037,0.0003868618125614631,9.74493969234469
3.136,0,4,1,0.5729386976839008,97.29059720796906,0.0,6.223655143819362,160,9,1,0,0,-1,-0.0045,6.2191551438193615,6.228155143819362,-0.031630469997797776,0.40137626645218266,-6.390414276980991e-05,-0.04875276842120669,0.0003756380147565911,9.762968875236773
3.168,0,4,1,0.5729386976839008,97.86353590565295,0.0,6.223655143819362,160,9,1,0,0,0,0.0,6.223655143819362,6.223655143819362,-0.027647326751743796,0.4013729743579538,-6.39150953026333e-05,-0.013962646868655096,-0.005166143635714561,9.789149517330143
3.2,0,4,1,0.5729386976839008,98.43647460333685,0.0,6.223655143819362,160,9,1,0,0,0,0.0,6.223655143819362,6.223655143819362,-0.023664185299439748,0.40137012823377266,-6.392721160401911e-05,-0.012007508817232853,0.000495979598705345,9.804512432704517
3.232,0,4,1,0.5729386976839008,99.00941330102074,0.0,6.223655143819362,160,9,1,0,0,0,0.0,6.223655143819362,6.223655143819362,-0.019681045684602428,0.4013673065135593,-6.393910150577498e-05,-0.009484894510605161,1.3686503016848946e-05,9.832723428206503
3.2640000000000002,0,4,1,0.5729386976839008,99.58235199870464,0.0,6.223655143819362,160,9,1,0,0,0,0.0,6.223655143819362,6.223655143819362,-0.015697907324365917,0.40136452855745774,-6.394930248375744e-05,-0.006299184684147456,-3.18021664584777e-05,9.783434027541748
3.2960000000000003,0,4,1,0.5729386976839008,100.15529069638853,0.0,6.223655143819362,160,9,1,0,0,0,0.0,6.223655143819362,6.223655143819362,-0.011714769748442676,0.40136180395290016,-6.395660156646374e-05,-0.0027504683047816438,-7.537369389716854e-05,9.81553958687059
3.3280000000000003,0,4,1,0.5729386976839008,100.72822939407243,0.0,6.223655143819362,160,9,1,0,0,0,0.0,6.223655143819362,6.223655143819362,-0.007731632596088772,0.4013591349157194,-6.39602830486384e-05,0.0009362226595023673,-0.0001117331410562753,9.814690888814445
3.36,0,4,1,0.5729386976839008,101.30116809175632,0.0,6.223655143819362,160,9,1,0,0,0,0.0,6.223655143819362,6.223655143819362,-0.0037484956048880096,0.4013565185154418,-6.396028663286507e-05,0.004564908884413494,-0.0001373282084518217,9.78771331688865
3.392,0,4,1,0.5729386976839008,101.87410678944022,0.0,6.223655143819362,160,9,1,0,0,0,0.0,6.223655143819362,6.223655143819362,0.00023464140464170806,0.40135394858435736,-6.395723005415965e-05,0.00789528753697661,-0.00015172875550105227,9.772475407530965
3.424,0,4,1,0.5729386976839008,102.44704548712411,0.0,6.223655143819362,160,9,1,0,0,0,0.0,6.223655143819362,6.223655143819362,0.004217778545624877,0.40135141726296464,-6.39522836263541e-05,0.010898509944528907,-0.00015549147152225246,9.751244864644733
3.456,0,4,1,0.5729386976839008,103.01998418480801,0.0,6.223655143819362,160,9,1,0,0,0,0.0,6.223655143819362,6.223655143819362,0.008200915880541358,0.4013489161777785,-6.394692062019862e-05,0.013056495276838921,-0.0001497464613176018,9.827925096244913
3.488,0,4,1,0.5729386976839008,103.5929228824919,0.0,6.223655143819362,160,9,1,0,0,0,0.0,6.223655143819362,6.223655143819362,0.012184053434912927,0.4013464372774861,-6.394259811134083e-05,0.014453759604585748,-0.0001407989430404343,9.834662541190015
3.52,0,4,1,0.5729386976839008,104.1658615801758,0.0,6.223655143819362,160,9,1,0,0,0,0.0,6.223655143819362,6.223655143819362,0.016167191146457316,0.40134397339663225,-6.393973818409095e-05,0.014365668720601594,-0.00012310933009162774,9.795229200236284
3.552,0,4,1,0.5729386976839008,104.7388002778597,0.0,6.223655143819362,160,9,1,0,0,0,0.0,6.223655143819362,6.223655143819362,0.020150329134078115,0.40134151844320315,-6.394263866559696e-05,0.013537286198302738,-0.00010624329168488083,9.800871787096051
3.584,0,4,1,0.5729386976839008,105.31173897554359,0.0,6.223655143819362,160,9,1,0,0,0,0.0,6.223655143819362,6.223655143819362,0.024133467296665843,0.4013390676765534,-6.39473268259274e-05,0.011732459755119294,-8.743957957692405e-05,9.803924281484722
3.616,0,4,1,0.5729386976839008,105.88467767322749,0.0,6.223655143819362,160,9,1,0,0,0,0.0,6.223655143819362,6.223655143819362,0.028116605602840593,0.40133661756362404,-6.39527854138823e-05,0.009340373761789759,-6.940248647354752e-05,9.83453122060208
3.648,0,4,1,0.5729386976839008,106.45761637091138,0.0,6.223655143819362,160,9,1,0,0,0,0.0,6.223655143819362,6.223655143819362,0.03209974402130493,0.40133416568783353,-6.395778237394852e-05,0.006311494384032697,-5.2864506617776505e-05,9.832769885731945
3.68,0,4,1,0.5729386976839008,107.03055506859528,0.0,6.223655143819362,160,9,1,0,0,0,0.0,6.223655143819362,6.223655143819362,0.03608288252360382,0.4013317105797597,-6.396116917447084e-05,0.002930113008907247,-3.8522015399413815e-05,9.791759246458772
3.712,0,4,1,0.5729386976839008,107.60349376627917,0.0,6.223655143819362,160,9,1,0,0,0,0.0,6.223655143819362,6.223655143819362,0.04006602108552338,0.4013292515268814,-6.396216110835136e-05,-0.0006241942350088722,-2.641323700986363e-05,9.816748185499781
3.744,0,4,1,0.5729386976839008,108.17643246396307,0.0,6.223655143819362,160,9,1,0,0,0,0.0,6.223655143819362,6.223655143819362,0.044049159687350854,0.40132678838427244,-6.396052892847226e-05,-0.00412281021547504,-1.6798938343808966e-05,9.837552588965101
3.7760000000000002,0,4,1,0.5729386976839008,108.74937116164696,0.0,6.223655143819362,160,9,1,0,0,0,0.0,6.223655143819362,6.223655143819362,0.04803229831337675,0.40132432140103835,-6.395665740113222e-05,-0.007436746568498226,-9.361433813733941e-06,9.82317340962699
3.8080000000000003,0,4,1,0.5729386976839008,109.32230985933086,0.0,6.223655143819362,160,9,1,0,0,0,0.0,6.223655143819362,6.223655143819362,0.05201543695109805,0.4013218510712764,-6.395145760236358e-05,-0.010160935059957823,-3.954876196701683e-06,9.793333104741599
3.84,0,4,1,0.5729386976839008,109.89524855701475,0.0,6.223655143819362,160,9,1,0,0,0,0.0,6.223655143819362,6.223655143819362,0.05599857559052282,0.40131937801356254,-6.394615409390306e-05,-0.012329647945566968,-3.0842837951173814e-07,9.808758052212413
3.872,0,4,1,0.5729386976839008,110.46818725469865,0.0,6.223655143819362,160,9,1,0,0,0,0.0,6.223655143819362,6.223655143819362,0.059981714223795425,0.40131690287941046,-6.394199745947578e-05,-0.013946291044074464,1.9578191821235707e-06,9.815437990392933
3.904,0,4,1,0.5729386976839008,111.04112595238254,0.0,6.223655143819362,160,9,1,0,0,0,0.0,6.223655143819362,6.223655143819362,0.06396485284512865,0.40131442628870384,-6.393997015032363e-05,-0.014569301433268119,3.1482136781617063e-06,9.805674141625934
3.936,0,4,1,0.5729386976839008,111.61406465006644,0.0,6.223655143819362,160,9,1,0,0,0,0.0,6.223655143819362,6.223655143819362,0.06794799145084825,0.40131194878859316,-6.394055508263628e-05,-0.014397618364300143,3.5519942233900103e-06,9.791620096774835
3.968,0,4,1,0.0,111.61406465006644,-0.5729386976839008,6.279999999999999,160,9,1,-1,-1,-1,-0.0595,6.2204999999999995,6.28,0.07193113003930558,0.4013094708316035,-6.394362160090997e-05,-0.013264551488144156,3.426289810690826e-06,9.765653212066178
4.0,0,4,1,0.5729386976839008,112.18700334775033,0.5729386976839008,6.223655143819362,160,9,1,0,-1,1,-0.0005000000000000004,6.223155143819362,6.224155143819361,0.07593128872406338,0.4013069667551034,-6.395587237927568e-05,0.008634425825577925,-2.2368980990278522e-05,9.778814936019465
4.032,0,4,1,0.5729386976839008,112.75994204543423,0.0,6.223655143819362,160,9,1,0,-1,0,-0.005,6.218655143819362,6.228655143819362,0.07991443016393411,0.4013074265734646,-6.395948699496577e-05,-0.022215082987685944,0.0028953644120947256,9.815634483261881
4.064,0,4,1,0.0,112.75994204543423,-0.5729386976839008,6.279999999999999,160,9,1,0,-1,0,-0.005,6.2749999999999995,6.28,0.08389757074583157,0.40130793435111983,-6.396244770032894e-05,-0.002962551616125276,9.251976893097176e-05,9.809946147854676
4.096,0,4,1,0.0,112.75994204543423,0.0,6.279999999999999,160,9,1,0,-1,0,-0.005,6.2749999999999995,6.28,0.08791516999550825,0.40130893100765636,-6.39614536224551e-05,0.040273671552245226,0.0005545065835012563,9.807809278389058
4.128,0,4,1,0.0,112.75994204543423,0.0,6.279999999999999,160,9,1,0,-1,0,-0.005,6.2749999999999995,6.28,0.09193276993307505,0.4013101550867725,-6.394154910610052e-05,0.016023580660183577,0.00034381067872286464,9.787635814770745
4.16,0,4,1,0.0,112.75994204543423,0.0,6.279999999999999,160,9,1,0,-1,0,-0.005,6.2749999999999995,6.28,0.0959503676945836,0.401311598520391,-6.390642111128372e-05,0.015741678828264664,0.0003650644917961764,9.82448705024258
4.192,0,4,1,0.0,112.75994204543423,0.0,6.279999999999999,160,9,1,0,-1,0,-0.005,6.2749999999999995,6.28,0.09996796709792784,0.4013132549921373,-6.391701518745907e-05,0.01447849667554209,0.0003913690297660376,9.813698980686924
4.224,0,4,1,0.0,112.75994204543423,0.0,6.279999999999999,160,9,1,0,-1,0,-0.005,6.2749999999999995,6.28,0.10398556629743244,0.4013151249570376,-6.392825145921412e-05,0.012274083283861103,0.0004172565420649466,9.793472245436604
4.256,0,4,1,0.0,112.75994204543423,0.0,6.279999999999999,160,9,1,0,-1,0,-0.005,6.2749999999999995,6.28,0.10800316536148197,0.40131721001460513,-6.393894191000955e-05,0.009355890218556623,0.0004289130090930834,9.816687029795164
4.288,0,4,1,0.0,112.75994204543423,0.0,6.279999999999999,160,9,1,0,-1,0,-0.005,6.2749999999999995,6.28,0.11202076433152593,0.4013195132038834,-6.394777810752109e-05,0.005930593294692139,0.000441817340407896,9.839261752191447
4.32,0,4,1,0.0,112.75994204543423,0.0,6.279999999999999,160,9,1,0,-1,0,-0.005,6.2749999999999995,6.28,0.11603836322705105,0.4013220383027385,-6.395362936243223e-05,0.0021388609413593132,0.0004449860753932531,9.856380030939542
4.352,0,4,1,0.0,112.75994204543423,0.0,6.279999999999999,160,9,1,0,-1,0,-0.005,6.2749999999999995,6.28,0.12005596205057224,0.40132478929496074,-6.395585971360682e-05,-0.0017810981723871576,0.0004467667714517621,9.791117840067544
4.384,0,4,1,0.0,112.75994204543423,0.0,6.279999999999999,160,9,1,0,-1,0,-0.005,6.2749999999999995,6.28,0.1240735607918252,0.4013277699939358,-6.395452008003434e-05,-0.0055626876684719715,0.0004418212914319265,9.809003995423401
4.416,0,4,1,0.0,112.75994204543423,0.0,6.279999999999999,160,9,1,0,-1,0,-0.005,6.2749999999999995,6.28,0.1280911594311719,0.4013309838020695,-6.395037132284932e-05,-0.009102832625658171,0.0004353586922003288,9.849809940974708
4.448,0,4,1,0.0,112.75994204543423,0.0,6.279999999999999,160,9,1,0,-1,0,-0.005,6.2749999999999995,6.28,0.13210875794246815,0.40133443358100795,-6.394473378010072e-05,-0.012057640192253048,0.00042577844636528195,9.83697277033923
4.48,0,4,1,0.0,112.75994204543423,0.0,6.279999999999999,160,9,1,0,-1,0,-0.005,6.2749999999999995,6.28,0.13612635629566017,0.4013381216068603,-6.393919960607196e-05,-0.014262940441409008,0.0004174879306548342,9.712548458501347
4.5120000000000005,0,4,1,0.0,112.75994204543423,0.0,6.279999999999999,160,9,1,0,-1,0,-0.005,6.2749999999999995,6.28,0.14014395442229396,0.40134204956120506,-6.393383301886088e-05,-0.014207024660710044,0.00041153927984058613,9.882049720633823
4.5440000000000005,0,4,1,0.5729386976839008,113.33288074311812,0.5729386976839008,6.223655143819362,160,9,1,1,0,1,0.0545,6.278155143819362,6.169155143819362,0.14416155235771647,0.40134621890787786,-6.39377203956043e-05,-0.013332350267233896,0.0004043389073288572,9.816680863992442
4.5760000000000005,0,4,1,0.0,113.33288074311812,-0.5729386976839008,6.279999999999999,160,9,1,0,0,-1,-0.0045,6.275499999999999,6.28,0.14814468942347764,0.40135063265369164,-6.392180688699796e-05,-0.052179866426223874,0.0003951887923201929,9.79843605027204
4.6080000000000005,0,4,1,0.0,113.33288074311812,0.0,6.279999999999999,160,9,1,0,0,0,0.0,6.279999999999999,6.279999999999999,0.1521624534185562,0.4013496150979879,-6.393382557604195e-05,0.018151713858195542,-0.005165710607190294,9.84870079043675
4.64,0,4,1,0.0,113.33288074311812,0.0,6.279999999999999,160,9,1,0,0,0,0.0,6.279999999999999,6.279999999999999,0.15618165664156142,0.4013488224536438,-6.394786788921185e-05,-0.01018101014062131,0.0002809537161117647,9.784236272828132
4.672,0,4,1,0.0,113.33288074311812,0.0,6.279999999999999,160,9,1,0,0,0,0.0,6.279999999999999,6.279999999999999,0.1602008580121615,0.4013480553138171,-6.395958540623622e-05,-0.006911733779657239,1.3278527727765672e-05,9.774524713824496
4.704,0,4,1,0.0,113.33288074311812,0.0,6.279999999999999,160,9,1,0,0,0,0.0,6.279999999999999,6.279999999999999,0.16422005807183043,0.40134733508256343,-6.396648322754862e-05,-0.001779560837888233,-3.603725517721463e-05,9.857076098261865
4.736,0,4,1,0.0,113.33288074311812,0.0,6.279999999999999,160,9,1,0,0,0,0.0,6.279999999999999,6.279999999999999,0.1682392572931768,0.4013466724301879,-6.396726765829815e-05,0.003455432961456152,-8.363728925738362e-05,9.835871632860686
4.768,0,4,1,0.0,113.33288074311812,0.0,6.279999999999999,160,9,1,0,0,0,0.0,6.279999999999999,6.279999999999999,0.17225845604128034,0.40134606992188254,-6.396206865473195e-05,0.008529736395604622,-0.0001223930686069997,9.846880079112141
4.8,0,4,1,0.0,113.33288074311812,0.0,6.279999999999999,160,9,1,0,0,0,0.0,6.279999999999999,6.279999999999999,0.17627765458532554,0.40134552444966826,-6.395236439704285e-05,0.012980417067076071,-0.0001500497146080592,9.841921010964201
4.832,0,4,1,0.0,113.33288074311812,0.0,6.279999999999999,160,9,1,0,0,0,0.0,6.279999999999999,6.279999999999999,0.18029685311387936,0.4013450293275504,-6.394061458874986e-05,0.016731373407794427,-0.0001670397245724857,9.801703230514095
4.864,0,4,1,0.0,113.33288074311812,0.0,6.279999999999999,160,9,1,0,0,0,0.0,6.279999999999999,6.279999999999999,0.18431605133607487,0.4013445762221638,-6.392821791396247e-05,0.0162393476955416,-0.00016512779531759294,9.795522065236652
4.896,0,4,1,0.0,113.33288074311812,0.0,6.279999999999999,160,9,1,0,0,0,0.0,6.279999999999999,6.279999999999999,0.1883352502297995,0.4013441554642195,-6.393490031783577e-05,0.014661307351249988,-0.00016059107145459332,9.80759891267082
4.928,0,4,1,0.0,113.33288074311812,0.0,6.279999999999999,160,9,1,0,0,0,0.0,6.279999999999999,6.279999999999999,0.19235444933094936,0.40134375854663595,-6.394298406409843e-05,0.012400854549491684,-0.00014868825118431134,9.802189725308972
4.96,0,4,1,0.0,113.33288074311812,0.0,6.279999999999999,160,9,1,0,0,0,0.0,6.279999999999999,6.279999999999999,0.19637364864170828,0.40134337763384986,-6.395102616882711e-05,0.009242459872867757,-0.0001319983744401447,9.88368040047964
4.992,0,4,1,0.0,113.33288074311812,0.0,6.279999999999999,160,9,1,0,0,0,0.0,6.279999999999999,6.279999999999999,0.20039284814669323,0.40134300615889207,-6.395748025479764e-05,0.005602440490106684,-0.00011226816753525074,9.826453486216595
5.024,0,4,1,0.0,113.33288074311812,0.0,6.279999999999999,160,9,1,0,0,0,0.0,6.279999999999999,6.279999999999999,0.2044120478209777,0.40134263894208816,-6.396106918573827e-05,0.0015849000110152941,-9.314070104733171e-05,9.840184326994363
5.056,0,4,1,0.0,113.33288074311812,0.0,6.279999999999999,160,9,1,0,0,0,0.0,6.279999999999999,6.279999999999999,0.2084312476356532,0.4013422721600104,-6.39611139221681e-05,-0.0025312965107690327,-7.281204587221523e-05,9.78988493208218
5.088,0,4,1,0.0,113.33288074311812,0.0,6.279999999999999,160,9,1,0,0,0,0.0,6.279999999999999,6.279999999999999,0.21245044756122672,0.4013419032152042,-6.395771551691819e-05,-0.00647460854729661,-5.542344406704385e-05,9.787235485143757
5.12,0,4,1,0.0,113.33288074311812,0.0,6.279999999999999,160,9,1,0,0,0,0.0,6.279999999999999,6.279999999999999,0.21646964756945936,0.40134153054910027,-6.395174825499228e-05,-0.01001956663450014,-3.997955084397601e-05,9.8470892580228
5.152,0,4,1,0.0,113.33288074311812,0.0,6.279999999999999,160,9,1,0,0,0,0.0,6.279999999999999,6.279999999999999,0.22048884763435517,0.4013411534314129,-6.394466645034437e-05,-0.012930638888692557,-2.7107690915953776e-05,9.805947290314771
5.184,0,4,1,0.0,113.33288074311812,0.0,6.279999999999999,160,9,1,0,0,0,0.0,6.279999999999999,6.279999999999999,0.22450804773287053,0.40134077175051364,-6.393817120816693e-05,-0.015150155985152168,-1.6847380684650073e-05,9.815203514224292
5.216,0,4,1,0.0,113.33288074311812,0.0,6.279999999999999,160,9,1,0,0,0,0.0,6.279999999999999,6.279999999999999,0.22852724783041423,0.4013403859141189,-6.393254926174985e-05,-0.014970942195816463,-1.0152613069156571e-05,9.841972955229132
5.248,0,4,1,0.0,113.33288074311812,0.0,6.279999999999999,160,9,1,0,0,0,0.0,6.279999999999999,6.279999999999999,0.2325464479359106,0.4013399963085852,-6.393692767874166e-05,-0.01381374823989984,-4.444911329991949e-06,9.861802501777404
5.28,0,4,1,0.0,113.33288074311812,0.0,6.279999999999999,160,9,1,0,0,0,0.0,6.279999999999999,6.279999999999999,0.23656564802742608,0.40133960374756,-6.394306070101573e-05,-0.012004962781154333,-4.064116705038166e-07,9.863865133900637
5.312,0,4,1,0.0,113.33288074311812,0.0,6.279999999999999,160,9,1,0,0,0,0.0,6.279999999999999,6.279999999999999,0.2405848481003894,0.4013392089612415,-6.394976832546119e-05,-0.0093702510520038,1.9933845540023826e-06,9.762085932994891
5.344,0,4,1,0.0,113.33288074311812,0.0,6.279999999999999,160,9,1,0,0,0,0.0,6.279999999999999,6.279999999999999,0.24460404815265127,0.4013388126384088,-6.395569474372531e-05,-0.006166715052285468,3.2404238512576096e-06,9.791107032226186
5.376,0,4,1,0.0,113.33288074311812,0.0,6.279999999999999,160,9,1,0,0,0,0.0,6.279999999999999,6.279999999999999,0.24862324818350107,0.4013384153825069,-6.395962591020099e-05,-0.0025610166489449,3.638057376154347e-06,9.832541972367292
5.408,0,4,1,0.0,113.33288074311812,0.0,6.279999999999999,160,9,1,0,0,0,0.0,6.279999999999999,6.279999999999999,0.25264244819311366,0.4013380176887872,-6.396078338294364e-05,0.0011421277484459983,3.4693920975699733e-06,9.811515753330882
5.44,0,4,1,0.0,113.33288074311812,0.0,6.279999999999999,160,9,1,0,0,0,0.0,6.279999999999999,6.279999999999999,0.2566616481824711,0.40133761993766803,-6.395901393394833e-05,0.004784995253009244,2.9628703140818472e-06,9.793931679359506
5.472,0,4,1,0.0,113.33288074311812,0.0,6.279999999999999,160,9,1,0,0,0,0.0,6.279999999999999,6.279999999999999,0.26068084815357745,0.401337222399645,-6.395483072140808e-05,0.00810063638344732,2.2716804517643347e-06,9.80564506356088
5.5040000000000004,0,4,1,0.0,113.33288074311812,0.0,6.279999999999999,160,9,1,0,0,0,0.0,6.279999999999999,6.279999999999999,0.2647000481096586,0.40133682524763103,-6.394929665470492e-05,0.011040620022325717,1.5704957004980921e-06,9.855287714779882
5.5360000000000005,0,4,1,0.0,113.33288074311812,0.0,6.279999999999999,160,9,1,0,0,0,0.0,6.279999999999999,6.279999999999999,0.2687192480550714,0.40133642857334023,-6.394377762752347e-05,0.01325842949999474,8.942928669274566e-07,9.82946574378068
5.5680000000000005,0,4,1,0.0,113.33288074311812,0.0,6.279999999999999,160,9,1,0,0,0,0.0,6.279999999999999,6.279999999999999,0.2727384479948223,0.4013360324050765,-6.393962385635617e-05,0.014700376853766515,3.181886051513806e-07,9.85096726544001
5.6000000000000005,0,4,1,0.0,113.33288074311812,0.0,6.279999999999999,160,9,1,0,0,0,0.0,6.279999999999999,6.279999999999999,0.2767576478754459,0.4013356367488757,-6.393719103105558e-05,0.014548846597068609,-4.343274144291564e-09,9.833436140637865
5.632,0,4,1,0.0,113.33288074311812,0.0,6.279999999999999,160,9,1,0,0,0,0.0,6.279999999999999,6.279999999999999,0.2807768478289435,0.40133524150263516,-6.394052354801415e-05,0.01361945968897635,-4.032670841249691e-07,9.818843916415075
5.664,0,4,1,0.0,113.33288074311812,0.0,6.279999999999999,160,9,1,0,0,0,0.0,6.279999999999999,6.279999999999999,0.28479604778794243,0.4013348466306642,-6.394568443048726e-05,0.011849462676956794,-5.965826714613307e-07,9.849802994259143
5.696,0,4,1,0.0,113.33288074311812,0.0,6.279999999999999,160,9,1,0,0,0,0.0,6.279999999999999,6.279999999999999,0.28881524775372985,0.4013344520602746,-6.395159115762591e-05,0.009323425091051753,-7.13785550530373e-07,9.777901308735212
5.728,0,4,1,0.0,113.33288074311812,0.0,6.279999999999999,160,9,1,0,0,0,0.0,6.279999999999999,6.279999999999999,0.2928344477270797,0.40133405771939124,-6.39569635757821e-05,0.00628083768500639,-7.517497414434886e-07,9.800124217183734
5.76,0,4,1,0.0,113.33288074311812,0.0,6.279999999999999,160,9,1,0,0,0,0.0,6.279999999999999,6.279999999999999,0.2968536477086631,0.401333663541757,-6.396062526492843e-05,0.0028632406513262585,-7.176648304913385e-07,9.830152777324399
5.792,0,4,1,0.0,113.33288074311812,0.0,6.279999999999999,160,9,1,0,0,0,0.0,6.279999999999999,6.279999999999999,0.30087284769915873,0.4013332694700686,-6.39617846837047e-05,-0.0007212776297641742,-6.413392956686416e-07,9.817908775613065
5.824,0,4,1,0.0,113.33288074311812,0.0,6.279999999999999,160,9,1,0,0,0,0.0,6.279999999999999,6.279999999999999,0.30489204769900835,0.4013328754574434,-6.396022490947652e-05,-0.004267390173926414,-5.451226266404631e-07,9.839069573319629
5.856,0,4,1,0.0,113.33288074311812,0.0,6.279999999999999,160,9,1,0,0,0,0.0,6.279999999999999,6.279999999999999,0.30891124770796674,0.40133248146762773,-6.395635749390817e-05,-0.007592922548939785,-4.3770357931000836e-07,9.791615905087305
5.888,0,4,1,0.0,113.33288074311812,0.0,6.279999999999999,160,9,1,0,0,0,0.0,6.279999999999999,6.279999999999999,0.31293044772471096,0.4013320874743284,-6.395112790017442e-05,-0.01040701691714385,-3.305746793335409e-07,9.835370589181366
5.92,0,4,1,0.0,113.33288074311812,0.0,6.279999999999999,160,9,1,0,0,0,0.0,6.279999999999999,6.279999999999999,0.3169496477467593,0.401331693459999,-6.394579487893105e-05,-0.012574238529326213,-2.3029089079551286e-07,9.76736173981423
5.952,0,4,1,0.0,113.33288074311812,0.0,6.279999999999999,160,9,1,0,0,0,0.0,6.279999999999999,6.279999999999999,0.3209688477707987,0.40133129941434986,-6.39416357746201e-05,-0.014114677586151774,-1.4294480613065038e-07,9.797455653599734
5.984,0,4,1,0.0,113.33288074311812,0.0,6.279999999999999,160,9,1,0,0,0,0.0,6.279999999999999,6.279999999999999,0.32498804779331797,0.40133090533278426,-6.393964716922343e-05,-0.014659652278083714,-7.322469909885264e-08,9.748922015787947
6.016,0,4,1,0.0,113.33288074311812,0.0,6.279999999999999,160,9,1,0,0,0,0.0,6.279999999999999,6.279999999999999,0.3290072478112897,0.4013305112149085,-6.394031134776892e-05,-0.014468430010400227,-1.7670415255237823e-08,9.800142007210624
6.048,0,4,1,0.0,113.33288074311812,0.0,6.279999999999999,160,9,1,0,0,0,0.0,6.279999999999999,6.279999999999999,0.3330264478226196,0.40133011706320837,-6.394348356842695e-05,-0.013355876325470068,2.220361452606512e-08,9.803539506670672
6.08,0,4,1,0.0,113.33288074311812,0.0,6.279999999999999,160,9,1,0,0,0,0.0,6.279999999999999,6.279999999999999,0.3370456478262003,0.401329722881942,-6.394842670636239e-05,-0.011443695256852906,4.8449894703172606e-08,9.802099876351587
6.112,0,4,1,0.5729386976839008,113.90581944080202,0.5729386976839008,6.223655143819362,160,9,1,0,0,0,0.0,6.223655143819362,6.223655143819362,0.3410648478216037,0.4013293286762644,-6.395398513927252e-05,-0.008871993313586188,6.321062044631482e-08,9.796596725292215
6.144,0,4,1,0.0,113.90581944080202,-0.5729386976839008,6.279999999999999,160,9,1,0,0,0,0.0,6.279999999999999,6.279999999999999,0.3450479880088815,0.4013289379882706,-6.394524204918206e-05,-0.04822095384966237,6.805146106289798e-08,9.848779137005968
6.176,0,4,1,0.5729386976839008,114.47875813848592,0.5729386976839008,6.223655143819362,160,9,1,0,0,0,0.0,6.223655143819362,6.223655143819362,0.349067186987324,0.40132854375001786,-6.395428650686659e-05,0.026286048719271638,6.807247290204662e-08,9.848535510783071
6.208,0,4,1,0.0,114.47875813848592,-0.5729386976839008,6.279999999999999,160,9,1,0,0,0,0.0,6.279999999999999,6.279999999999999,0.35305032719580987,0.4013281530394516,-6.394843214296494e-05,-0.04689773892463046,6.071914546744629e-08,9.821452227526981
6.24,0,4,1,0.5729386976839008,115.05169683616981,0.5729386976839008,6.223655143819362,160,9,1,0,0,0,0.0,6.223655143819362,6.223655143819362,0.35706952618833304,0.4013277587871203,-6.395861966163388e-05,0.02850933069416403,5.152760696740268e-08,9.822272957452851
6.272,0,4,1,0.5729386976839008,115.6246355338537,0.0,6.223655143819362,160,9,1,0,0,0,0.0,6.223655143819362,6.223655143819362,0.36105266640176037,0.4013273680700522,-6.395588823637777e-05,-0.04306995982548459,4.0239480645148165e-08,9.786284144464243
6.304,0,4,1,0.5729386976839008,116.1975742315376,0.0,6.223655143819362,160,9,1,0,0,0,0.0,6.223655143819362,6.223655143819362,0.36503580559560495,0.4013269773542214,-6.395358264968745e-05,-0.00939342826508645,2.8598211831380053e-08,9.78678287618719
6.336,0,4,1,0.0,116.1975742315376,-0.5729386976839008,6.279999999999999,160,9,1,0,0,0,0.0,6.279999999999999,6.279999999999999,0.3690189448107052,0.4013265866415852,-6.39522072443232e-05,-0.009965486081252691,1.6966520697940734e-08,9.798547434841323
6.368,0,4,1,0.0,116.1975742315376,0.0,6.279999999999999,160,9,1,0,0,0,0.0,6.279999999999999,6.279999999999999,0.37303814384255585,0.4013261923966174,-6.396280572767456e-05,0.03232461655816966,6.176032306418018e-09,9.846286609502192
6.4,0,4,1,0.5729386976839008,116.7705129292215,0.5729386976839008,6.223655143819362,160,9,1,0,0,0,0.0,6.223655143819362,6.223655143819362,0.3770573438845184,0.4013257981574276,-6.39624493768351e-05,0.004553268016418912,-3.346723083352466e-09,9.821179329790803
6.432,0,4,1,1.1457628381751443,117.91627576739664,0.5728241404912435,6.169143233402604,160,9,1,0,0,0,0.0,6.169143233402604,6.169143233402604,0.38104048408501745,0.40132540746190626,-6.396194385877366e-05,-0.030698723859376914,-1.1315414866031481e-08,9.785889868379634
6.464,0,4,1,2.2906100426385936,120.20688581003523,1.1448472044634492,6.065199984865566,160,9,1,0,0,0,0.0,6.065199984865566,6.065199984865566,0.38498873651130466,0.401325020195424,-6.39640627869073e-05,-0.03693600030928512,-1.7731871668188586e-08,9.8342819681769
6.496,0,4,1,4.004172940709389,124.21105875074463,1.7135628980707955,5.920591547727139,160,9,1,0,0,0,0.0,5.920591547727139,5.920591547727139,0.38887046602123104,0.4013246394609216,-6.391934770920427e-05,-0.0876158192201686,-2.244856645803201e-08,9.826432153034885
6.5280000000000005,0,4,1,5.142764557884225,129.35382330862885,1.1385916171748356,5.830783204987616,160,9,1,0,0,0,0.0,5.830783204987616,5.830783204987616,0.39265964698043987,0.4013242695980264,-6.376482520278198e-05,-0.1116191726408443,1.6941179995289665e-06,9.805416511934796
6.5600000000000005,0,4,1,7.406912128495223,136.76073543712408,2.264147570610998,5.664570104644827,160,9,1,0,0,0,0.0,5.664570104644827,5.664570104644827,0.3963913496280894,0.4013239036176895,-6.375982719043771e-05,-0.07630315566780944,-1.7632970519806673e-06,9.806053275634977
6.5920000000000005,0,4,1,9.090276920822312,145.8510123579464,1.6833647923270894,5.54987562742334,160,9,1,0,0,0,0.0,5.54987562742334,5.54987562742334,0.4000166775046122,0.401323548082737,-6.371601235305967e-05,-0.12266851916365303,-2.791168392168122e-08,9.782997406456394
6.6240000000000006,0,4,1,11.859779120947966,157.71079147889435,2.769502200125654,5.374047857621811,160,9,1,0,0,0,0.0,5.374047857621811,5.374047857621811,0.4035685993983477,0.4013231997575802,-6.370678680286089e-05,-0.08994179687383311,-2.4985850343436686e-08,9.79704453405152
6.656000000000001,0,4,1,13.495733280795811,171.20652475969015,1.635954159847845,5.276118264105919,160,9,1,1,1,1,0.0595,5.335618264105919,5.216618264105919,0.40700799280775674,0.401322862474616,-6.366728143156544e-05,-0.12693874680990647,-2.1836400955204567e-08,9.80063485748126
6.688,0,4,1,15.109575122340447,186.3160998820306,1.6138418415446356,5.182847707968271,160,9,1,2,3,1,0.11950000000000001,5.302347707968272,5.063347707968271,0.4103847100142747,0.4013225782403377,-6.367556101133896e-05,-0.07789187182711214,-3.6369710177926175e-05,9.785101005110988
6.72,0,4,1,17.22343619113144,203.53953607316205,2.1138610687909942,5.0645461479686436,160,9,1,2,5,0,0.125,5.1895461479686436,4.9395461479686436,0.41370175412122345,0.40131745449253864,-6.368643227134228e-05,-0.0744131771071275,-0.004975115069541194,9.843259597292283
6.752,0,4,1,18.778033222445536,222.3175692956076,1.5545970313140955,4.9795969489293155,160,9,1,4,9,2,0.254,5.233596948929316,4.725596948929315,0.4169431094466981,0.40130288423038624,-6.369091575337757e-05,-0.08973695322272326,-0.009838998059931789,9.840361708863256
6.784,0,4,1,20.304473709960448,242.62204300556806,1.5264404875149111,4.897317877337974,160,9,1,4,13,0,0.265,5.162317877337974,4.632317877337974,0.42013015272614485,0.40127889409683903,-6.373774605705589e-05,-0.06873589899503217,-0.010070552361147801,9.827389088957517
6.816,0,4,1,21.305783617828766,263.9278266233968,1.0013099078683183,4.84372742247341,160,9,1,5,18,1,0.3445,5.18822742247341,4.49922742247341,0.4232645199426294,0.4012358192486273,-6.382549690273076e-05,-0.06615526368120749,-0.020127280849290496,9.768196759691252
6.848,0,4,1,22.782405730481685,286.7102323538785,1.4766221126529189,4.764937900894603,160,9,1,5,23,0,0.365,5.129937900894603,4.399937900894603,0.42636448134178634,0.40117335320669817,-6.400029696245792e-05,-0.047518430790925416,-0.020573714663439928,9.75399476341163
6.88,0,4,1,24.22774531795417,310.93797767183264,1.4453395874724855,4.687745016755513,160,9,1,5,28,0,0.39,5.077745016755513,4.297745016755513,0.4294136298333284,0.4010865178227458,-6.424300914542949e-05,-0.06264093367584873,-0.0267631356014164,9.78146885632293
6.912,0,4,1,25.173524524530173,336.11150219636284,0.9457792065760025,4.637008452531117,160,9,1,6,34,1,0.4745000000000001,5.111508452531117,4.162508452531117,0.4324126951459491,0.40097486669410526,-6.457979359013495e-05,-0.06069598486724776,-0.0283231216293609,9.84496698380654
6.944,0,4,1,26.104854009099288,362.21635620546215,0.9313294845691154,4.586749065497178,160,9,1,6,40,0,0.5,5.086749065497178,4.086749065497178,0.43537844116207797,0.4008370060188787,-6.50590631135102e-05,-0.043022241953145704,-0.029931862632396805,9.822954010833676
6.976,0,4,1,27.474431626277134,389.69078783173927,1.3695776171778462,4.512078197170551,160,9,1,5,45,-1,0.4705,4.982578197170551,4.0415781971705504,0.4383105653181218,0.4006676419783127,-6.564423298538284e-05,-0.041913975893550164,-0.03630834551405697,9.810385437024083
7.008,0,4,1,28.369046293278583,418.05983412501786,0.8946146670014485,4.4626662128898635,160,9,1,5,50,0,0.5,4.9626662128898635,3.9626662128898635,0.4411927879735132,0.4004670127926788,-6.626795142293355e-05,-0.056428507187890074,-0.03858903804225803,9.79724086016002
7.04,0,4,1,28.810793742973065,446.87062786799095,0.441747449694482,4.438044307025693,160,9,1,6,56,1,0.5845,5.022544307025694,3.853544307025693,0.444041125665423,0.40023742441120397,-6.697845097440765e-05,-0.03965757491867639,-0.03648302660822379,9.803720581352549
7.072,0,4,1,30.11373315098243,476.9843610189734,1.3029394080093653,4.364417602783343,160,9,1,5,61,-1,0.5505,4.914917602783342,3.813917602783343,0.4468711592471318,0.39997638327262675,-6.78167796308287e-05,-0.022736568327371764,-0.03863894655716078,9.823186993031467
7.104,0,4,1,30.5406048496815,507.52496586865493,0.4268716986990704,4.339928803294204,160,9,1,5,66,0,0.5800000000000001,4.919928803294204,3.759928803294204,0.4496504487439406,0.3996818009901499,-6.859628602032784e-05,-0.05273620546561869,-0.045311607758466176,9.81568476465093
7.136,0,4,1,31.38319105635903,538.9081569250139,0.8425862066775309,4.29098574308139,160,9,1,5,71,0,0.605,4.89598574308139,3.6859857430813903,0.45241023680927256,0.3993539886941591,-6.943760250747999e-05,-0.02059149677105542,-0.04264407163890105,9.76157966828468
7.168,0,4,1,31.798912824294433,570.7070697493084,0.41572176793540194,4.2665169762980515,160,9,1,5,76,0,0.63,4.896516976298051,3.6365169762980516,0.4551343850599463,0.39899355428686645,-7.027109355525751e-05,-0.03515916961860684,-0.045097355608214935,9.837805164830307
7.2,0,4,1,33.02386755579664,603.730937305105,1.2249547315022085,4.19304638433589,160,9,1,4,80,-1,0.5955000000000001,4.78854638433589,3.5975463843358897,0.45783783602437034,0.39859770575506326,-7.112138438273609e-05,-0.018602801026736317,-0.04662194134139447,9.780466866756244
7.232,0,4,1,33.424811182603804,637.1557484877088,0.40094362680716245,4.16851182722942,160,9,1,4,84,0,0.62,4.78851182722942,3.5485118272294196,0.4604886646925898,0.3981703973554279,-7.183679708538775e-05,-0.04836171901880479,-0.04905848312696635,9.810808941316123
7.264,0,4,1,34.21570213243741,671.3714506201462,0.790890949833603,4.1193386230042215,160,9,1,4,88,0,0.64,4.759338623004221,3.4793386230042214,0.4631179720081693,0.39771018370501465,-7.256139834415677e-05,-0.017189233430928506,-0.04626576655477646,9.77138166692534
7.296,0,4,1,34.605675551638576,705.9771261717848,0.38997341920116924,4.094689096142488,160,9,1,4,92,0,0.66,4.754689096142489,3.4346890961424883,0.4657096087179921,0.3972189318753499,-7.322813707946046e-05,-0.03173320822983473,-0.04806471263990435,9.821539662597896
7.328,0,4,1,34.99202019855866,740.9691463703434,0.38634464692008663,4.069988368518839,160,9,1,4,96,0,0.6799999999999999,4.749988368518839,3.3899883685188392,0.46827842248719437,0.3966933628653537,-7.387240527145962e-05,-0.015870074353266175,-0.049260411331163746,9.775052549181357
7.36,0,4,1,35.37475184387608,776.3438982142195,0.38273164531742054,4.04523112275942,160,9,1,4,100,0,0.7,4.74523112275942,3.3452311227594196,0.4708237033682141,0.3961328425442765,-7.448517158384696e-05,-0.015236637290336754,-0.050367835836587195,9.770174458155926
7.392,0,4,1,36.12944414324087,812.4733423574604,0.754692299364784,3.995526785017012,160,9,1,3,103,-1,0.6605000000000001,4.656026785017012,3.3350267850170123,0.47334469187581335,0.395536780732167,-7.507522999258831e-05,-0.014630088643971521,-0.05174342678978716,9.79979457990251
7.424,0,4,1,36.50144112050633,848.9747834779668,0.37199697726546077,3.970569406359113,160,9,1,3,106,0,0.68,4.6505694063591125,3.2905694063591127,0.4758248414341466,0.3949086630671571,-7.522786615788216e-05,-0.030655240642119868,-0.053045616671766355,9.807146173004325
7.456,0,4,1,36.86989764584401,885.8446811238108,0.3684565253376846,3.9455326768225967,160,9,1,3,109,0,0.6950000000000001,4.6405326768225965,3.250532676822597,0.478279912633956,0.3942479226074727,-7.539648160833495e-05,-0.015039169209347353,-0.05007320883649724,9.823189022095097
7.488,0,4,1,37.23483398157467,923.0795151053854,0.3649363357306541,3.9204135129845286,160,9,1,3,112,0,0.7100000000000001,4.6304135129845285,3.2104135129845286,0.4807091531930376,0.39355403961843316,-7.557245497867224e-05,-0.015028005611276651,-0.05120025947876827,9.81028213472457
7.5200000000000005,0,4,1,37.95423087513251,961.033745980518,0.7193968935578425,3.869903452068857,160,9,1,2,114,-1,0.6655000000000001,4.535403452068857,3.2044034520688567,0.4831118493376173,0.39282679856787855,-7.575523959166795e-05,-0.015018877835095175,-0.05201075566312785,9.795538809001984
7.5520000000000005,0,4,1,37.95423087513251,998.9879768556505,0.0,3.869903452068857,160,9,1,3,117,1,0.7394999999999999,4.6094034520688565,3.130403452068857,0.48547153968333523,0.3920710683690594,-7.587604847344477e-05,-0.031131225507403534,-0.052697610102836544,9.80699103164901
7.5840000000000005,0,4,1,38.65980825409008,1037.6477851097407,0.705577378957571,3.8190029355949653,160,9,1,2,119,-1,0.6905,4.509502935594965,3.128502935594965,0.4878199152974023,0.3912801481509334,-7.607182091814817e-05,0.0008735783311811753,-0.04900365127341536,9.834644878242864
7.6160000000000005,0,4,1,39.00747255212105,1076.6552576618617,0.34766429803097054,3.793390425490321,160,9,1,2,121,0,0.705,4.498390425490321,3.0883904254903207,0.4901238304762356,0.39046100402810896,-7.619849156650232e-05,-0.03136407935952168,-0.05368286668999612,9.859672935163609
