Time,SetPoint,Error,DeltaError,DeltaSpeed,BaseSpeed,LeftSpeed,RightSpeed,Angle,X,Y,Z,Roll,Pitch,Yaw
0.032,160,99,30,4.39719730573353,4.925182389969023,9.322379695702553,0.5279850842354925,26.56505117707798,0.26068199999999997,0.38499999999999934,-6.396361800780487e-05,0.040177079540668896,-3.5503646085953533,9.77935870886906
0.064,160,62,-30,2.5130569284276025,5.030703483793977,7.54376041222158,2.5176465553663747,25.01689347810002,0.2585045246376184,0.38502129799560103,-4.944935171686225e-05,2.5567509650526543,0.10894325153481389,9.731598462498702
0.096,160,45,-17,1.8048498845265577,5.110153560232083,6.915003444758641,3.3053036757055256,23.428692808745424,0.25579348863412216,0.38525984610644787,-6.240782773110284e-05,0.7530065153820839,-0.1199485991921731,9.764148500162404
0.128,160,31,-14,1.2470943139728454,5.149815580458684,6.39690989443153,3.9027212664858384,22.61986494804042,0.2527547063543159,0.38563921467799117,-7.277525032898038e-05,0.3829549952298549,-0.09434128993317138,9.836919729117144
0.16,160,17,-14,0.6944857494711663,5.23297170046068,5.927457449931846,4.5384859509895135,20.973493421320804,0.24958915115986904,0.3861405277720043,-8.076809734003376e-05,0.04140283176374437,-0.10494284417148744,9.837546060847751
0.192,160,4,-13,0.17567099694477534,5.317181136242695,5.49285213318747,5.14151013929792,19.290046219188746,0.24628961281850642,0.38676217520561984,-8.858331440591942e-05,0.13240880091957086,-0.1059631034358042,9.803916191714881
0.224,160,-3,-7,-0.1320185052596796,5.359107656250166,5.227089150990486,5.491126161509846,18.434948822922017,0.24296028251483548,0.387445310456511,-9.369584047091983e-05,0.10576226813349085,-0.06751479701840105,9.81856614947434
0.256,160,-5,-2,-0.21662265926128235,5.40230075112848,5.185678091867198,5.618923410389762,17.571258778322406,0.23960764319927816,0.3881388056236137,-9.674286620120834e-05,0.0716440074468383,-0.024083889834178307,9.792077625080497
0.28800000000000003,160,-7,-2,-0.29923218499007326,5.445909802844648,5.146677617854575,5.745141987834721,16.699244233993618,0.23622507210712396,0.3888185796780635,-9.813454491506071e-05,0.05116102282065305,-0.0032053881968781726,9.791698348229186
0.32,160,-7,0,-0.29923218499007326,5.489920352911486,5.190688167921413,5.789152537901559,15.819193947500148,0.23281626625372626,0.38947580307943014,-9.768358177199635e-05,0.02237801745452924,0.002692341136415811,9.77781395346546
0.352,160,-7,0,-0.29923218499007326,5.534316917862485,5.235084732872412,5.833549102852558,14.931417178137554,0.22937260658120137,0.39010377587986905,-9.371273328626258e-05,0.02950830086611567,0.010910715724086483,9.863284481513723
0.384,160,-7,0,-0.29923218499007326,5.579083000313887,5.279850815323814,5.87831518530396,14.036243467926484,0.22589490776705534,0.3907029259941351,-9.058338840329909e-05,0.028953939670430494,0.011099424653299099,9.802881363516168
0.41600000000000004,160,-7,0,-0.29923218499007326,5.624201105841713,5.32496892085164,5.923433290831786,13.134022306396327,0.22238388456213568,0.3912740529134264,-8.829710144428633e-05,0.028484976507288866,0.01197126770754673,9.877530747961798
0.448,160,-7,0,-0.29923218499007326,5.669652765843873,5.3704205808538,5.968884950833946,12.225122675735754,0.2188402408608561,0.39181799933241795,-8.624173495831375e-05,0.02879985441717579,0.013627093544588485,9.752459242572913
0.48,160,-6,1,-0.21358517827056506,5.668743866213212,5.455158687942648,5.882329044483777,12.225122675735754,0.21526449974528752,0.39233559665900103,-8.411942066176639e-05,0.030111107086429403,0.015958196785272855,9.73589562540115
0.512,160,-7,-1,-0.29923218499007326,5.715418566500705,5.416186381510632,6.014650751490778,11.309932474020227,0.21167707038301264,0.3928234836982949,-8.200779846506516e-05,0.012144710695438057,0.020209495359760528,9.744687759534711
0.544,160,-6,1,-0.21358517827056506,5.714503376298989,5.500918198028424,5.928088554569554,11.309932474020227,0.2080685956774323,0.39329437876910966,-8.000651769718772e-05,0.0257086827819007,0.012804213814570796,9.8519635165517
0.5760000000000001,160,-7,-1,-0.29923218499007326,5.808731499864712,5.509499314874639,6.107963684854785,9.46232220802565,0.20444867129419422,0.39373745574630575,-7.80659158895209e-05,0.0180702221705542,0.025567956851698437,9.81397221334339
0.608,160,-6,1,-0.21358517827056506,5.806883889598717,5.593298711328153,6.020469067869282,9.46232220802565,0.20077169928078048,0.39416824815145984,-7.634722467801669e-05,0.067031279252342,0.01893344150827118,9.845228987251353
0.64,160,-6,0,-0.2581960784313724,5.806883889598717,5.548687811167345,6.06507996803009,9.46232220802565,0.19709049457224084,0.3945720951511184,-7.472835912574437e-05,0.0116678096669364,0.030477313245437013,9.802156052318903
0.672,160,-6,0,-0.2581960784313724,5.854393276100673,5.596197197669301,6.112589354532045,8.530765609948096,0.19340563190516866,0.3949573091129864,-7.336249470671873e-05,0.008898347272727147,0.02468175534071413,9.788811928927624
0.704,160,-6,0,-0.2581960784313724,5.901203953811785,5.6430078753804125,6.159400032243157,7.594643368591447,0.18968663057747506,0.3953233149806885,-7.214260500887013e-05,0.03721004354743967,0.030532701548541687,9.826603786412274
0.736,160,-5,1,-0.1720271058176864,5.900267831570428,5.728240725752742,6.072294937388114,7.594643368591447,0.18593400801363635,0.39566986994483005,-7.108131873355579e-05,0.035228566861130337,0.03222712416769779,9.793199508710574
0.768,160,-5,0,-0.21662265926128235,5.948218966022256,5.731596306760974,6.164841625283538,6.654425046006582,0.18217975395229818,0.39599408947267895,-7.006775355265261e-05,0.0024437001747287445,0.03364945340100758,9.824215229765215
0.8,160,-5,0,-0.21662265926128235,5.947278747699671,5.730656088438389,6.163901406960953,6.654425046006582,0.17838578082466044,0.39630706185372194,-6.923361096265214e-05,0.03992744327105786,0.026474664374921672,9.871776606783042
0.8320000000000001,160,-5,0,-0.21662265926128235,5.995414175033526,5.778791515772244,6.212036834294808,5.710593137499633,0.1745909310966006,0.3966022809802,-6.85452580802201e-05,0.0011330359187854086,0.030453453484494002,9.841955804777895
0.864,160,-5,0,-0.21662265926128235,5.994470343125019,5.777847683863737,6.211093002386301,5.710593137499633,0.17076396409288988,0.3968819161355912,-6.795700179692242e-05,0.037102374019840866,0.030649219326198518,9.817968319625102
0.896,160,-4,1,-0.12990968559228563,5.994470343125019,5.864560657532733,6.1243800287173045,5.710593137499633,0.16693627117634308,0.39714332217225234,-6.744586680498647e-05,0.005621058268470663,0.031269221409673253,9.798137635450379
0.928,160,-4,0,-0.17449266890739928,5.994470343125019,5.819977674217619,6.168963012032418,5.710593137499633,0.16310746205052265,0.39738653666280294,-6.695129841947922e-05,0.004828216061933038,0.031038850109279304,9.803345700289368
0.96,160,-4,0,-0.17449266890739928,6.042764866910467,5.868272198003067,6.2172575358178666,4.763641690726143,0.15927799322427708,0.3976194799148295,-6.658613823696397e-05,0.0033228924541574023,0.02308306934062152,9.804661107987027
0.992,160,-4,0,-0.17449266890739928,6.090245825141917,5.915753156234517,6.2647384940493165,3.8140748342903783,0.1554167997419022,0.39783964978439346,-6.62627733704832e-05,0.033661410328973414,0.02670013546188086,9.814793410351893
1.024,160,-3,1,-0.08721310437680947,6.040868348607257,5.953655244230448,6.128081452984067,4.763641690726143,0.15152443211322084,0.39804661984461553,-6.59887531386915e-05,0.033770118357190335,0.02657422937683357,9.865943117812831
1.056,160,-4,-1,-0.17449266890739928,6.090245825141917,5.915753156234517,6.2647384940493165,3.8140748342903783,0.14766293735709446,0.39823700126920475,-6.571745430910755e-05,-0.033050807487184725,0.02645551665362115,9.765177068211864
1.088,160,-3,1,-0.08721310437680947,6.089296258285481,6.002083153908671,6.176509362662291,3.8140748342903783,0.14376950918926468,0.3984221387984504,-6.555807226099955e-05,0.02880930841403675,0.017706855366006212,9.8561050721407
1.12,160,-3,0,-0.1317862444334489,6.089296258285481,5.9575100138520325,6.22108250271893,3.8140748342903783,0.13987604117311497,0.39859201669395933,-6.536033821969572e-05,-0.0024388864740137566,0.025579565904690373,9.833440101870922
1.1520000000000001,160,-3,0,-0.1317862444334489,6.137831408302589,6.006045163869141,6.269617652736038,2.862405226111779,0.13598226367577687,0.3987548786331232,-6.522462161036476e-05,-0.0015974351915564666,0.01696390758857696,9.846123007487837
1.184,160,-3,0,-0.1317862444334489,6.136879738694411,6.005093494260962,6.2686659831278595,2.862405226111779,0.13205698263207696,0.39890760493261007,-6.510764935495177e-05,0.03512527689496684,0.02068625904286873,9.841649186802877
1.216,160,-2,1,-0.043916914309025674,6.136879738694411,6.092962824385385,6.180796653003437,2.862405226111779,0.12813186710867475,0.3990487416551906,-6.500141950979872e-05,0.010274815064325094,0.020384723816522822,9.814289086797364
1.248,160,-3,-1,-0.1317862444334489,6.136879738694411,6.005093494260962,6.2686659831278595,2.862405226111779,0.12420642263959243,0.39917829603087285,-6.484780650712653e-05,0.01036425089148907,0.019822660837105655,9.802127185688152
1.28,160,-2,1,-0.043916914309025674,6.136879738694411,6.092962824385385,6.180796653003437,2.862405226111779,0.12028083426675218,0.3993046832854475,-6.478967680001446e-05,0.00943116606960394,0.01131787535727206,9.793542447289237
1.312,160,-3,-1,-0.1317862444334489,6.185495631143296,6.053709386709848,6.317281875576745,1.9091524329963898,0.11635492826669322,0.3994194175978889,-6.469350519902085e-05,0.007748387080248336,0.019260162578756866,9.80943644792165
1.344,160,-2,1,-0.043916914309025674,6.184542378350181,6.140625464041155,6.228459292659207,1.9091524329963898,0.11240972678078105,0.39953143060715157,-6.463399071638884e-05,0.026739389471558985,0.010469109271258194,9.770028786318914
1.3760000000000001,160,-2,0,-0.08848288712366356,6.184542378350181,6.096059491226518,6.273025265473844,1.9091524329963898,0.10845296099060725,0.3996337006358499,-6.454730140262842e-05,0.019474689615058414,0.016699413175254387,9.756513597949489
1.408,160,-2,0,-0.08848288712366356,6.184542378350181,6.096059491226518,6.273025265473844,1.9091524329963898,0.10449609394894488,0.399732550704572,-6.449772142343504e-05,0.008266042707362968,0.00993411876519061,9.811618345362987
1.44,160,-2,0,-0.08848288712366356,6.184542378350181,6.096059491226518,6.273025265473844,1.9091524329963898,0.10053902962079582,0.39982359804758427,-6.445305812210339e-05,0.007599618328433894,0.0138554498870937,9.842612431939974
1.472,160,-1,1,3.371869474016903e-16,6.184542378350181,6.184542378350181,6.184542378350181,1.9091524329963898,0.0965817831538532,0.3999067830016592,-6.441467990019392e-05,0.006465487026193194,0.013474254834658188,9.808545619114819
1.504,160,-2,-1,-0.08848288712366356,6.184542378350181,6.096059491226518,6.273025265473844,1.9091524329963898,0.09262442076565214,0.39998208883293523,-6.435032228073283e-05,0.004816745337135461,0.013199470822600938,9.810227509431332
1.536,160,-2,0,-0.08848288712366356,6.233212248485507,6.1447293613618434,6.32169513560917,0.9548412538723549,0.08866704259315611,0.40005810128318553,-6.432441405935553e-05,0.0030498001480411,0.004576372800112704,9.808315979289612
1.568,160,-1,1,3.371869474016903e-16,6.183588067171057,6.183588067171057,6.183588067171057,1.9091524329963898,0.08469171041755903,0.40012647230160725,-6.429131019608167e-05,0.021920829659645175,0.012741507611221909,9.81666096311282
1.6,160,-2,-1,-0.08848288712366356,6.233212248485507,6.1447293613618434,6.32169513560917,0.9548412538723549,0.0807347197382114,0.40018854843716406,-6.424480390050148e-05,-0.015997448513015624,0.01050003200903472,9.799637891839422
1.6320000000000001,160,-1,1,3.371869474016903e-16,6.183588067171057,6.183588067171057,6.183588067171057,1.9091524329963898,0.07675930889751054,0.4002515205939565,-6.422129969468893e-05,0.02108351889889964,0.0038215920956799422,9.778532812024142
1.6640000000000001,160,-2,-1,-0.08848288712366356,6.233212248485507,6.1447293613618434,6.32169513560917,0.9548412538723549,0.07280223214915414,0.40030815938731784,-6.418320634755947e-05,-0.017666385440027226,0.010080983715066823,9.828386928947499
1.696,160,-1,1,3.371869474016903e-16,6.183588067171057,6.183588067171057,6.183588067171057,1.9091524329963898,0.068826737850352,0.400365584811015,-6.416481949908862e-05,0.01913561059156573,0.0033706540367907547,9.807024366898382
1.728,160,-2,-1,-0.08848288712366356,6.233212248485507,6.1447293613618434,6.32169513560917,0.9548412538723549,0.06486957847440256,0.40041660075415864,-6.413326439820566e-05,-0.01976478738614206,0.009647761074075776,9.857435455098287
1.76,160,-1,1,3.371869474016903e-16,6.183588067171057,6.183588067171057,6.183588067171057,1.9091524329963898,0.060894001477086145,0.4004682862098373,-6.411946770593785e-05,0.017074746779019278,0.002889274436630671,9.834463974553877
1.792,160,-2,-1,-0.08848288712366356,6.233212248485507,6.1447293613618434,6.32169513560917,0.9548412538723549,0.05693676637024417,0.4005134950474314,-6.40940676504935e-05,-0.021396051818201745,0.009183377034459135,9.791819661263789
1.824,160,-1,1,3.371869474016903e-16,6.2322579373063824,6.2322579373063824,6.2322579373063824,0.9548412538723549,0.052961112402451785,0.40055927619236065,-6.408540791778307e-05,0.015531254745490301,0.002471393386873183,9.817250951538805
1.856,160,-2,-1,-0.08848288712366356,6.280954841253872,6.192471954130209,6.369437728377536,0.0,0.04897266440847251,0.40059885690638786,-6.406847690083178e-05,0.013752683307064374,0.008823822048499658,9.803661323253914
1.8880000000000001,160,-2,0,-0.08848288712366356,6.28,6.191517112876337,6.368482887123664,0.0,0.044981668799618575,0.4006387596201133,-6.40576417194668e-05,0.008014983063432476,0.002178083645712687,9.777834891641596
1.92,160,-1,1,3.371869474016903e-16,6.23130309605251,6.23130309605251,6.23130309605251,0.9548412538723549,0.04099093798670899,0.40067462444817176,-6.404529646555218e-05,0.009090292173711588,0.0062135508662051865,9.815107693659034
1.952,160,-1,0,-0.04456142940615643,6.2322579373063824,6.187696507900226,6.276819366712539,0.9548412538723549,0.03700303363308119,0.40070638613719495,-6.402824224345689e-05,0.009232299498225465,0.006167739481297033,9.807020265391486
1.984,160,-1,0,-0.04456142940615643,6.2322579373063824,6.187696507900226,6.276819366712539,0.9548412538723549,0.03301451484751248,0.40073839925447313,-6.401882287223465e-05,0.014781118035638812,0.001822742514701387,9.818207214754452
2.016,160,-1,0,-0.04456142940615643,6.2322579373063824,6.187696507900226,6.276819366712539,0.9548412538723549,0.029025961692630876,0.40076628305300827,-6.401015912935182e-05,0.013958653700032029,0.005997250911983026,9.813582570037097
2.048,160,-1,0,-0.04456142940615643,6.280954841253872,6.236393411847716,6.325516270660029,0.0,0.02503737903359122,0.4007900268654923,-6.40123102726587e-05,0.012784189889859963,0.005907227012626833,9.74370035686265
2.08,160,-1,0,-0.04456142940615643,6.28,6.2354385705938435,6.324561429406157,0.0,0.021032179734906647,0.4008097312383808,-6.400352285684113e-05,0.028867955321982382,0.0058916208439640525,9.803524056547724
2.112,160,0,1,0.04456142940615711,6.23130309605251,6.275864525458667,6.186741666646354,0.9548412538723549,0.01702727933147426,0.4008275376215456,-6.40044702764006e-05,0.01175639101518103,0.003680823382722078,9.786298164704888
2.144,160,-1,-1,-0.04456142940615643,6.2322579373063824,6.187696507900226,6.276819366712539,0.9548412538723549,0.01303929422601717,0.40084337884316096,-6.400317578847403e-05,-0.009481449741482616,0.003655350939120731,9.760053814794269
2.176,160,-1,0,-0.04456142940615643,6.280954841253872,6.236393411847716,6.325516270660029,0.0,0.009050702290562975,0.4008638784740574,-6.401049061047215e-05,0.002492025972573057,-0.0027886188514480623,9.789783313215272
2.208,160,-1,0,-0.04456142940615643,6.28,6.2354385705938435,6.324561429406157,0.0,0.005045488434779743,0.4008803317886692,-6.400872222732563e-05,0.016036883831194827,0.005716668550073223,9.810809532459304
2.24,160,0,1,0.04456142940615711,6.23130309605251,6.275864525458667,6.186741666646354,0.9548412538723549,0.0010405736769331095,0.4008948417782263,-6.400624146237627e-05,-0.002538359276402697,0.0035024761332614067,9.808079800602863
2.2720000000000002,160,-1,-1,-0.04456142940615643,6.280954841253872,6.236393411847716,6.325516270660029,0.0,-0.0029474332278998307,0.4009072732158035,-6.399311654431937e-05,-0.02410208168387742,0.003457947536998014,9.792030974191027
2.3040000000000003,160,-1,0,-0.04456142940615643,6.28,6.2354385705938435,6.324561429406157,0.0,-0.006952642364349795,0.4009243746695351,-6.39893877635387e-05,0.00784016528659004,-0.003114076493674442,9.783206827395084
2.336,160,-1,0,-0.04456142940615643,6.28,6.2354385705938435,6.324561429406157,0.0,-0.01095755422269598,0.4009394743741,-6.398583271095652e-05,-0.010245943068500213,0.003198587517308703,9.782219071698133
2.368,160,-1,0,-0.04456142940615643,6.28,6.2354385705938435,6.324561429406157,0.0,-0.01496247362764608,0.40095247683477675,-6.398321369819292e-05,-0.010340119613228248,0.003144143691005222,9.781475806437445
2.4,160,0,1,0.04456142940615711,6.23130309605251,6.275864525458667,6.186741666646354,0.9548412538723549,-0.018967399755417048,0.4009633552322511,-6.398197980289622e-05,-0.01011450341830001,0.003035975572700721,9.818977636267503
2.432,160,-1,-1,-0.04456142940615643,6.280954841253872,6.236393411847716,6.325516270660029,0.0,-0.02295541760064313,0.4009720289898147,-6.39716789027512e-05,-0.029024622225514236,0.0029832426625738327,9.788833668227813
2.464,160,-1,0,-0.04456142940615643,6.28,6.2354385705938435,6.324561429406157,0.0,-0.02696064234805732,0.40098527591479804,-6.397481610507724e-05,0.005836872653715207,-0.003624070746570323,9.85628919765618
2.496,160,-1,0,-0.04456142940615643,6.28,6.2354385705938435,6.324561429406157,0.0,-0.030965568576760617,0.40099644056022576,-6.397858467938923e-05,-0.009117818139540802,0.002743683117164336,9.827490141315366
2.528,160,-1,0,-0.04456142940615643,6.28,6.2354385705938435,6.324561429406157,0.0,-0.034970500493118215,0.40100544739460514,-6.398222179150072e-05,-0.005977991938518616,0.0027543263340188045,9.802009212779128
2.56,160,0,1,0.04456142940615711,6.23130309605251,6.275864525458667,6.186741666646354,0.9548412538723549,-0.03897543690291167,0.40101228805076433,-6.398483354361738e-05,-0.002879137801700646,0.0027084850862624105,9.851498801344356
2.592,160,-1,-1,-0.04456142940615643,6.280954841253872,6.236393411847716,6.325516270660029,0.0,-0.04296346070914463,0.4010169395821511,-6.398184162796985e-05,-0.019503960349531054,0.0026646284372472324,9.818194457916624
2.624,160,-1,0,-0.04456142940615643,6.28,6.2354385705938435,6.324561429406157,0.0,-0.04696869773058392,0.40102610967986985,-6.398305453821952e-05,0.01743820659511391,-0.003830741206613924,9.79800528959481
2.656,160,0,1,0.04456142940615711,6.28,6.324561429406157,6.2354385705938435,0.0,-0.05097363381852942,0.40103319339634125,-6.398174359832469e-05,0.003708130258933816,0.0025475212935263673,9.819622883557352
2.688,160,-1,-1,-0.04456142940615643,6.28,6.2354385705938435,6.324561429406157,0.0,-0.05497856939508171,0.40103813288352164,-6.397697050136188e-05,0.007154107119362721,0.0025712704396307334,9.83337828313902
2.72,160,-1,0,-0.04456142940615643,6.28,6.2354385705938435,6.324561429406157,0.0,-0.058983502961289014,0.40104533297103917,-6.397233241864538e-05,0.00993876817508191,-0.0017377847997821412,9.794070028522174
2.7520000000000002,160,0,1,0.04456142940615711,6.28,6.324561429406157,6.2354385705938435,0.0,-0.06298844067827815,0.4010503779954475,-6.396730699164375e-05,0.012128728075433245,0.0025167754394488906,9.788755408279401
2.7840000000000003,160,0,0,3.275157922644211e-16,6.23130309605251,6.23130309605251,6.23130309605251,0.9548412538723549,-0.06699337680011051,0.4010532809729069,-6.39620870102036e-05,0.013520896682752666,0.0025031369970806116,9.839722130215895
2.816,160,0,0,3.275157922644211e-16,6.2322579373063824,6.2322579373063824,6.2322579373063824,0.9548412538723549,-0.07098140748133563,0.401058416256908,-6.396825135364902e-05,-0.005750304046584852,-0.0018096909308702004,9.769878977862302
2.848,160,0,0,3.275157922644211e-16,6.2322579373063824,6.2322579373063824,6.2322579373063824,0.9548412538723549,-0.07497004779778436,0.4010636126555971,-6.397366868391222e-05,0.008118531851310094,0.00031281821910256744,9.804141050217508
2.88,160,0,0,3.275157922644211e-16,6.2322579373063824,6.2322579373063824,6.2322579373063824,0.9548412538723549,-0.07895868763079274,0.4010688568494609,-6.397710730247745e-05,0.0038069250143648375,0.0002904778925039351,9.791723969114834
2.912,160,0,0,3.275157922644211e-16,6.2322579373063824,6.2322579373063824,6.2322579373063824,0.9548412538723549,-0.08294732729408362,0.40107413677502973,-6.39774888707683e-05,-0.00012166134463718699,0.0002623195038230612,9.8056671130211
2.944,160,0,0,3.275157922644211e-16,6.2322579373063824,6.2322579373063824,6.2322579373063824,0.9548412538723549,-0.08693596701339934,0.4010794415291683,-6.397445593645315e-05,-0.004058016808700313,0.00022845980185010883,9.827818118637962
2.976,160,0,0,3.275157922644211e-16,6.2322579373063824,6.2322579373063824,6.2322579373063824,0.9548412538723549,-0.09092460692842638,0.4010847618568831,-6.396843938954663e-05,-0.007770041155973964,0.00019279924976934738,9.837033619873411
3.008,160,0,0,3.275157922644211e-16,6.2322579373063824,6.2322579373063824,6.2322579373063824,0.9548412538723549,-0.09491324711185295,0.4010900903500023,-6.396055483018706e-05,-0.010969671036246739,0.00015857606370724012,9.813180359297881
3.04,160,0,0,3.275157922644211e-16,6.2322579373063824,6.2322579373063824,6.2322579373063824,0.9548412538723549,-0.09890188758691247,0.4010954214344385,-6.395234592489023e-05,-0.013511429733320346,0.00012721892952587808,9.791433632535249
3.072,160,0,0,3.275157922644211e-16,6.2322579373063824,6.2322579373063824,6.2322579373063824,0.9548412538723549,-0.1028905283429001,0.40110075121536815,-6.394543062847487e-05,-0.015159664682564586,9.818260374058991e-05,9.86012175342189
3.104,160,0,0,3.275157922644211e-16,6.2322579373063824,6.2322579373063824,6.2322579373063824,0.9548412538723549,-0.10687916934648332,0.4011060771800001,-6.394019561086796e-05,-0.015091267275101088,7.402229356931949e-05,9.744938685949654
3.136,160,0,0,3.275157922644211e-16,6.2322579373063824,6.2322579373063824,6.2322579373063824,0.9548412538723549,-0.11086781055398219,0.4011113981521367,-6.39431560763657e-05,-0.013983582964083356,5.267843577005021e-05,9.762986818044736
3.168,160,-1,-1,-0.04456142940615643,6.280954841253872,6.236393411847716,6.325516270660029,0.0,-0.11485645192282264,0.4011167136796368,-6.394809321640799e-05,-0.012034970517349053,3.5487369826910314e-05,9.789194087291625
3.2,160,0,1,0.04456142940615711,6.23130309605251,6.275864525458667,6.186741666646354,0.9548412538723549,-0.11886169363778445,0.40112205586018596,-6.395970376886842e-05,0.01016630724236536,5.598153087622826e-06,9.804524766178071
3.232,160,-1,-1,-0.04456142940615643,6.280954841253872,6.236393411847716,6.325516270660029,0.0,-0.12284972500083823,0.4011251913635122,-6.39622760845171e-05,-0.019998733997370666,0.0021299582893567594,9.832728465971107
3.2640000000000002,160,-1,0,-0.04456142940615643,6.28,6.2354385705938435,6.324561429406157,0.0,-0.12685496627457546,0.4011327664068595,-6.396340245885465e-05,0.02023754631031679,-0.004304155093013002,9.783431732690437
3.2960000000000003,160,0,1,0.04456142940615711,6.23130309605251,6.275864525458667,6.186741666646354,0.9548412538723549,-0.1308599070161933,0.4011381747101339,-6.395640906459339e-05,0.009309321113866216,0.002110543062804676,9.815540171741246
3.3280000000000003,160,-1,-1,-0.04456142940615643,6.280954841253872,6.236393411847716,6.325516270660029,0.0,-0.13484794014285004,0.40114137168592584,-6.395223783243857e-05,-0.004585843989356474,0.0021299494133863372,9.814694841449207
3.36,160,-1,0,-0.04456142940615643,6.28,6.2354385705938435,6.324561429406157,0.0,-0.13885318193033927,0.4011489596402042,-6.393920949072061e-05,0.033786373246454476,-0.0042702978255995845,9.787677271739925
3.392,160,-1,0,-0.04456142940615643,6.28,6.2354385705938435,6.324561429406157,0.0,-0.14285812148167756,0.4011543814878392,-6.392416994224596e-05,0.016068448622181344,0.002108578744196953,9.772462630264172
3.424,160,0,1,0.04456142940615711,6.23130309605251,6.275864525458667,6.186741666646354,0.9548412538723549,-0.14686306418173034,0.40115757947973285,-6.393464352082157e-05,0.015018571763900306,0.00216848650827022,9.751213315523394
3.456,160,-1,-1,-0.04456142940615643,6.280954841253872,6.236393411847716,6.325516270660029,0.0,-0.1508510936097768,0.40115859465236964,-6.395409337022623e-05,-0.0073887416535739275,0.0021247239486887008,9.827938373685798
3.488,160,-1,0,-0.04456142940615643,6.28,6.2354385705938435,6.324561429406157,0.0,-0.15485633796222886,0.40116401250392564,-6.396300646616983e-05,0.022927857138918362,-0.004268006447227025,9.834670330758927
3.52,160,0,1,0.04456142940615711,6.23130309605251,6.275864525458667,6.186741666646354,0.9548412538723549,-0.15886127932069666,0.4011672999383346,-6.396989661428508e-05,0.00256799106713622,0.002151901262627374,9.795243236640816
3.552,160,-1,-1,-0.04456142940615643,6.280954841253872,6.236393411847716,6.325516270660029,0.0,-0.16284930998788963,0.40116839417322586,-6.397214472834284e-05,-0.020554588482595414,0.0022371245716232163,9.800886352285916
3.584,160,-1,0,-0.04456142940615643,6.28,6.2354385705938435,6.324561429406157,0.0,-0.1668545529196834,0.40117394034344395,-6.397104848357253e-05,0.009576182677039,-0.004234821134156083,9.803943125612337
3.616,160,0,1,0.04456142940615711,6.28,6.324561429406157,6.2354385705938435,0.0,-0.17085949316735577,0.4011773575025588,-6.396795136127953e-05,-0.010392138454007126,0.002196138867223038,9.834532464142486
3.648,160,-1,-1,-0.04456142940615643,6.28,6.2354385705938435,6.324561429406157,0.0,-0.17486443167831567,0.4011785554037099,-6.396383074374831e-05,-0.012328133223188627,0.0022876043241759295,9.832764217164579
3.68,160,-1,0,-0.04456142940615643,6.28,6.2354385705938435,6.324561429406157,0.0,-0.1788693695774983,0.4011820075940637,-6.39607437585097e-05,-0.013843797950709131,-0.002081692744240532,9.791746987823833
3.712,160,0,1,0.04456142940615711,6.23130309605251,6.275864525458667,6.186741666646354,0.9548412538723549,-0.18287430980041744,0.4011832722457581,-6.395921369094747e-05,-0.014534167477203345,0.0022646228832921126,9.816733298212958
3.744,160,-1,-1,-0.04456142940615643,6.280954841253872,6.236393411847716,6.325516270660029,0.0,-0.18686233833457527,0.4011823002531295,-6.394516401175832e-05,-0.0308287930762859,0.0023223064406218703,9.837528018820736
3.7760000000000002,160,-1,0,-0.04456142940615643,6.28,6.2354385705938435,6.324561429406157,0.0,-0.19086758310186597,0.4011858123685893,-6.395978092268995e-05,0.0067435179622119396,-0.004217758310509335,9.823159762106743
3.8080000000000003,160,0,1,0.04456142940615711,6.23130309605251,6.275864525458667,6.186741666646354,0.9548412538723549,-0.19487252457249904,0.40118719357601806,-6.39704567458859e-05,-0.005443911048837366,0.002228638416183491,9.793340011219167
3.84,160,0,0,3.275157922644211e-16,6.2322579373063824,6.2322579373063824,6.2322579373063824,0.9548412538723549,-0.19886055568566333,0.40118636725218326,-6.39729726665244e-05,-0.01964775417201464,0.002307409172194018,9.808766280056831
3.872,160,-1,-1,-0.04456142940615643,6.280954841253872,6.236393411847716,6.325516270660029,0.0,-0.20284920194064485,0.40118997269077483,-6.397552698000214e-05,-0.0005525859814653752,-0.004167158722555082,9.815449344418406
3.904,160,-1,0,-0.04456142940615643,6.28,6.2354385705938435,6.324561429406157,0.0,-0.20685444446391033,0.4011936212978216,-6.39757460235181e-05,0.020585426447719445,9.256049300063162e-05,9.805683210474811
3.936,160,-1,0,-0.04456142940615643,6.28,6.2354385705938435,6.324561429406157,0.0,-0.21085938458125036,0.4011951020950369,-6.396944839034795e-05,0.00932943892839538,0.002209803328967675,9.79163480994736
3.968,160,-1,0,-0.04456142940615643,6.28,6.2354385705938435,6.324561429406157,0.0,-0.21486432589968113,0.40119435467508446,-6.395887409531807e-05,0.014236199517957047,0.0022572784795143385,9.765657896517197
4.0,160,0,1,0.04456142940615711,6.23130309605251,6.275864525458667,6.186741666646354,0.9548412538723549,-0.2188692661205804,0.40119138791052494,-6.394375008702928e-05,0.014237906099660233,0.0022613245961307974,9.778804127173343
4.032,160,-1,-1,-0.04456142940615643,6.280954841253872,6.236393411847716,6.325516270660029,0.0,-0.22285728831690874,0.4011862863246815,-6.395661885748652e-05,-0.006512594855481416,0.002229318422341459,9.815624641498065
4.064,160,-1,0,-0.04456142940615643,6.28,6.2354385705938435,6.324561429406157,0.0,-0.2268625359899099,0.4011855926220843,-6.396233973617917e-05,0.025463309002125473,-0.004130451498620812,9.809933191872771
4.096,160,0,1,0.04456142940615711,6.28,6.324561429406157,6.2354385705938435,0.0,-0.23086747764556617,0.40118280224797276,-6.396810485682393e-05,0.006301456639197831,0.002286806186438867,9.807822281766091
4.128,160,-1,-1,-0.04456142940615643,6.28,6.2354385705938435,6.324561429406157,0.0,-0.23487241289648797,0.40117786654107235,-6.397171308458738e-05,0.004232598544487067,0.0023453922470847255,9.787632319617087
4.16,160,0,1,0.04456142940615711,6.28,6.324561429406157,6.2354385705938435,0.0,-0.23887735232900975,0.4011751936819636,-6.397528410679101e-05,0.0016198548758688217,-0.0019269440434802262,9.824491367614291
4.192,160,-1,-1,-0.04456142940615643,6.28,6.2354385705938435,6.324561429406157,0.0,-0.24288228804047224,0.4011703747784432,-6.397553666153376e-05,-0.001123531726126342,0.0024054223636155855,9.813757265578449
4.224,160,0,1,0.04456142940615711,6.28,6.324561429406157,6.2354385705938435,0.0,-0.2468872265378126,0.4011678253392834,-6.397525118768434e-05,-0.003784257097374851,-0.0019331960987293115,9.79348013024464
4.256,160,-1,-1,-0.04456142940615643,6.28,6.2354385705938435,6.324561429406157,0.0,-0.25089216292424327,0.4011631067928576,-6.39723372350496e-05,-0.0062055091033177325,0.0024017094459292117,9.816691149730724
4.288,160,0,1,0.04456142940615711,6.28,6.324561429406157,6.2354385705938435,0.0,-0.2548971012549413,0.4011606512026631,-6.396950838598661e-05,-0.008279515363745386,-0.0019524158574228759,9.839257809594177
4.32,160,0,0,3.275157922644211e-16,6.23130309605251,6.23130309605251,6.23130309605251,0.9548412538723549,-0.2589020382050133,0.4011559987767589,-6.396595570888966e-05,-0.009843297516653884,0.0023878314483987964,9.856372683382064
4.352,160,0,0,3.275157922644211e-16,6.2322579373063824,6.2322579373063824,6.2322579373063824,0.9548412538723549,-0.2628900719645195,0.40115359900349506,-6.39552180199416e-05,-0.030764958251733122,-0.0019951142731088802,9.791088570975987
4.384,160,0,0,3.275157922644211e-16,6.2322579373063824,6.2322579373063824,6.2322579373063824,0.9548412538723549,-0.2668787153634788,0.4011512164885202,-6.394084634762064e-05,-0.013553712888326854,0.00014187468837592528,9.808994839812016
4.416,160,0,0,3.275157922644211e-16,6.2322579373063824,6.2322579373063824,6.2322579373063824,0.9548412538723549,-0.270867358385756,0.40114883565588,-6.394519081971001e-05,-0.013436925804837479,0.00011186156311212863,9.849784111332438
4.448,160,0,0,3.275157922644211e-16,6.2322579373063824,6.2322579373063824,6.2322579373063824,0.9548412538723549,-0.27485600120811143,0.4011464463319754,-6.395073549476937e-05,-0.011810238576597607,7.815571105196844e-05,9.836970858346621
4.48,160,0,0,3.275157922644211e-16,6.2322579373063824,6.2322579373063824,6.2322579373063824,0.9548412538723549,-0.2788446440281245,0.401144042254097,-6.395661108158507e-05,-0.009455666166460992,4.675271277149121e-05,9.71255446534156
4.5120000000000005,160,0,0,3.275157922644211e-16,6.2322579373063824,6.2322579373063824,6.2322579373063824,0.9548412538723549,-0.28283328697011767,0.4011416204259468,-6.39617505982619e-05,-0.0065445277512297785,1.9703706869169834e-05,9.882059385756833
4.5440000000000005,160,0,0,3.275157922644211e-16,6.280954841253872,6.280954841253872,6.280954841253872,0.0,-0.28682193010173235,0.40113918028913803,-6.396513559951689e-05,-0.0032621829967818487,-2.2972590180680487e-06,9.816700276977386
4.5760000000000005,160,0,0,3.275157922644211e-16,6.28,6.28,6.28,0.0,-0.2908411275953766,0.4011367041047619,-6.396402572319063e-05,0.036133623696998865,-1.852088929048116e-05,9.798484971722315
4.6080000000000005,160,0,0,3.275157922644211e-16,6.28,6.28,6.28,0.0,-0.2948603261372612,0.4011342128065041,-6.394449603152295e-05,0.015447004247314136,-2.911326586496763e-05,9.848693190283633
4.64,160,0,0,3.275157922644211e-16,6.28,6.28,6.28,0.0,-0.29887952369343673,0.4011317097817067,-6.390903628230096e-05,0.015128467212935605,-3.287433169072624e-05,9.784240220884286
4.672,160,0,0,3.275157922644211e-16,6.28,6.28,6.28,0.0,-0.30289872272714924,0.40112919626935317,-6.39181446273323e-05,0.01407918939149363,-3.3984084201323504e-05,9.77447106062581
4.704,160,0,0,3.275157922644211e-16,6.28,6.28,6.28,0.0,-0.30691792187206857,0.401126675950698,-6.392810401539654e-05,0.012133993800073793,-3.4243112122723667e-05,9.85706305321628
4.736,160,0,0,3.275157922644211e-16,6.28,6.28,6.28,0.0,-0.3109371211034081,0.4011241512182721,-6.39378639384243e-05,0.009406208724478936,-3.155407434985095e-05,9.835862080106915
4.768,160,0,0,3.275157922644211e-16,6.28,6.28,6.28,0.0,-0.314956320397339,0.4011216240607618,-6.394620140872179e-05,0.0062027016754949435,-2.7381735966916056e-05,9.846877771264271
4.8,160,0,0,3.275157922644211e-16,6.28,6.28,6.28,0.0,-0.3189755197331593,0.401119096030627,-6.395200353131666e-05,0.002551396061945825,-2.268705979672164e-05,9.841927995413217
4.832,160,0,0,3.275157922644211e-16,6.28,6.28,6.28,0.0,-0.32299471909419725,0.40111656825741265,-6.39545786649924e-05,-0.0012099187793400098,-1.8034392365388414e-05,9.801719226158573
4.864,160,0,0,3.275157922644211e-16,6.28,6.28,6.28,0.0,-0.32701391846765676,0.40111404149114693,-6.39538575207231e-05,-0.004912000613463733,-1.3272532517282387e-05,9.795537868492922
4.896,160,0,0,3.275157922644211e-16,6.28,6.28,6.28,0.0,-0.331033117843826,0.40111151616263097,-6.395043915072285e-05,-0.008272292092720308,-9.215070446511152e-06,9.807627427210784
4.928,160,0,0,3.275157922644211e-16,6.28,6.28,6.28,0.0,-0.33505231721514384,0.40110899245031656,-6.394547292345489e-05,-0.011261011387714313,-5.847448107896835e-06,9.802193472885286
4.96,160,0,0,3.275157922644211e-16,6.28,6.28,6.28,0.0,-0.3390715165755311,0.4011064703462479,-6.39404057907484e-05,-0.013459070265877582,-3.160885615126939e-06,9.883674954433229
4.992,160,0,0,3.275157922644211e-16,6.28,6.28,6.28,0.0,-0.3430907159201715,0.40110394971603,-6.393665552063311e-05,-0.0149640203763026,-1.1419993837662601e-06,9.826440371085406
5.024,160,0,0,3.275157922644211e-16,6.28,6.28,6.28,0.0,-0.34710991525528934,0.4011014303771031,-6.393461565481692e-05,-0.014822836863765369,-5.3984345287811475e-08,9.840168478339685
5.056,160,0,0,3.275157922644211e-16,6.28,6.28,6.28,0.0,-0.3511291145548922,0.4010989120337619,-6.393854621699821e-05,-0.013792443380260717,9.382950319692804e-07,9.789866411680661
5.088,160,0,0,3.275157922644211e-16,6.28,6.28,6.28,0.0,-0.3551483138327463,0.40109639445972256,-6.394424759112623e-05,-0.01189281455431974,1.448454606725617e-06,9.787225625640483
5.12,160,0,0,3.275157922644211e-16,6.28,6.28,6.28,0.0,-0.35916751309064504,0.4010938774249568,-6.395059492021564e-05,-0.009311253305972465,1.6564253187660067e-06,9.84708726957933
5.152,160,0,0,3.275157922644211e-16,6.28,6.28,6.28,0.0,-0.3631867123306566,0.40109136072964485,-6.395627396411224e-05,-0.006174513089234027,1.6384811541598937e-06,9.805954032678075
5.184,160,0,0,3.275157922644211e-16,6.28,6.28,6.28,0.0,-0.3672059115545885,0.4010888442105046,-6.396009290997665e-05,-0.002711643753389408,1.4743738796956138e-06,9.815217770710927
5.216,160,0,0,3.275157922644211e-16,6.28,6.28,6.28,0.0,-0.37122511076383957,0.40108632774217967,-6.396126939155894e-05,0.0009319991247327775,1.2325721783741482e-06,9.841988282684758
5.248,160,0,0,3.275157922644211e-16,6.28,6.28,6.28,0.0,-0.375244309959665,0.4010838112351275,-6.39596199221281e-05,0.004502624187496608,9.426957795771271e-07,9.861823806505893
5.28,160,0,0,3.275157922644211e-16,6.28,6.28,6.28,0.0,-0.37926350914367674,0.40108129463130426,-6.395560741677235e-05,0.007876944218249058,6.678389094061842e-07,9.863873020589995
5.312,160,0,0,3.275157922644211e-16,6.28,6.28,6.28,0.0,-0.38328270831828437,0.40107877789869023,-6.395023582764399e-05,0.010754953431454776,4.103026877696642e-07,9.762085945542475
5.344,160,0,0,3.275157922644211e-16,6.28,6.28,6.28,0.0,-0.38730190748681115,0.4010762610254782,-6.394481682612217e-05,0.012992806103871941,1.9983683862555333e-07,9.791099243669976
5.376,160,0,0,3.275157922644211e-16,6.28,6.28,6.28,0.0,-0.3913211066531841,0.4010737440145016,-6.394066355952521e-05,0.014302986742065558,3.2877059475260075e-08,9.832528171000467
5.408,160,0,0,3.275157922644211e-16,6.28,6.28,6.28,0.0,-0.39534030576536017,0.4010712269008673,-6.393810924072013e-05,0.014328275850490929,-8.078820212985486e-08,9.811500843419354
5.44,160,0,0,3.275157922644211e-16,6.23130309605251,6.23130309605251,6.23130309605251,0.9548412538723549,-0.39935950494920713,0.40106870965058106,-6.394114211626979e-05,0.013421712070881123,-1.1669620075995886e-07,9.793915465642034
5.472,160,0,0,3.275157922644211e-16,6.183588067171057,6.183588067171057,6.183588067171057,1.9091524329963898,-0.4033475389136402,0.4010662118337913,-6.395862816868485e-05,-0.024734799723137767,-1.9559222215386775e-07,9.80565244449606
5.5040000000000004,160,0,0,3.275157922644211e-16,6.087391335884187,6.087391335884187,6.087391335884187,3.8140748342903783,-0.40730503517258654,0.4010637330786054,-6.395919533068797e-05,-0.03859371938279524,-2.1921729581903918e-07,9.855289775193567
5.5360000000000005,160,0,0,3.275157922644211e-16,5.944438397487954,5.944438397487954,5.944438397487954,6.654425046006582,-0.4112009664068654,0.4010612928375935,-6.385870317228426e-05,-0.09492289106736797,-2.1871929146940262e-07,9.829335546893866
5.5680000000000005,160,0,0,3.275157922644211e-16,5.804075992436698,5.804075992436698,5.804075992436698,9.46232220802565,-0.4150054084265728,0.4010589122449703,-6.369266663091601e-05,-0.12041776496475602,-2.5165950423414324e-06,9.85066394685783
5.6000000000000005,160,0,0,3.275157922644211e-16,5.573613905343775,5.573613905343775,5.573613905343775,14.036243467926484,-0.41872001891724714,0.4010565855603736,-6.368350129812121e-05,-0.1151252613272001,2.102794235267051e-06,9.833009571809256
5.632,160,0,0,3.275157922644211e-16,5.3102438862893,5.3102438862893,5.3102438862893,19.290046219188746,-0.42228713548343266,0.40105435125829536,-6.36270047095662e-05,-0.16931646657746616,-1.6029592458077495e-07,9.818506088631754
5.664,160,-1,-1,-0.04456142940615643,5.104426712973172,5.0598652835670155,5.148988142379329,23.428692808745424,-0.42568569553564517,0.4010522225346147,-6.356214975142792e-05,-0.18812835427443816,-1.3438325587510597e-07,9.84940606065772
5.696,160,-3,-2,-0.1317862444334489,4.948611082777768,4.81682483834432,5.080397327211217,26.56505117707798,-0.4289525324943749,0.40105022202668245,-6.353857032770013e-05,-0.14987819384120515,8.482671137083346e-05,9.77756435700867
5.728,160,-4,-1,-0.17449266890739928,4.727413468041329,4.552920799133929,4.901906136948728,30.96375653207351,-0.43211965960383314,0.4010448606192571,-6.354599660229193e-05,-0.11724970780176748,0.0037672434563991416,9.7998769308875
5.76,160,-6,-2,-0.2581960784313724,4.592770312707105,4.334574234275733,4.850966391138478,33.69006752597977,-0.4351452684553884,0.4010298962489187,-6.352679408473845e-05,-0.15686355023095525,0.010635030259403273,9.82989202702858
5.792,160,-8,-2,-0.3397496630078951,4.464744342916296,4.124994679908401,4.804494005924191,36.2538377374448,-0.4380847519214418,0.40100281717577985,-6.35835212653476e-05,-0.10169116020268833,0.013162791295865232,9.817661360970153
5.824,160,-9,-1,-0.37976665046183755,4.315148114953965,3.935381464492128,4.6949147654158025,39.23736711340156,-0.4409423198999936,0.4009585008432095,-6.369124472199901e-05,-0.09667622954150375,0.018950954517829206,9.838863032949975
5.856,160,-10,-1,-0.41930076628352486,4.177889529826752,3.758588763543227,4.597190296110277,41.987212495816664,-0.4437039808996468,0.40089282632254947,-6.385905931837431e-05,-0.109723717061629,0.02442584687170016,9.791389053368496
5.888,160,-12,-2,-0.4969884169884168,4.076509330980855,3.579520913992438,4.573497747969272,44.02897806892083,-0.4463773666930275,0.40080472353118074,-6.412439677524161e-05,-0.10073941999070557,0.026522965221363826,9.835130204265738
5.92,160,-13,-1,-0.5351748206015421,3.957772745676806,3.422597925075264,4.492947566278348,46.39718102729637,-0.4489852198307391,0.40069262697288244,-6.452373790666668e-05,-0.0769151453618946,0.028310480109506046,9.767132441783358
5.952,160,-14,-1,-0.5729441359343109,3.8705001949229056,3.2975560589885946,4.443444330857217,48.15484286479198,-0.45151595852513,0.4005537670315347,-6.501919695048666e-05,-0.0872272743240046,0.032864792318250326,9.797255642499332
5.984,160,-15,-1,-0.6103117505995204,3.768238968570317,3.157927217970797,4.378550719169837,50.1944289077348,-0.4539892359913772,0.40038664110242406,-6.56384369120775e-05,-0.06616340898631984,0.034853124824083516,9.748729302879086
6.016,160,-15,0,-0.6103117505995204,3.6744440074847047,3.064132256885184,4.284755758084225,52.07353767496138,-0.45639498788255023,0.40019144088594977,-6.634283782702005e-05,-0.07482775387114461,0.03665423599321195,9.799978704974517
6.048,160,-16,-1,-0.6526207857868501,3.6050451613912053,2.9524243756043553,4.257665947178055,53.47114463301482,-0.4587379670188414,0.39996757626193497,-6.709735355838083e-05,-0.06873148573736661,0.038448477296807976,9.803418572453973
6.08,160,-17,-1,-0.6944857494711659,3.5558927120237085,2.8614069625525427,4.250378461494875,54.46232220802562,-0.4610334785728332,0.3997154372298108,-6.792615500213206e-05,-0.05243437099476265,0.03770917827878423,9.801972049258875
6.112,160,-18,-1,-0.7359238095238091,3.524489598620186,2.788565789096377,4.260413408143995,55.097504384075286,-0.46329383790305045,0.39943262731014867,-6.881308080047832e-05,-0.03880013003172927,0.039672352243629784,9.796494076184896
6.144,160,-19,-1,-0.7769517038288486,3.4937282302217327,2.7167765263928843,4.270679934050581,55.71312302279104,-0.4655296418691922,0.3991164966918933,-6.975186902860239e-05,-0.026526561661293444,0.041410098753811804,9.84872692771788
6.176,160,-19,0,-0.7769517038288486,3.4413135782389195,2.664361874410071,4.218265282067768,56.75293225066415,-0.46774050861879923,0.39876559818094437,-7.073030745936154e-05,-0.025033810784325983,0.04436523244648956,9.848443723498066
6.208,160,-20,-1,-0.8175857627912418,3.4275815999635304,2.6099958371722884,4.245167362754772,57.04257514288498,-0.4699117109131742,0.3983810024804653,-7.167525313734116e-05,-0.03780378553918608,0.046425639523503835,9.821467971621292
6.24,160,-20,0,-0.8175857627912418,3.399003628681207,2.581417865889965,4.216589391472449,57.608606793366235,-0.4720672335890211,0.3979595906485301,-7.267833961920912e-05,-0.012572213886924305,0.04573669254943662,9.82217110073151
6.272,160,-21,-1,-0.8578419309039278,3.3854649674085,2.527623036504572,4.243306898312428,57.885169399703265,-0.4741965737861236,0.39750174913134617,-7.364016045562777e-05,-0.021031864230471757,0.04839581701711031,9.786301673040732
6.304,160,-22,-1,-0.8977357874355564,3.371850489658948,2.4741147022233916,4.269586277094504,58.15754274001482,-0.4763086816629118,0.3970063519445581,-7.463414976598831e-05,-0.010912740291158783,0.048210984046233335,9.786715102896247
6.336,160,-22,0,-0.8977357874355564,3.3584412710045664,2.46070548356901,4.256177058440123,58.42580924971468,-0.4784024106188849,0.3964719078192229,-7.564940323425383e-05,-0.009993473872667273,0.05041628197580999,9.798488207798627
6.368,160,-23,-1,-0.9372825662969754,3.323143276281795,2.38586070998482,4.260425842578771,59.123186920939595,-0.48047648118221264,0.3958970801054898,-7.662774182798371e-05,-0.009160530269274306,0.052686350669768456,9.84627316886239
6.4,160,-24,-1,-0.9764971751412426,3.310672062775319,2.3341748876340764,4.287169237916562,59.381394591090604,-0.48251681567369953,0.39528639187608605,-7.76064839821955e-05,-0.02202965619334521,0.05339699114453925,9.821118276843102
6.432,160,-24,0,-0.9764971751412426,3.297959215599268,2.3214620404580253,4.274456390740511,59.635728999839664,-0.48453623208049307,0.39463474038412216,-7.862371780364454e-05,-0.006850870033151531,0.0548717163081307,9.785789522052163
6.464,160,-25,-1,-1.0153942137488752,3.298213550008017,2.282819336259142,4.313607763756892,59.635728999839664,-0.48653296956086567,0.3939410815753136,-7.960437691282088e-05,-0.006460162482884366,0.05678311449323389,9.834271006122888
6.496,160,-26,-1,-1.0539879917472237,3.285436119699944,2.2314481279527203,4.339424111447167,59.88626684901757,-0.48851411328611993,0.3932033138624829,-8.00534303938491e-05,0.0017182887540618497,0.05636819375837706,9.827003121122598
6.5280000000000005,160,-26,0,-1.0539879917472237,3.2512492402572644,2.1972612485100407,4.3052372320044885,60.5615103253285,-0.4904702719321568,0.3924229724198298,-8.054129026151789e-05,-0.006278599903608778,0.05860648420195173,9.80546443070825
6.5600000000000005,160,-27,-1,-1.0922925457102668,3.2396332986746166,2.14734075296435,4.331925844384884,60.80251395393553,-0.49238696725667674,0.39160451287403975,-8.10198695716316e-05,-0.019923722956676944,0.060967412160154666,9.806280658812073
6.5920000000000005,160,-28,-1,-1.1303216556827378,3.2398743023032237,2.109552646620486,4.3701959579859615,60.80251395393553,-0.4942768899060755,0.39074350240375366,-8.153388275550753e-05,-0.005650187718978455,0.06025769099786994,9.783080644974829
6.6240000000000006,160,-28,0,-1.1303216556827378,3.2277654053454032,2.0974437496626654,4.358087061028141,61.03994330604966,-0.4961452091814376,0.38983579282985514,-8.208352263552876e-05,0.001896888151062154,0.06189802526199353,9.797125538027986
6.656000000000001,160,-29,-1,-1.168088861170301,3.2280028346975174,2.059913973527216,4.396091695867819,61.03994330604966,-0.4979826890492314,0.38888402557847884,-8.26212425569621e-05,-0.00599849563506553,0.06407768237596637,9.800756850576422
6.688,160,-30,-1,-1.2056074766355138,3.2496319567295657,2.044024480094052,4.4552394333650795,60.61584287404871,-0.4997954365469193,0.3878853880524325,-8.319454107745365e-05,0.0018839092572404267,0.06382221727368677,9.785160736757277
6.72,160,-31,-1,-1.2470943139728459,3.2614270291839134,2.0143327152110677,4.508521343156759,60.376251248826186,-0.5015932720075404,0.38683208255029594,-8.380874390033835e-05,0.015409657626562774,0.06543481345769935,9.84325796459947
6.752,160,-31,0,-1.2470943139728459,3.2611874375586907,2.0140931235858446,4.508281751531537,60.376251248826186,-0.5033682508369769,0.385725840430078,-8.447024861979284e-05,0.009495916237345322,0.06833303479497085,9.840362966844884
6.784,160,-32,-1,-1.2883007754078364,3.2861766419489307,1.9978758665410943,4.574477417356767,59.88626684901757,-0.5051110226783208,0.3845698630070081,-8.512580649036074e-05,0.0017708588850220888,0.07067968267506303,9.827448406529866
6.816,160,-32,0,-1.2883007754078364,3.298464087857195,2.0101633124493583,4.5867648632650315,59.635728999839664,-0.506812524021649,0.3833702939836808,-8.583836427397684e-05,-0.007196534357327391,0.07164623804286223,9.768185312295214
6.848,160,-30,2,-1.11473153916324,3.333168245517593,2.2184367063543533,4.447899784680833,58.95034281337738,-0.5084423658153795,0.382145052555795,-8.655023488067341e-05,-0.0394606812811599,0.07619115475347553,9.754045981287895
6.88,160,-31,-1,-1.2470943139728459,3.3592340710779287,2.1121397571050826,4.606328385050775,58.42580924971468,-0.5100580861549274,0.38084843512456057,-8.703148488494253e-05,0.03400484493468342,0.07605645365502857,9.781744108771841
6.912,160,-30,1,-1.1598483777011963,3.372391129508959,2.2125427518077627,4.532239507210155,58.15754274001482,-0.511644372163195,0.3795022965028964,-8.769236940265115e-05,0.010528476140101294,0.06952015450842111,9.84487112908936
6.944,160,-30,0,-1.2056074766355138,3.400118596278337,2.194511119642823,4.605726072913851,57.608606793366235,-0.5131987156503339,0.378099086064888,-8.819648352236496e-05,0.015299103106841455,0.07635690295867159,9.823198232191151
6.976,160,-29,1,-1.1224125984396973,3.4284372745062326,2.306024676066535,4.55084987294593,57.04257514288498,-0.5147233425907473,0.37664196694067575,-8.873931697573646e-05,0.016588584431709037,0.07260323827598887,9.810405990994145
7.008,160,-30,-1,-1.2056074766355138,3.5112492982058923,2.3056418215703784,4.716856774841406,55.40771131249006,-0.5162204526869588,0.3751244291629244,-8.911324262066665e-05,0.024274426424113718,0.0754854222285137,9.797407690343228
7.04,160,-28,2,-1.0397683060711709,3.5578292787031836,2.5180609726320125,4.597597584774355,54.46232220802562,-0.517708367458343,0.3735315307489758,-8.959415815941799e-05,0.04893093804708282,0.07173778965215764,9.803649751683695
7.072,160,-29,-1,-1.168088861170301,3.6604605156782277,2.4923716545079264,4.828549376848529,52.43140797117251,-0.5191749410987025,0.3718663775728872,-8.976278802455724e-05,0.040395493088697186,0.07780573406482487,9.823540927106405
