Time,SetPointAngle,SensorAngleRow,SensorAngleWidth,Angle,IntegralAngle,DeltaAngle,BaseSpeed,SetPointError,SensorErrorRow,SensorErrorWidth,Error,IntegralError,DeltaError,DeltaSpeed,LeftSpeed,RightSpeed,X,Y,Z,Roll,Pitch,Yaw
0.032,0,4,1,0.5729386976839008,0.5729386976839008,0.5729386976839008,6.223655143819362,160,9,1,0,0,0,0.0,6.223655143819362,6.223655143819362,-0.561500000000001,0.12999999999999848,-6.397066024614768e-05,-4.362072260548527e-07,1.0325598529030157e-07,9.779364405955523
0.064,0,4,1,0.5729386976839008,1.1458773953678016,0.0,6.223655143819362,160,9,1,0,0,0,0.0,6.223655143819362,6.223655143819362,-0.561499995941924,0.12601891272907156,-1.545508398432746e-05,4.674075626099397,9.01849169657453e-08,9.556768136423775
0.096,0,4,1,0.5729386976839008,1.7188160930517025,0.0,6.223655143819362,160,9,1,0,0,0,0.0,6.223655143819362,6.223655143819362,-0.5614999934022586,0.1220341735390103,-6.069493200353687e-05,0.394371146236878,-2.3436899510476276e-06,9.680315405343517
0.128,0,4,1,0.5729386976839008,2.2917547907356033,0.0,6.223655143819362,160,9,1,0,0,0,0.0,6.223655143819362,6.223655143819362,-0.5614999888784463,0.11805072691580347,-7.870573180208777e-05,-0.02707901763251379,1.2668505381573682e-06,9.865686468432077
0.16,0,4,1,0.5729386976839008,2.864693488419504,0.0,6.223655143819362,160,9,1,0,0,0,0.0,6.223655143819362,6.223655143819362,-0.5614999861224291,0.11406774835847944,-7.098061824792855e-05,0.1804185225963832,-2.330863410098286e-06,9.84822289153363
0.192,0,4,1,0.5729386976839008,3.4376321861034045,0.0,6.223655143819362,160,9,1,0,0,0,0.0,6.223655143819362,6.223655143819362,-0.5614999834599709,0.11008471777727626,-7.066025240425045e-05,0.08017797788331367,-8.234207780326598e-07,9.794654724044497
0.224,0,4,1,0.5729386976839008,4.010570883787305,0.0,6.223655143819362,160,9,1,0,0,0,0.0,6.223655143819362,6.223655143819362,-0.5614999786872467,0.10610164179050773,-7.007613555200243e-05,-0.02494713467471473,1.468403030551185e-06,9.81678684761052
0.256,0,4,1,0.5729386976839008,4.583509581471206,0.0,6.223655143819362,160,9,1,0,0,0,0.0,6.223655143819362,6.223655143819362,-0.561499975811511,0.10211855986203505,-6.841657362115748e-05,-0.02345996477647685,-2.306278302703813e-06,9.79101847029174
0.28800000000000003,0,4,1,0.5729386976839008,5.156448279155106,0.0,6.223655143819362,160,9,1,0,0,0,0.0,6.223655143819362,6.223655143819362,-0.5614999713151633,0.09813546357363219,-6.752753712560913e-05,-0.020228800615568875,1.216779546187997e-06,9.78938607192019
0.32,0,4,1,0.5729386976839008,5.729386976839007,0.0,6.223655143819362,160,9,1,0,0,0,0.0,6.223655143819362,6.223655143819362,-0.5614999669143085,0.09415235869426168,-6.68223001060158e-05,-0.01601712749056432,-3.875820020824316e-07,9.775790897589186
0.352,0,4,1,0.5729386976839008,6.3023256745229075,0.0,6.223655143819362,160,9,1,0,0,0,0.0,6.223655143819362,6.223655143819362,-0.5614999625879544,0.09016924694127548,-6.626002939781779e-05,-0.01076337064776607,-3.137769294318043e-07,9.859677117099917
0.384,0,4,1,0.5729386976839008,6.875264372206808,0.0,6.223655143819362,160,9,1,0,0,0,0.0,6.223655143819362,6.223655143819362,-0.5614999583192479,0.08618612969043662,-6.580830049945224e-05,-0.004859084134421577,-2.5212457707460623e-07,9.80354623924211
0.41600000000000004,0,4,1,0.5729386976839008,7.448203069890709,0.0,6.223655143819362,160,9,1,0,0,0,0.0,6.223655143819362,6.223655143819362,-0.5614999540947456,0.0822030080452136,-6.544163348973751e-05,0.0013415013286583372,-2.0512242480469427e-07,9.8782324220021
0.448,0,4,1,0.5729386976839008,8.02114176757461,0.0,6.223655143819362,160,9,1,0,0,0,0.0,6.223655143819362,6.223655143819362,-0.5614999499037842,0.07821988289029683,-6.514089461762303e-05,0.007442054839231929,-1.6818110962218587e-07,9.752580704578232
0.48,0,4,1,0.5729386976839008,8.59408046525851,0.0,6.223655143819362,160,9,1,0,0,0,0.0,6.223655143819362,6.223655143819362,-0.5614999457379798,0.07423675493297761,-6.48925248452354e-05,0.013010869921258978,-1.3852032680260426e-07,9.7357467313137
0.512,0,4,1,0.5729386976839008,9.167019162942411,0.0,6.223655143819362,160,9,1,0,0,0,0.0,6.223655143819362,6.223655143819362,-0.5614999415908234,0.07025362473597936,-6.468751169763642e-05,0.018049855348535065,-1.1460812798465964e-07,9.744617572888684
0.544,0,4,1,0.5729386976839008,9.739957860626312,0.0,6.223655143819362,160,9,1,0,0,0,0.0,6.223655143819362,6.223655143819362,-0.5614999378063316,0.06627049332944582,-6.451956346104071e-05,0.017261509415756167,-4.2940709758288534e-07,9.852024361644697
0.5760000000000001,0,4,1,0.5729386976839008,10.312896558310213,0.0,6.223655143819362,160,9,1,0,0,0,0.0,6.223655143819362,6.223655143819362,-0.5614999335813697,0.06228735978251293,-6.440785609612004e-05,0.015464818781913312,3.6710911251394573e-07,9.813970958752721
0.608,0,4,1,0.5729386976839008,10.885835255994113,0.0,6.223655143819362,160,9,1,0,0,0,0.0,6.223655143819362,6.223655143819362,-0.5614999293803283,0.05830422508234901,-6.432172948475645e-05,0.012781050788707634,-7.347511910661749e-08,9.84549551539015
0.64,0,4,1,0.5729386976839008,11.458773953678014,0.0,6.223655143819362,160,9,1,0,0,0,0.0,6.223655143819362,6.223655143819362,-0.5614999251984978,0.05432108945801898,-6.425455953353205e-05,0.009305506189964218,-5.886305231903345e-08,9.802249349910628
0.672,0,4,1,0.5729386976839008,12.031712651361914,0.0,6.223655143819362,160,9,1,0,0,0,0.0,6.223655143819362,6.223655143819362,-0.5614999210322899,0.05033795309259531,-6.420067083937574e-05,0.005277037513746661,-4.531166065930457e-08,9.78906264526867
0.704,0,4,1,0.5729386976839008,12.604651349045815,0.0,6.223655143819362,160,9,1,0,0,0,0.0,6.223655143819362,6.223655143819362,-0.5614999168790493,0.04635481613190076,-6.415556030784503e-05,0.0009503588996792169,-3.437352315922581e-08,9.826781518224548
0.736,0,4,1,0.5729386976839008,13.177590046729716,0.0,6.223655143819362,160,9,1,0,0,0,0.0,6.223655143819362,6.223655143819362,-0.5614999127368743,0.042371678692074664,-6.411609689553621e-05,-0.0034312461016830884,-2.4062940078563367e-08,9.793391461583424
0.768,0,4,1,0.5729386976839008,13.750528744413616,0.0,6.223655143819362,160,9,1,0,0,0,0.0,6.223655143819362,6.223655143819362,-0.5614999086044556,0.03838854086622127,-6.408057058477669e-05,-0.007621076767199176,-1.4926076785309764e-08,9.82428815186467
0.8,0,4,1,0.5729386976839008,14.323467442097517,0.0,6.223655143819362,160,9,1,0,0,0,0.0,6.223655143819362,6.223655143819362,-0.5614999044809375,0.034405402730003705,-6.404854461163588e-05,-0.011331317280014637,-6.755930926319309e-09,9.871978045514705
0.8320000000000001,0,4,1,0.5729386976839008,14.896406139781417,0.0,6.223655143819362,160,9,1,0,0,0,0.0,6.223655143819362,6.223655143819362,-0.561499900365793,0.03042226434591107,-6.40205181864275e-05,-0.014442358369456948,2.9822878460930603e-10,9.842115879584929
0.864,0,4,1,0.5729386976839008,15.469344837465318,0.0,6.223655143819362,160,9,1,0,0,0,0.0,6.223655143819362,6.223655143819362,-0.5614998964178177,0.026439125806937046,-6.399537892701895e-05,-0.014393720794644608,-1.465224624343398e-07,9.818106319067764
0.896,0,4,1,0.5729386976839008,16.04228353514922,0.0,6.223655143819362,160,9,1,0,0,0,0.0,6.223655143819362,6.223655143819362,-0.5614998923225119,0.02245598708237846,-6.398694270997977e-05,-0.01350517044416132,1.6497030368779725e-07,9.798224458064839
0.928,0,4,1,0.5729386976839008,16.615222232833123,0.0,6.223655143819362,160,9,1,0,0,0,0.0,6.223655143819362,6.223655143819362,-0.5614998882359008,0.018472848245467834,-6.39826530377495e-05,-0.011837281153623296,1.5536470356567613e-08,9.80338510301837
0.96,0,4,1,0.5729386976839008,17.188160930517025,0.0,6.223655143819362,160,9,1,0,0,0,0.0,6.223655143819362,6.223655143819362,-0.5614998841574522,0.014489709320718204,-6.39810055722747e-05,-0.009353424282601233,1.839144244162874e-08,9.804803039221312
0.992,0,4,1,0.5729386976839008,17.761099628200927,0.0,6.223655143819362,160,9,1,0,0,0,0.0,6.223655143819362,6.223655143819362,-0.5614998800866873,0.01050657032752229,-6.398039167527722e-05,-0.006349056923398818,2.0060670239469056e-08,9.814869689797368
1.024,0,4,1,0.5729386976839008,18.33403832588483,0.0,6.223655143819362,160,9,1,0,0,0,0.0,6.223655143819362,6.223655143819362,-0.5614998760231111,0.006523431281479834,-6.397935890878857e-05,-0.003037098972895716,2.080156767390687e-08,9.866030353629977
1.056,0,4,1,0.5729386976839008,18.906977023568732,0.0,6.223655143819362,160,9,1,0,0,0,0.0,6.223655143819362,6.223655143819362,-0.5614998719661596,0.002540292195253633,-6.397687282536091e-05,0.0004948666739161968,2.055064226268976e-08,9.765209777743408
1.088,0,4,1,0.5729386976839008,19.479915721252635,0.0,6.223655143819362,160,9,1,0,0,0,0.0,6.223655143819362,6.223655143819362,-0.5614998679151635,-0.0014428469210648722,-6.397249642844591e-05,0.003977489407048751,1.9332118319419157e-08,9.856226668048585
1.12,0,4,1,0.5729386976839008,20.052854418936537,0.0,6.223655143819362,160,9,1,0,0,0,0.0,6.223655143819362,6.223655143819362,-0.5614998638693329,-0.005425986059917756,-6.396644186304305e-05,0.007265523879456565,1.7284933644297485e-08,9.833423692418963
1.1520000000000001,0,4,1,0.5729386976839008,20.62579311662044,0.0,6.223655143819362,160,9,1,0,0,0,0.0,6.223655143819362,6.223655143819362,-0.5614998598277563,-0.009409125216295031,-6.395947961164265e-05,0.01007530637377589,1.4430964550965758e-08,9.846191745573336
1.184,0,4,1,0.5729386976839008,21.19873181430434,0.0,6.223655143819362,160,9,1,0,0,0,0.0,6.223655143819362,6.223655143819362,-0.5614998557894121,-0.013392264387536872,-6.395272451649968e-05,0.012301841677835856,1.1019323338930056e-08,9.84168781441752
1.216,0,4,1,0.5729386976839008,21.771670511988244,0.0,6.223655143819362,160,9,1,0,0,0,0.0,6.223655143819362,6.223655143819362,-0.5614998517531943,-0.01737540357280276,-6.394734733098685e-05,0.01384735829389296,7.007884066004094e-09,9.81430871643675
1.248,0,4,1,0.5729386976839008,22.344609209672146,0.0,6.223655143819362,160,9,1,0,0,0,0.0,6.223655143819362,6.223655143819362,-0.5614998477179441,-0.021358542772282507,-6.394427835315457e-05,0.014510607915171801,2.664825235357266e-09,9.802089732983182
1.28,0,4,1,0.5729386976839008,22.91754790735605,0.0,6.223655143819362,160,9,1,0,0,0,0.0,6.223655143819362,6.223655143819362,-0.5614998436824873,-0.025341681986380784,-6.394397181716874e-05,0.014300244877433,-1.8359518831814038e-09,9.793632861085875
1.312,0,4,1,0.5729386976839008,23.49048660503995,0.0,6.223655143819362,160,9,1,0,0,0,0.0,6.223655143819362,6.223655143819362,-0.5614998396456758,-0.029324821215138328,-6.394628563592339e-05,0.013294965284733007,-6.370043646979692e-09,9.809402879888584
1.344,0,4,1,0.5729386976839008,24.063425302723854,0.0,6.223655143819362,160,9,1,0,0,0,0.0,6.223655143819362,6.223655143819362,-0.5614998356064296,-0.03330796045805166,-6.395050411527568e-05,0.011353367659776507,-1.0609403994103316e-08,9.770080153379412
1.3760000000000001,0,4,1,0.5729386976839008,24.636364000407756,0.0,6.223655143819362,160,9,1,0,0,0,0.0,6.223655143819362,6.223655143819362,-0.5614998315637755,-0.03729109971426584,-6.395549775910919e-05,0.008879407880876239,-1.4547588312337913e-08,9.756505068975832
1.408,0,4,1,0.5729386976839008,25.20930269809166,0.0,6.223655143819362,160,9,1,0,0,0,0.0,6.223655143819362,6.223655143819362,-0.5614998275168861,-0.0412742389829429,-6.395998214034533e-05,0.005819816859840935,-1.8046978806044784e-08,9.811661523092916
1.44,0,4,1,0.5729386976839008,25.78224139577556,0.0,6.223655143819362,160,9,1,0,0,0,0.0,6.223655143819362,6.223655143819362,-0.5614998234651097,-0.04525737826353751,-6.396281459425043e-05,0.0024248269038182843,-2.0801487374026676e-08,9.8426284650305
1.472,0,4,1,0.5729386976839008,26.355180093459463,0.0,6.223655143819362,160,9,1,0,0,0,0.0,6.223655143819362,6.223655143819362,-0.5614998194079968,-0.0492405175557827,-6.396325865642982e-05,-0.0011156361378838182,-2.2595219998287358e-08,9.808562500659795
1.504,0,4,1,0.5729386976839008,26.928118791143365,0.0,6.223655143819362,160,9,1,0,0,0,0.0,6.223655143819362,6.223655143819362,-0.5614998153453157,-0.05322365685935736,-6.396115381164698e-05,-0.004578344857874584,-2.3676623779719692e-08,9.810210554179381
1.536,0,4,1,0.5729386976839008,27.501057488827268,0.0,6.223655143819362,160,9,1,0,0,0,0.0,6.223655143819362,6.223655143819362,-0.561499811277062,-0.057206796173393464,-6.395695044431916e-05,-0.007808942231572664,-2.3935673959282146e-08,9.808353774273197
1.568,0,4,1,0.5729386976839008,28.07399618651117,0.0,6.223655143819362,160,9,1,0,0,0,0.0,6.223655143819362,6.223655143819362,-0.5614998072034582,-0.061189935496083814,-6.395160162759976e-05,-0.010535346971969084,-2.316841060208642e-08,9.816663498898993
1.6,0,4,1,0.5729386976839008,28.646934884195073,0.0,6.223655143819362,160,9,1,0,0,0,0.0,6.223655143819362,6.223655143819362,-0.561499803124943,-0.06517307482461532,-6.39463370968596e-05,-0.012658565347068705,-2.130617277210862e-08,9.799616491631836
1.6320000000000001,0,4,1,0.5729386976839008,29.219873581878975,0.0,6.223655143819362,160,9,1,0,0,0,0.0,6.223655143819362,6.223655143819362,-0.5614997990421552,-0.06915621415550081,-6.3942372492359e-05,-0.013977926601247567,-1.886389619812783e-08,9.7785510624322
1.6640000000000001,0,4,1,0.5729386976839008,29.792812279562877,0.0,6.223655143819362,160,9,1,0,0,0,0.0,6.223655143819362,6.223655143819362,-0.5614997949559053,-0.07313935348518812,-6.394062221114737e-05,-0.014502392608761613,-1.561126220061914e-08,9.828361946157994
1.696,0,4,1,0.5729386976839008,30.36575097724678,0.0,6.223655143819362,160,9,1,0,0,0,0.0,6.223655143819362,6.223655143819362,-0.5614997908671449,-0.07712249281068824,-6.394148335867912e-05,-0.014142402897896044,-1.1771952112030717e-08,9.807034132661672
1.728,0,4,1,0.5729386976839008,30.938689674930682,0.0,6.223655143819362,160,9,1,0,0,0,0.0,6.223655143819362,6.223655143819362,-0.5614997867769254,-0.08110563212996126,-6.394474158666515e-05,-0.013004928599514387,-7.39616962639515e-09,9.857417311083722
1.76,0,4,1,0.5729386976839008,31.511628372614584,0.0,6.223655143819362,160,9,1,0,0,0,0.0,6.223655143819362,6.223655143819362,-0.5614997826863588,-0.08508877144191898,-6.394962093417104e-05,-0.010955139726128405,-2.7373078521073366e-09,9.83447325104376
1.792,0,4,1,0.5729386976839008,32.08456707029848,0.0,6.223655143819362,160,9,1,0,0,0,0.0,6.223655143819362,6.223655143819362,-0.5614997785965711,-0.08907191074609978,-6.395496591200464e-05,-0.008303024081854444,1.996598462517262e-09,9.791813686108556
1.824,0,4,1,0.5729386976839008,32.657505767982386,0.0,6.223655143819362,160,9,1,0,0,0,0.0,6.223655143819362,6.223655143819362,-0.5614997745086582,-0.09305505004223076,-6.395951297210115e-05,-0.005249700943977102,6.6551619428467424e-09,9.817263473403665
1.856,0,4,1,0.5729386976839008,33.23044446566629,0.0,6.223655143819362,160,9,1,0,0,0,0.0,6.223655143819362,6.223655143819362,-0.5614997704236422,-0.09703818932993884,-6.396218747848487e-05,-0.0018095564095018484,1.10891135050335e-08,9.803657860639662
1.8880000000000001,0,4,1,0.5729386976839008,33.80338316335019,0.0,6.223655143819362,160,9,1,0,0,0,0.0,6.223655143819362,6.223655143819362,-0.5614997663424325,-0.10102132860878192,-6.39623562918943e-05,0.0017349716451756526,1.5100575771455047e-08,9.77784610313355
1.92,0,4,1,0.5729386976839008,34.37632186103409,0.0,6.223655143819362,160,9,1,0,0,0,0.0,6.223655143819362,6.223655143819362,-0.5614997622657876,-0.10500446787859107,-6.395997653791188e-05,0.00519683923027074,1.8398351018642126e-08,9.815112902829181
1.952,0,4,1,0.5729386976839008,34.949260558717995,0.0,6.223655143819362,160,9,1,0,0,0,0.0,6.223655143819362,6.223655143819362,-0.5614997581942879,-0.10898760713993763,-6.39556055424418e-05,0.008303930676046815,2.121138201314336e-08,9.807019572593322
1.984,0,4,1,0.5729386976839008,35.5221992564019,0.0,6.223655143819362,160,9,1,0,0,0,0.0,6.223655143819362,6.223655143819362,-0.561499754128312,-0.11297074639446009,-6.395026959429492e-05,0.010992778557990817,2.3073031595393842e-08,9.818220709836163
2.016,0,4,1,0.5729386976839008,36.0951379540858,0.0,6.223655143819362,160,9,1,0,0,0,0.0,6.223655143819362,6.223655143819362,-0.5614997500680221,-0.11695388564484287,-6.394522240086957e-05,0.012994194897995038,2.3996195231983486e-08,9.813585436478625
2.048,0,4,1,0.5729386976839008,36.6680766517697,0.0,6.223655143819362,160,9,1,0,0,0,0.0,6.223655143819362,6.223655143819362,-0.5614997460133585,-0.12093702489440804,-6.394165006077222e-05,0.014102008544297115,2.388563157384861e-08,9.743708295209965
2.08,0,4,1,0.5729386976839008,37.241015349453605,0.0,6.223655143819362,160,9,1,0,0,0,0.0,6.223655143819362,6.223655143819362,-0.561499741964041,-0.12492016414647084,-6.3940391957059e-05,0.014432567538003734,2.3137830875024717e-08,9.803530849114606
2.112,0,4,1,0.5729386976839008,37.81395404713751,0.0,6.223655143819362,160,9,1,0,0,0,0.0,6.223655143819362,6.223655143819362,-0.5614997379195799,-0.1289033034037277,-6.394174323617711e-05,0.014089433599838386,2.1193486481196952e-08,9.78630254145102
2.144,0,4,1,0.5729386976839008,38.38689274482141,0.0,6.223655143819362,160,9,1,0,0,0,0.0,6.223655143819362,6.223655143819362,-0.5614997338792959,-0.1328864426679257,-6.394538533036585e-05,0.012727994812167739,1.8535903295121456e-08,9.76003078309034
2.176,0,4,1,0.5729386976839008,38.95983144250531,0.0,6.223655143819362,160,9,1,0,0,0,0.0,6.223655143819362,6.223655143819362,-0.5614997298423446,-0.1368695819399213,-6.395046087548893e-05,0.010579901159960332,1.5177607785083167e-08,9.789784212129948
2.208,0,4,1,0.5729386976839008,39.532770140189214,0.0,6.223655143819362,160,9,1,0,0,0,0.0,6.223655143819362,6.223655143819362,-0.5614997258077515,-0.14085272122003845,-6.395577539092603e-05,0.007842171002678996,1.1163505330660832e-08,9.81079985346598
2.24,0,4,1,0.5729386976839008,40.10570883787312,0.0,6.223655143819362,160,9,1,0,0,0,0.0,6.223655143819362,6.223655143819362,-0.5614997217744487,-0.14483586050849534,-6.396007827749045e-05,0.0046803403622955935,6.718646111515558e-09,9.808079937228293
2.2720000000000002,0,4,1,0.5729386976839008,40.67864753555702,0.0,6.223655143819362,160,9,1,0,0,0,0.0,6.223655143819362,6.223655143819362,-0.5614997177413161,-0.14881899980564212,-6.396235701707984e-05,0.0011935251733682505,1.98899357523707e-09,9.792036811688494
2.3040000000000003,0,4,1,0.5729386976839008,41.25158623324092,0.0,6.223655143819362,160,9,1,0,0,0,0.0,6.223655143819362,6.223655143819362,-0.5614997137072273,-0.15280213911186666,-6.396207536821415e-05,-0.0023556414540996835,-2.786268143948895e-09,9.783208415267808
2.336,0,4,1,0.5729386976839008,41.824524930924824,0.0,6.223655143819362,160,9,1,0,0,0,0.0,6.223655143819362,6.223655143819362,-0.5614997096710922,-0.15678527842721127,-6.395929950748537e-05,-0.005749460782340263,-7.481063135645573e-09,9.782225664397512
2.368,0,4,1,0.5729386976839008,42.397463628608726,0.0,6.223655143819362,160,9,1,0,0,0,0.0,6.223655143819362,6.223655143819362,-0.5614997056319009,-0.16076841775090894,-6.395468244840483e-05,-0.008816509669856384,-1.1835224729107513e-08,9.781480175538704
2.4,0,4,1,0.5729386976839008,42.97040232629263,0.0,6.223655143819362,160,9,1,0,0,0,0.0,6.223655143819362,6.223655143819362,-0.5614997015887633,-0.16475155708110575,-6.394931039624407e-05,-0.011361036676588757,-1.566125089254312e-08,9.818978404543724
2.432,0,4,1,0.5729386976839008,43.54334102397653,0.0,6.223655143819362,160,9,1,0,0,0,0.0,6.223655143819362,6.223655143819362,-0.5614996975409452,-0.16873469641495129,-6.39444471925224e-05,-0.01315011983407434,-1.899345827213815e-08,9.788844314262123
2.464,0,4,1,0.5729386976839008,44.11627972166043,0.0,6.223655143819362,160,9,1,0,0,0,0.0,6.223655143819362,6.223655143819362,-0.5614996934878956,-0.17271783574906324,-6.394123696926157e-05,-0.014263132255841601,-2.1613720411701913e-08,9.85627736792772
2.496,0,4,1,0.5729386976839008,44.689218419344336,0.0,6.223655143819362,160,9,1,0,0,0,0.0,6.223655143819362,6.223655143819362,-0.5614996894292705,-0.17670097509286667,-6.394016833690883e-05,-0.014383754564403975,-2.1570921835794838e-08,9.827482369877373
2.528,0,4,1,0.5729386976839008,45.26215711702824,0.0,6.223655143819362,160,9,1,0,0,0,0.0,6.223655143819362,6.223655143819362,-0.561499685364954,-0.18068411441556323,-6.394276156774722e-05,-0.013384164017386836,-2.2776502339939583e-08,9.801998236241955
2.56,0,4,1,0.5729386976839008,45.83509581471214,0.0,6.223655143819362,160,9,1,0,0,0,0.0,6.223655143819362,6.223655143819362,-0.56149968129505,-0.18466725373111156,-6.394724187556988e-05,-0.011785433897306186,-2.2848249609494003e-08,9.851489494528764
2.592,0,4,1,0.5729386976839008,46.40803451239604,0.0,6.223655143819362,160,9,1,0,0,0,0.0,6.223655143819362,6.223655143819362,-0.5614996772198745,-0.18865039303889983,-6.39525956696585e-05,-0.009354749779508694,-2.188212436980201e-08,9.818190157523494
2.624,0,4,1,0.5729386976839008,46.980973210079945,0.0,6.223655143819362,160,9,1,0,0,0,0.0,6.223655143819362,6.223655143819362,-0.5614996731399513,-0.1926335323386543,-6.39575972855369e-05,-0.006415413336381856,-1.9999920046713663e-08,9.798007723781895
2.656,0,4,1,0.5729386976839008,47.55391190776385,0.0,6.223655143819362,160,9,1,0,0,0,0.0,6.223655143819362,6.223655143819362,-0.5614996690559912,-0.19661667163008195,-6.396109711249119e-05,-0.003092767872690026,-1.7395399111330274e-08,9.819622445543995
2.688,0,4,1,0.5729386976839008,48.12685060544775,0.0,6.223655143819362,160,9,1,0,0,0,0.0,6.223655143819362,6.223655143819362,-0.5614996649688644,-0.20059981091277687,-6.396229341426064e-05,0.00040249500424581654,-1.3975286147621927e-08,9.833380104343657
2.72,0,4,1,0.5729386976839008,48.69978930313165,0.0,6.223655143819362,160,9,1,0,0,0,0.0,6.223655143819362,6.223655143819362,-0.5614996608795652,-0.20458295018645345,-6.396092203944485e-05,0.003879558686049573,-9.969781644652421e-09,9.794077002667686
2.7520000000000002,0,4,1,0.5729386976839008,49.272728000815555,0.0,6.223655143819362,160,9,1,0,0,0,0.0,6.223655143819362,6.223655143819362,-0.5614996567891732,-0.20856608945138325,-6.395731943943488e-05,0.007143375804443225,-5.600933128007846e-09,9.788762255924588
2.7840000000000003,0,4,1,1.1457628381751443,50.4184908389907,0.5728241404912435,6.169143233402604,160,9,1,0,0,0,0.0,6.169143233402604,6.169143233402604,-0.5614996526988107,-0.21254922870879223,-6.395234421454482e-05,0.009944602551902612,-9.844056617768245e-10,9.839727659757367
2.816,0,4,1,2.2906100426385936,52.70910088162929,1.1448472044634492,6.065199984865566,160,9,1,0,0,0,0.0,6.065199984865566,6.065199984865566,-0.5614996486454138,-0.21649748121663162,-6.396011197690003e-05,-0.0289212377211634,3.6944507123925904e-09,9.769882789493396
2.848,0,4,1,3.4336303624506144,56.142731244079904,1.1430203198120208,5.967401045967872,160,9,1,0,0,0,0.0,5.967401045967872,5.967401045967872,-0.561499644662483,-0.2203792107547481,-6.395383663851742e-05,-0.07796900301207173,8.14185049949602e-09,9.804086313331377
2.88,0,4,1,5.710593137499568,61.85332438157947,2.276962775048954,5.787647729296528,160,9,1,0,0,0,0.0,5.787647729296528,5.787647729296528,-0.5614996407468149,-0.22419834897701393,-6.380225518816396e-05,-0.10376500975667473,1.2358601272992433e-08,9.791547378010181
2.912,0,4,1,7.969610394321354,69.82293477590082,2.2590172568217852,5.6254744406460215,160,9,1,0,0,0,0.0,5.6254744406460215,5.6254744406460215,-0.5614996384199463,-0.22790244626722855,-6.361404832522753e-05,-0.1497046037206844,-1.434792787413262e-06,9.805136177228949
2.944,0,4,1,10.757967088390043,80.58090186429087,2.788356694068689,5.442316345653184,160,9,1,0,0,0,0.0,5.442316345653184,5.442316345653184,-0.5614996347500516,-0.23150275276534657,-6.36163773833024e-05,-0.1344143445152792,1.427755402388211e-06,9.827234550185057
2.976,0,4,1,14.574216198038746,95.1551180623296,3.8162491096487035,5.213465200980499,160,9,1,0,0,0,0.0,5.213465200980499,5.213465200980499,-0.5614996312096923,-0.23498583826239255,-6.360313152354441e-05,-0.1442492171242676,1.9956408955621514e-09,9.836664246796323
3.008,0,4,1,17.744671625056924,112.89978968738653,3.1704554270181777,5.035903115432742,160,9,1,0,0,0,0.0,5.035903115432742,5.035903115432742,-0.5614996278252005,-0.23832245977859245,-6.356489859549522e-05,-0.16943675821825463,4.973822738266549e-09,9.812790703285609
3.04,0,4,1,21.305783617828766,134.2055733052153,3.561111992771842,4.84372742247341,160,9,1,-1,-1,-1,-0.0595,4.7842274224734105,4.90322742247341,-0.5614996245628217,-0.24154544000135428,-6.35582728943148e-05,-0.13471846310116029,6.730401972330247e-09,9.791112453287834
3.072,0,4,1,25.173524524530173,159.37909782974546,3.867740906701407,4.637008452531117,160,9,1,-1,-2,0,-0.060000000000000005,4.577008452531118,4.697008452531117,-0.5614996848807499,-0.2446454295130002,-6.3543661065521e-05,-0.14094584938179283,9.988052222276061e-05,9.859846166897261
3.104,0,4,1,27.923589715138373,187.30268754488384,2.7500651906082005,4.487341320305189,160,9,1,-3,-5,-2,-0.18400000000000002,4.303341320305189,4.6713413203051894,-0.5614953556657989,-0.24761312967143503,-6.352410816208055e-05,-0.15002361245253662,0.004647352878576128,9.744665551943577
3.136,0,4,1,31.38319105635903,218.68587860124288,3.459601341220658,4.29098574308139,160,9,1,-3,-8,0,-0.19000000000000003,4.10098574308139,4.480985743081391,-0.5614870315821072,-0.25048507069976206,-6.354269400724033e-05,-0.11322343521722104,0.004582976165389329,9.762764300021637
3.168,0,4,1,33.82208521749396,252.50796381873684,2.4388941611349253,4.143945406112972,160,9,1,-5,-13,-2,-0.324,3.8199454061129723,4.467945406112972,-0.5614666033684692,-0.2532313851373402,-6.354862068806005e-05,-0.14159891957785628,0.013239974750335665,9.788967910031772
3.2,0,4,1,36.12944414324087,288.6374079619777,2.307358925746911,3.995526785017012,160,9,1,-6,-19,-1,-0.3995,3.596026785017012,4.395026785017012,-0.5614346747979039,-0.25588365099345367,-6.361850637837292e-05,-0.10892579507632137,0.0132351546981788,9.804278128377986
3.232,0,4,1,38.65980825409008,327.2972162160678,2.530364110849213,3.8190029355949653,160,9,1,-6,-25,0,-0.42500000000000004,3.3940029355949655,4.244002935594965,-0.5613837148986702,-0.25844092092849225,-6.374537969996812e-05,-0.10944317254879124,0.021487792568664534,9.832498282929652
3.2640000000000002,0,4,1,40.69553103949202,367.99274725555983,2.035722785401937,3.6635461858858864,160,9,1,-6,-31,0,-0.45500000000000007,3.2085461858858864,4.1185461858858865,-0.5613112725489731,-0.26088492814966224,-6.39330286802079e-05,-0.12592207076136305,0.02585472631382907,9.783181172671034
3.2960000000000003,0,4,1,42.3021943666837,410.2949416222435,1.6066633271916828,3.5302842522748037,160,9,1,-7,-38,-1,-0.5445,2.9857842522748035,4.074784252274804,-0.5612178060609655,-0.2632288553115312,-6.421707653707885e-05,-0.11138246243504867,0.026185811961776734,9.815277662808652
3.3280000000000003,0,4,1,43.83086067209259,454.1258022943361,1.5286663054088905,3.393043316700771,160,9,1,-6,-44,1,-0.5155000000000001,2.8775433167007707,3.9085433167007713,-0.561103282412093,-0.26548675313118075,-6.461777149246485e-05,-0.09782906776075911,0.02708012684713625,9.814436901026536
3.36,0,4,1,45.00000000000001,499.1258022943361,1.1691393279074163,3.280000000000774,160,9,1,-6,-50,0,-0.55,2.730000000000774,3.8300000000007737,-0.5609650632834433,-0.2676553811089203,-6.506232817294656e-05,-0.09897475477015648,0.03129055888159277,9.787533969474177
3.392,0,4,1,45.84667402386151,544.9724763181976,0.8466740238615031,3.279281808024616,160,9,1,-6,-56,0,-0.5800000000000001,2.699281808024616,3.8592818080246163,-0.56080611701767,-0.26975010041811975,-6.55771117267015e-05,-0.08278508376809723,0.028652381211850316,9.77230039682429
3.424,0,4,1,46.95568139752289,591.9281577157204,1.1090073736613775,3.2767789277614137,160,9,1,-6,-62,0,-0.6100000000000001,2.6667789277614133,3.886778927761414,-0.5606206393956435,-0.2718422487190893,-6.620118641603029e-05,-0.012092240482425406,0.02888187509142876,9.75112792671882
3.456,0,4,1,47.489552921999156,639.4177106377196,0.5338715244762682,3.2749442308448744,160,9,1,-6,-68,0,-0.6400000000000001,2.6349442308448743,3.9149442308448745,-0.5604073752899084,-0.27393022344872925,-6.685734294503178e-05,-0.012210452107588442,0.03051630548937219,9.827884869087159
3.488,0,4,1,48.270487923183566,687.6881985609032,0.7809350011844103,3.2715446274402296,160,9,1,-6,-74,0,-0.67,2.6015446274402296,3.9415446274402295,-0.5601649538666749,-0.27601392801212865,-6.754387740502861e-05,-0.010873838867307065,0.03281933668652639,9.834626869790306
3.52,0,4,1,48.77819770716159,736.4663962680647,0.5077097839780222,3.268877841652202,160,9,1,-6,-80,0,-0.7000000000000001,2.568877841652202,3.968877841652202,-0.5598921758625509,-0.2780917874371456,-6.825803850973172e-05,-0.010998528733873573,0.034331380202417536,9.795194376220584
3.552,0,4,1,49.028263666485145,785.4946599345499,0.2500659593235568,3.267433624586714,160,9,1,-6,-86,0,-0.73,2.537433624586714,3.997433624586714,-0.5595876965772538,-0.28016362850072285,-6.900103323815784e-05,-0.009798326797873324,0.03639750340849982,9.800837404836004
3.584,0,4,1,49.52095789958143,835.0156178341313,0.49269423309628735,3.2643354096939783,160,9,1,-6,-92,0,-0.76,2.5043354096939785,4.024335409693978,-0.5592501182768265,-0.28222952217873615,-6.977385736761307e-05,-0.008177725372052146,0.03811790217538379,9.803881673843753
3.616,0,4,1,50.29008120537127,885.3056990395025,0.7691233057898401,3.258833185239641,160,9,1,-6,-98,0,-0.79,2.468833185239641,4.048833185239641,-0.5588783414050155,-0.2842876532798415,-7.057538802192169e-05,-0.008452407904159074,0.03992180108783521,9.834483179778939
3.648,0,4,1,50.76263288659845,936.068331926101,0.4725516812271806,3.255052993768896,160,9,1,-6,-104,0,-0.8200000000000001,2.4350529937688963,4.075052993768896,-0.5584714353712414,-0.28633567632478757,-7.14056616186124e-05,-0.009138517456438506,0.041692561308188325,9.83271515038138
3.68,0,4,1,51.225829064425774,987.2941609905267,0.4631961778273208,3.2510543322231515,160,9,1,-6,-110,0,-0.8500000000000001,2.4010543322231515,4.101054332223152,-0.5580280353792485,-0.28837377885503024,-7.226878172914702e-05,-0.007264371491378325,0.043489087995386456,9.791696644766805
3.712,0,4,1,51.45398659035337,1038.7481475808802,0.22815752592759253,3.2489812530865705,160,9,1,-6,-116,0,-0.88,2.3689812530865706,4.128981253086571,-0.5575470265644112,-0.29040085576461344,-7.316472830979324e-05,-0.006599744532170811,0.04519947840220822,9.816681905303959
3.744,0,4,1,52.18853714273665,1090.9366847236167,0.7345505523832827,3.241818856066461,160,9,1,-6,-122,0,-0.91,2.331818856066461,4.151818856066461,-0.5570270458470803,-0.29241706431804,-7.409677317113221e-05,-0.004578884383261898,0.04704442537427357,9.83748172098345
3.7760000000000002,0,4,1,52.409438731638325,1143.346123455255,0.22090158890167544,3.2395205534067664,160,9,1,-6,-128,0,-0.9400000000000001,2.2995205534067664,4.179520553406767,-0.5564678503269099,-0.2944181339830847,-7.505981563291596e-05,-0.006999018221332116,0.048821643538863584,9.823105966817492
3.8080000000000003,0,4,1,52.91416450904766,1196.2602879643027,0.5047257774093339,3.234028991344196,160,9,1,-6,-134,0,-0.9700000000000001,2.2640289913441958,4.204028991344196,-0.5558676188604158,-0.29640589024689185,-7.606285703021069e-05,-0.003080704481952312,0.05025627188657917,9.79325874386596
3.84,0,4,1,53.13010235415599,1249.3903903184587,0.21593784510832847,3.23157480231107,160,9,1,-6,-140,0,-1.0,2.23157480231107,4.23157480231107,-0.5552259427964066,-0.2983771087530105,-7.710041535626683e-05,-0.004215792993516534,0.05242093135192209,9.808688965643881
3.872,0,4,1,53.55555824341289,1302.9459485618715,0.42545588925690225,3.2265569378934815,160,9,1,-6,-146,0,-1.03,2.1965569378934813,4.256556937893482,-0.5545413064089365,-0.3003323071629827,-7.81785182437586e-05,-0.0014998010569230197,0.053966753506290134,9.815363096683502
3.904,0,4,1,54.050721677183724,1356.9966702390552,0.49516343377083416,3.2204057561876165,160,9,1,-6,-152,0,-1.06,2.1604057561876164,4.2804057561876165,-0.5538133564456272,-0.3022685149353917,-7.929301027276466e-05,-0.002223899808526679,0.05581940426105467,9.805601326070708
3.936,0,4,1,54.46232220802562,1411.4589924470808,0.41160053084189485,3.215045320377791,160,9,1,-5,-157,1,-1.0305000000000002,2.184545320377791,4.245545320377791,-0.5530415741538391,-0.3041835764219919,-8.044428337550952e-05,-0.002049901117703221,0.057571279748604966,9.791543219768512
3.968,0,4,1,54.86580694308437,1466.3247993901653,0.40348473505875404,3.2095655234610367,160,9,1,-5,-162,0,-1.06,2.1495655234610367,4.269565523461036,-0.5522253985529411,-0.30607608448442797,-8.09048971843699e-05,-0.002041556812705205,0.058968119298149116,9.766279088089691
4.0,0,4,1,54.86580694308437,1521.1906063332497,0.0,3.2095655234610367,160,9,1,-6,-168,-1,-1.1445,2.065065523461037,4.354065523461037,-0.5513667932156194,-0.30794580224575074,-8.139296227936861e-05,-0.001982884088071741,0.057642522354509715,9.778728086003769
4.032,0,4,1,55.26137471723438,1576.451981050484,0.39556777415000965,3.203980094086971,160,9,1,-5,-173,1,-1.1105,2.093480094086971,4.314480094086971,-0.5504633100746371,-0.30979468525390613,-8.196519392149326e-05,0.0019693683781375104,0.059006544574838705,9.815496450967839
4.064,0,4,1,55.45625059223089,1631.9082316427148,0.19487587499650516,3.2011513883574594,160,9,1,-5,-178,0,-1.1400000000000001,2.0611513883574593,4.34115138835746,-0.5495138323351495,-0.31161610416354985,-8.248612586742206e-05,-0.0020338461903407737,0.06366751933098157,9.809929588130094
4.096,0,4,1,55.45625059223089,1687.3644822349456,0.0,3.2011513883574594,160,9,1,-6,-184,-1,-1.2245000000000001,1.9766513883574592,4.425651388357459,-0.5485197471276577,-0.3134114930782835,-8.302874420890345e-05,-0.00017688654636484205,0.062154466242306236,9.807737146567334
4.128,0,4,1,55.369199619742986,1742.7336818546887,-0.08705097248790139,3.202422744020444,160,9,1,-5,-189,1,-1.1905000000000001,2.0119227440204437,4.392922744020444,-0.5474793102634787,-0.315180957486394,-8.365709365542977e-05,0.002169120814447885,0.06319646007264,9.78747829607984
4.16,0,4,1,55.369199619742986,1798.1028814744318,0.0,3.202422744020444,160,9,1,-5,-194,0,-1.22,1.9824227440204438,4.4224227440204436,-0.5463897888875764,-0.31692134412090717,-8.423144600067968e-05,0.0024279451398242454,0.06785753165823168,9.824468142649588
4.192,0,4,1,54.8966719676691,1852.999553442101,-0.4725276520738859,3.2091393805798987,160,9,1,-5,-199,0,-1.245,1.9641393805798986,4.454139380579899,-0.5452537464741295,-0.3186317363374294,-8.483055704856107e-05,0.0017882307181540204,0.06654154234586149,9.81365422756032
4.224,0,4,1,54.7003919439458,1907.6999453860467,-0.1962800237232969,3.2118375114089437,160,9,1,-5,-204,0,-1.27,1.9418375114089437,4.481837511408944,-0.5440684230798047,-0.3203136414971066,-8.544707965336094e-05,0.006078830757692406,0.06841822591818231,9.793384280795719
4.256,0,4,1,54.02312971289068,1961.7230750989374,-0.6772622310551242,3.2207583004378497,160,9,1,-5,-209,0,-1.295,1.9257583004378498,4.51575830043785,-0.5428363434153344,-0.3219611330464356,-8.60788624859072e-05,0.0015616539856339031,0.06936074516071494,9.816592814393061
4.288,0,4,1,53.61564818416412,2015.3387232831017,-0.4074815287265565,3.225825543214272,160,9,1,-5,-214,0,-1.32,1.905825543214272,4.5458255432142725,-0.5415829337973808,-0.32353896941890176,-8.672909476815059e-05,-0.039010536920113505,0.07287440390814896,9.839154723776888
4.32,0,4,1,53.13010235415599,2068.468825637258,-0.4855458300081352,3.23157480231107,160,9,1,-3,-217,2,-1.226,2.00557480231107,4.45757480231107,-0.5402963533277936,-0.3250579104612171,-8.740310874271948e-05,-0.021530571491898815,0.07591389194396737,9.856258588872839
4.352,0,4,1,52.70933308003393,2121.178158717292,-0.42076927412205833,3.236298478447972,160,9,1,-2,-219,1,-1.1905000000000001,2.045798478447972,4.426798478447973,-0.5389545077702397,-0.32654110370655076,-8.794797912097321e-05,0.01159857456444022,0.07741822597991763,9.791142053012068
4.384,0,4,1,52.06260267041578,2173.2407613877076,-0.6467304096181508,3.2430982718956147,160,9,1,-2,-221,0,-1.205,2.0380982718956147,4.448098271895615,-0.5375652265909215,-0.32798678052688207,-8.843464761155127e-05,0.006776909967853139,0.07290907631559414,9.808964899136603
4.416,0,4,1,51.620776082314975,2224.8615374700225,-0.44182658810080255,3.247417615928308,160,9,1,-1,-222,1,-1.1555000000000002,2.091917615928308,4.402917615928308,-0.5361320350316862,-0.32939360679826185,-8.891376824150463e-05,0.005176494906359885,0.07147248165534478,9.849724771780364
4.448,0,4,1,50.94151979375276,2275.8030572637754,-0.6792562885622146,3.2535432541239677,160,9,1,-1,-223,0,-1.165,2.0885432541239677,4.418543254123968,-0.5346541366703262,-0.3307613013945739,-8.927335807947662e-05,0.007207330704225317,0.07191077225453997,9.836999152007273
4.48,0,4,1,49.95845091948537,2325.761508183261,-0.9830688742673885,3.2613062976048606,160,9,1,0,-223,1,-1.1105,2.1508062976048605,4.371806297604861,-0.533136002453904,-0.3320888369671477,-8.959118994365453e-05,0.004853347997015305,0.06979812976889506,9.71250548053612
4.5120000000000005,0,4,1,48.49259316085606,2374.254101344117,-1.465857758629312,3.270421264403934,160,9,1,0,-223,0,-1.115,2.155421264403934,4.385421264403934,-0.5315748846136601,-0.3333778492804581,-8.976301437004126e-05,0.009446321854567013,0.0708455265850919,9.882106748196161
4.5440000000000005,0,4,1,47.202598161765806,2421.4566995058826,-1.2899949990902542,3.275979110934449,160,9,1,1,-222,1,-1.0555,2.2204791109344493,4.331479110934449,-0.5299754651016368,-0.3346275500042459,-8.987718008899616e-05,0.006849609820403125,0.06849800952222718,9.816660938870752
4.5760000000000005,0,4,1,45.56726640985794,2467.0239659157405,-1.635331751907863,3.279634342897736,160,9,1,1,-221,0,-1.055,2.224634342897736,4.334634342897736,-0.5283375198690476,-0.3358375829039527,-8.983282747867388e-05,0.008203342920694513,0.06848884611688498,9.798554831054156
4.6080000000000005,0,4,1,44.12754287709797,2511.1515087928383,-1.4397235327599702,3.365066958299731,160,9,1,2,-219,1,-0.9905,2.374566958299731,4.355566958299731,-0.526667529600335,-0.3370065539573129,-8.972441346353534e-05,0.003566634055518326,0.06598586507937372,9.848658475233737
4.64,0,4,1,42.614055969611194,2553.7655647624497,-1.5134869074867794,3.503173325335575,160,9,1,3,-216,1,-0.9255000000000001,2.577673325335575,4.428673325335575,-0.5249200995256356,-0.3381651403393758,-8.949340495269763e-05,0.057976808637859235,0.06457076930766542,9.784271563620983
4.672,0,4,1,41.34777721969367,2595.1133419821435,-1.2662787499175252,3.610684500117931,160,9,1,3,-213,0,-0.9149999999999999,2.695684500117931,4.525684500117931,-0.523068191439305,-0.33933125840890166,-8.91611939746826e-05,0.09101904244297733,0.06259157459632464,9.774534624839353
4.704,0,4,1,39.69267315066882,2634.8060151328123,-1.6551040690248513,3.7418264811416044,160,9,1,3,-210,0,-0.9,2.8418264811416045,4.641826481141605,-0.5211316504783904,-0.34049167289231985,-8.878985829072553e-05,0.0689548527725642,0.06202568911626252,9.857020746070832
4.736,0,4,1,38.30873556744772,2673.11475070026,-1.3839375832210976,3.8445060828139765,160,9,1,3,-207,0,-0.8849999999999999,2.9595060828139768,4.729506082813977,-0.5190965985141376,-0.34165125552158593,-8.837570280867575e-05,0.08383849569437192,0.06323660326470518,9.835816207864418
4.768,0,4,1,36.86989764584401,2709.984648346104,-1.4388379216037066,3.9455326768225967,160,9,1,3,-204,0,-0.87,3.0755326768225966,4.815532676822596,-0.5169783853809377,-0.342798020081199,-8.79093236143668e-05,0.06662191981900854,0.06491301413660176,9.846833426093403
4.8,0,4,1,35.753887254436755,2745.738535600541,-1.1160103914072579,4.020413348586382,160,9,1,4,-200,1,-0.7955000000000001,3.2249133485863823,4.815913348586383,-0.5147778821219092,-0.3439290827565194,-8.739528443447997e-05,0.0651794349712302,0.06599711777575402,9.84187354582908
4.832,0,4,1,34.21570213243741,2779.9542377329785,-1.5381851219993479,4.1193386230042215,160,9,1,3,-197,-1,-0.8394999999999999,3.2798386230042214,4.958838623004222,-0.5125072203598604,-0.34503638885936405,-8.673962507398277e-05,0.052161016664965115,0.06775295752333739,9.801753033406891
4.864,0,4,1,33.02386755579664,2812.978105288775,-1.1918345766407654,4.19304638433589,160,9,1,4,-193,1,-0.7605,3.43254638433589,4.9535463843358905,-0.5101606698103274,-0.34612535858474847,-8.613818289623237e-05,0.06056218956674732,0.06365841063690464,9.795385886834366
4.896,0,4,1,31.798912824294433,2844.7770181130695,-1.2249547315022085,4.2665169762980515,160,9,1,4,-189,0,-0.7450000000000001,3.5215169762980514,5.011516976298052,-0.50774508534648,-0.3471870766477851,-8.539461654900014e-05,0.05157588418631705,0.06808364643930265,9.807660620953941
4.928,0,4,1,30.5406048496815,2875.317622962751,-1.2583079746129329,4.339928803294204,160,9,1,4,-185,0,-0.7250000000000001,3.614928803294204,5.064928803294205,-0.5052663214677704,-0.34822263188265495,-8.461833694751487e-05,0.048017408932682075,0.06442355738167299,9.802129235840619
4.96,0,4,1,29.24882633654698,2904.5664492992983,-1.2917785131345205,4.4134673294980225,160,9,1,4,-181,0,-0.7050000000000001,3.7084673294980224,5.1184673294980225,-0.5027246457541424,-0.34923107593979746,-8.380547943165166e-05,0.04809266459643704,0.06464949020040608,9.883616329024598
4.992,0,4,1,27.923589715138373,2932.4900390144367,-1.3252366214086067,4.487341320305189,160,9,1,4,-177,0,-0.685,3.8023413203051892,5.17234132030519,-0.5001206088438203,-0.35021175820302664,-8.296260455485822e-05,0.048395611382078714,0.06428713655889934,9.826377821343652
5.024,0,4,1,27.02158159117705,2959.5116206056136,-0.9020081239613233,4.536885666549905,160,9,1,4,-173,0,-0.665,3.871885666549905,5.201885666549905,-0.4974456690973225,-0.3511674533875378,-8.209702840946374e-05,0.05798846745099888,0.0645472872664853,9.840097711508356
5.056,0,4,1,25.641005824305285,2985.152626429919,-1.3805757668717646,4.611824293778742,160,9,1,3,-170,-1,-0.7044999999999999,3.9073242937787422,5.316324293778742,-0.4947044347177268,-0.3520971038097409,-8.121808721713725e-05,0.054078266391855714,0.0628196558055152,9.789790120583993
5.088,0,4,1,24.702430227771313,3009.8550566576905,-0.9385755965339726,4.662311779000834,160,9,1,4,-166,1,-0.6255000000000002,4.036811779000834,5.287811779000835,-0.49190338148392,-0.35300051777684344,-8.043183214328023e-05,0.04849323553915737,0.06081981030571642,9.787042925448151
5.12,0,4,1,23.26770481005697,3033.1227614677473,-1.4347254177143434,4.739046251688796,160,9,1,3,-163,-1,-0.6695,4.069546251688796,5.408546251688796,-0.48905801288579426,-0.3538684792445004,-7.95476065958492e-05,0.031926316501223774,0.0647273100581567,9.847078224326774
5.152,0,4,1,22.293629159694085,3055.416390627441,-0.9740756503628845,4.791006603323376,160,9,1,4,-159,1,-0.5905,4.200506603323376,5.381506603323375,-0.48615287298825643,-0.3547100804968973,-7.877590274581528e-05,0.04932936124453138,0.059963460181995464,9.80574411305556
5.184,0,4,1,21.305783617828766,3076.72217424527,-0.9878455418653189,4.84372742247341,160,9,1,4,-155,0,-0.575,4.26872742247341,5.4187274224734105,-0.48320386499015566,-0.35551615053752506,-7.791947734054651e-05,0.03273471686254896,0.06425319493413278,9.81518896584072
5.216,0,4,1,20.304473709960448,3097.02664795523,-1.0013099078683183,4.897317877337974,160,9,1,4,-151,0,-0.5549999999999999,4.342317877337974,5.452317877337974,-0.4802117115665641,-0.35629133780633143,-7.709113635164314e-05,0.03376122642102671,0.059708634005342535,9.841857200922115
5.248,0,4,1,19.290046219188728,3116.316694174419,-1.0144274907717197,4.951896852666751,160,9,1,4,-147,0,-0.5349999999999999,4.416896852666751,5.486896852666751,-0.47717646626223575,-0.3570357931007471,-7.628553119076557e-05,0.0340751635526563,0.058793171074822216,9.861699296691901
5.28,0,4,1,18.262889942194125,3134.579584116613,-1.027156276994603,5.007593001934974,160,9,1,4,-143,0,-0.5149999999999999,4.492593001934974,5.522593001934974,-0.4740980988843408,-0.35775003861516497,-7.550630225576158e-05,0.03498062889102127,0.05823103043614613,9.863749122538405
5.312,0,4,1,17.744671625056924,3152.32425574167,-0.518218317137201,5.035903115432742,160,9,1,4,-139,0,-0.49500000000000005,4.540903115432742,5.530903115432742,-0.47097647458188124,-0.35843464796724656,-7.475676258460878e-05,0.035710385014874356,0.05671794653971199,9.761965624901132
5.344,0,4,1,16.699244233993618,3169.023499975664,-1.0454273910633063,5.093540962357318,160,9,1,4,-135,0,-0.47500000000000003,4.618540962357319,5.568540962357318,-0.46782925885768,-0.3590864735129975,-7.404719172952358e-05,0.018529489115550236,0.05615148495175709,9.790974545059417
5.376,0,4,1,16.17215901578257,3185.1956589914466,-0.5270852182110488,5.122908774330808,160,9,1,5,-130,1,-0.3955,4.727408774330808,5.518408774330808,-0.46463869139967123,-0.3597101047373339,-7.337319198091538e-05,0.0365306955863208,0.0546933040841963,9.832413470329662
5.408,0,4,1,15.109575122340447,3200.3052341137873,-1.0625838934421221,5.182847707968271,160,9,1,4,-126,-1,-0.4345,4.748347707968271,5.617347707968271,-0.4614237453964176,-0.3603027272073999,-7.26567784715363e-05,0.018273262411176307,0.05373411037181901,9.811465406986434
5.44,0,4,1,14.574216198038746,3214.879450311826,-0.5353589243017005,5.213465200980499,160,9,1,5,-121,1,-0.3505,4.862965200980499,5.563965200980499,-0.4581649928628047,-0.3608735113181746,-7.207029966998894e-05,0.03877578474923731,0.04779058833424733,9.793726742205815
5.472,0,4,1,13.495733280795811,3228.375183592622,-1.078482917242935,5.276118264105919,160,9,1,4,-117,-1,-0.38949999999999996,4.886618264105919,5.665618264105919,-0.45488207287815247,-0.3614153225807079,-7.14444528117121e-05,0.018866003198047914,0.05086567582630851,9.805602138754448
5.5040000000000004,0,4,1,12.95276451337554,3241.327948105997,-0.5429687674202714,5.3082052579305765,160,9,1,4,-113,0,-0.36500000000000005,4.943205257930576,5.673205257930577,-0.45155436470322313,-0.3619376269302935,-7.094842051268667e-05,0.040616790207752024,0.04472681033571912,9.855095950866827
5.5360000000000005,0,4,1,12.407418527400745,3253.735366633398,-0.5453459859747944,5.3408386412503175,160,9,1,4,-109,0,-0.34500000000000003,4.995838641250318,5.685838641250317,-0.44820162439478684,-0.362433512263668,-7.049965712410677e-05,0.020731260564525258,0.048006820627921686,9.82935386566061
5.5680000000000005,0,4,1,11.859779120947966,3265.595145754346,-0.5476394064527792,5.374047857621811,160,9,1,4,-105,0,-0.325,5.049047857621811,5.699047857621811,-0.44482387531806755,-0.36290452342699425,-7.010311949081326e-05,0.021148856823923486,0.046006931155186476,9.850858362542589
5.6000000000000005,0,4,1,11.309932474020227,3276.905078228366,-0.5498466469277385,5.40786162681162,160,9,1,5,-100,1,-0.2455,5.16236162681162,5.65336162681162,-0.44142112206523115,-0.3633518891910221,-6.975633738997775e-05,0.021414578488736735,0.044062187644287626,9.833334142835444
5.632,0,4,1,10.757967088390043,3287.6630453167563,-0.5519653856301847,5.442316345653184,160,9,1,4,-96,-1,-0.2845,5.157816345653185,5.726816345653184,-0.4379941027270182,-0.36377686568078377,-6.938833679996301e-05,0.02104536680678822,0.04264392559160138,9.818818033113628
5.664,0,4,1,10.203973721731703,3297.8670190384883,-0.5539933666583394,5.477446571130509,160,9,1,4,-92,0,-0.26,5.217446571130509,5.7374465711305085,-0.43454158219615774,-0.36418577191675544,-6.9142275961857e-05,0.0231266600351209,0.03602602982246802,9.849643128105733
5.696,0,4,1,9.648045316098152,3307.5150643545862,-0.5559284056335514,5.513285433885829,160,9,1,4,-88,0,-0.24,5.273285433885829,5.7532854338858295,-0.431063865788232,-0.36457503431816957,-6.887792278848122e-05,0.022568952984350153,0.03885445576851283,9.777871032805916
5.728,0,4,1,9.090276920822312,3316.6053412754086,-0.5577683952758399,5.54987562742334,160,9,1,3,-85,-1,-0.27949999999999997,5.27037562742334,5.82937562742334,-0.42756067230935063,-0.3649463776244993,-6.85604225465538e-05,0.023350191643620476,0.03682724998155592,9.800128639348644
5.76,0,4,1,9.090276920822312,3325.695618196231,0.0,5.54987562742334,160,9,1,4,-81,1,-0.2005,5.34937562742334,5.75037562742334,-0.4240309580424223,-0.3653012143573436,-6.828799589640722e-05,0.02490679804097602,0.03466905222414915,9.830061933069372
5.792,0,4,1,7.969610394321354,3333.6652285905525,-1.1206665265009583,5.6254744406460215,160,9,1,3,-78,-1,-0.2445,5.380974440646021,5.869974440646022,-0.4204993926926176,-0.36563357485133874,-6.793879378439935e-05,0.0004561984104687525,0.03742810778350227,9.817934185597133
5.824,0,4,1,7.969610394321354,3341.634838984874,0.0,5.6254744406460215,160,9,1,4,-74,1,-0.16549999999999998,5.459974440646022,5.790974440646021,-0.41691692898895966,-0.3659545729644609,-6.76281536272326e-05,0.04974083098609641,0.030218063750934502,9.838989423322035
5.856,0,4,1,7.406912128495223,3349.041751113369,-0.562698265826131,5.664570104644827,160,9,1,3,-71,-1,-0.20949999999999996,5.455070104644827,5.874070104644828,-0.41332932744618894,-0.3662560437759163,-6.728817980964676e-05,0.0051422176045095415,0.033841285197538984,9.79160560961801
5.888,0,4,1,7.406912128495223,3356.4486632418643,0.0,5.664570104644827,160,9,1,3,-68,0,-0.19,5.474570104644827,5.854570104644828,-0.4097157061241562,-0.36654697628770305,-6.700698774749804e-05,0.026754269198338034,0.026118765498749055,9.83528468064946
5.92,0,4,1,6.842773412630916,3363.291436654495,-0.5641387158643063,5.704596124854936,160,9,1,3,-65,0,-0.175,5.529596124854936,5.8795961248549355,-0.4061007718091081,-0.36682125664869164,-6.674891845931744e-05,0.002547149708123947,0.029588346736479622,9.767316269747322
5.952,0,4,1,6.842773412630916,3370.134210067126,0.0,5.704596124854936,160,9,1,3,-62,0,-0.15999999999999998,5.544596124854936,5.864596124854936,-0.40245918172317596,-0.367082363018638,-6.648290913793126e-05,0.028182701191737432,0.02717082826248215,9.797439547129551
5.984,0,4,1,5.710593137499568,3375.8448032046254,-1.132180275131348,5.787647729296528,160,9,1,2,-60,-1,-0.2045,5.5831477292965275,5.992147729296528,-0.39881662722731454,-0.36732956362668556,-6.625065564940837e-05,0.0033775344188501435,0.02593020470443837,9.748877643377297
6.016,0,4,1,5.710593137499568,3381.555396342125,0.0,5.787647729296528,160,9,1,3,-57,1,-0.1305,5.657147729296528,5.918147729296527,-0.3951201342114037,-0.36756749561511665,-6.606645614492569e-05,0.06601320818200164,0.023815291788162687,9.80001191974366
6.048,0,4,1,5.142764557884225,3386.698160900009,-0.5678285796153437,5.830783204987616,160,9,1,2,-55,-1,-0.17950000000000002,5.651283204987616,6.010283204987616,-0.3914226284696817,-0.3677882204348257,-6.581704283635005e-05,0.012547649275032801,0.027970200044549882,9.803573013000388
6.08,0,4,1,5.710593137499568,3392.4087540375085,0.5678285796153437,5.787647729296528,160,9,1,3,-52,1,-0.10549999999999998,5.682147729296528,5.893147729296528,-0.3876969163812836,-0.368000373817247,-6.566960545934496e-05,0.03849320264922288,0.02049333284500831,9.801954175208037
6.112,0,4,1,4.573921259900898,3396.9826752974095,-1.1366718775986708,5.875075771441796,160,9,1,2,-50,-1,-0.1545,5.720575771441796,6.029575771441795,-0.3839980073424422,-0.36819614778475707,-6.551508016786403e-05,-0.023105703924368587,0.02482990171809665,9.79660165335274
6.144,0,4,1,4.573921259900898,3401.5565965573105,0.0,5.875075771441796,160,9,1,2,-48,0,-0.13999999999999999,5.735075771441796,6.015075771441795,-0.38024276790607814,-0.3683865955466721,-6.539947935454982e-05,0.06228276920711134,0.01750209949111234,9.848720760285756
6.176,0,4,1,4.004172940709389,3405.56076949802,-0.5697483191915085,5.920591547727139,160,9,1,2,-46,0,-0.13,5.790591547727139,6.050591547727139,-0.3764868893585936,-0.3685641144184934,-6.527775592207741e-05,0.007513212510312831,0.02214519787990719,9.848510428740788
6.208,0,4,1,4.573921259900898,3410.134690757921,0.5697483191915085,5.875075771441796,160,9,1,3,-43,1,-0.06049999999999998,5.814575771441795,5.935575771441796,-0.3727013826447829,-0.3687313013634137,-6.515633578588545e-05,0.03603918875440963,0.020232847711003928,9.82144749565261
6.24,0,4,1,4.004172940709389,3414.1388636986303,-0.5697483191915085,5.920591547727139,160,9,1,2,-41,-1,-0.10950000000000001,5.811091547727139,6.030091547727139,-0.36894458129850105,-0.36888646073491443,-6.50342831681975e-05,-0.026994773713582016,0.0191772866272938,9.822260019677374
6.272,0,4,1,3.4336303624506144,3417.5724940610808,-0.5705425782587747,5.967401045967872,160,9,1,2,-39,0,-0.095,5.872401045967872,6.062401045967872,-0.36515847465835477,-0.36903842682390836,-6.494745204676036e-05,0.029080672732326892,0.012519572899529164,9.786259377614925
6.304,0,4,1,3.4336303624506144,3421.006124423531,0.0,5.967401045967872,160,9,1,2,-37,0,-0.08499999999999999,5.882401045967872,6.052401045967872,-0.36134208011736924,-0.3691824845825281,-6.485404476397685e-05,0.03562543636682377,0.016743927653813766,9.786765788380482
6.336,0,4,1,3.4336303624506144,3424.4397547859817,0.0,5.967401045967872,160,9,1,2,-35,0,-0.07500000000000001,5.892401045967872,6.042401045967872,-0.35752539726052285,-0.36931868090747755,-6.475676323316679e-05,0.011135749846255863,0.015222479739934076,9.798541801432048
6.368,0,4,1,2.862405226111651,3427.3021600120933,-0.5712251363389633,6.01557734440487,160,9,1,1,-34,-1,-0.12450000000000001,5.89107734440487,6.140077344404871,-0.35370847439317743,-0.36944789817778245,-6.465205045139838e-05,0.010761803258236972,0.014002954597901098,9.846276688239513
6.4,0,4,1,2.862405226111651,3430.164565238205,0.0,6.01557734440487,160,9,1,2,-32,1,-0.0555,5.96007734440487,6.071077344404871,-0.34986050121748646,-0.36957200333216583,-6.457859198513369e-05,0.04081287719246155,0.01277396382580099,9.821094028957882
6.432,0,4,1,2.2906100426385936,3432.4551752808434,-0.5717951834730575,6.065199984865566,160,9,1,1,-31,-1,-0.1095,5.955699984865566,6.1746999848655655,-0.3460122038481819,-0.3696852215455918,-6.450833416351241e-05,0.00976478981473595,0.01715973886391621,9.785861813635744
6.464,0,4,1,2.862405226111651,3435.317580506955,0.5717951834730575,6.01557734440487,160,9,1,2,-29,1,-0.04049999999999999,5.975077344404871,6.05607734440487,-0.3421320098877429,-0.36979490804316817,-6.444903519743812e-05,0.040969292360244186,0.010414998271275377,9.834239025865186
6.496,0,4,1,2.2906100426385936,3437.6081905495935,-0.5717951834730575,6.065199984865566,160,9,1,1,-28,-1,-0.09450000000000001,5.970699984865566,6.159699984865566,-0.3382833246722307,-0.3698941252042974,-6.440200686151469e-05,-0.027796970976633844,0.015247785031619755,9.826533129660012
6.5280000000000005,0,4,1,2.2906100426385936,3439.898800592232,0.0,6.065199984865566,160,9,1,2,-26,1,-0.0255,6.039699984865566,6.090699984865566,-0.33440279623615665,-0.36999108106108813,-6.437340961103384e-05,0.033321837415611115,0.008476253094273453,9.805529738972172
6.5600000000000005,0,4,1,2.862405226111651,3442.7612058183436,0.5717951834730575,6.01557734440487,160,9,1,3,-23,1,0.039500000000000014,6.055077344404871,5.97607734440487,-0.330522094574438,-0.37007974532910437,-6.432316973242584e-05,0.0014787804855449418,0.01341917905263629,9.806349991642815
6.5920000000000005,0,4,1,2.2906100426385936,3445.051815860982,-0.5717951834730575,6.065199984865566,160,9,1,1,-22,-2,-0.06899999999999999,5.996199984865566,6.134199984865566,-0.3266731350597936,-0.3701659571208718,-6.42535262683399e-05,-0.036780913411480626,0.006725136362218616,9.783179343703496
6.6240000000000006,0,4,1,2.2906100426385936,3447.3424259036206,0.0,6.065199984865566,160,9,1,1,-21,0,-0.05499999999999999,6.010199984865566,6.1201999848655655,-0.32279249639483365,-0.37025739134875557,-6.422841872197847e-05,0.024653905604537195,0.0003321680764288692,9.797198759877437
6.656000000000001,0,4,1,2.2906100426385936,3449.633035946259,0.0,6.065199984865566,160,9,1,1,-20,0,-0.05,6.015199984865566,6.115199984865566,-0.31891171089082043,-0.3703428183392597,-6.419952558336765e-05,-0.006654146785458941,0.010275459893878175,9.800813313896112
6.688,0,4,1,2.2906100426385936,3451.9236459888975,0.0,6.065199984865566,160,9,1,1,-19,0,-0.045,6.020199984865566,6.110199984865566,-0.31503082041223757,-0.3704234814054966,-6.417279367029044e-05,-0.006539316372014207,0.00870496716033788,9.785259473846166
6.72,0,4,1,2.2906100426385936,3454.214256031536,0.0,6.065199984865566,160,9,1,1,-18,0,-0.039999999999999994,6.025199984865566,6.105199984865566,-0.31114984084894176,-0.3704997961494533,-6.414908543379665e-05,-0.006020654410350168,0.007962999127246509,9.84336592271224
6.752,0,4,1,1.7183580016555007,3455.9326140331914,-0.5722520409830929,6.116357855429741,160,9,1,0,-18,-1,-0.0945,6.021857855429741,6.210857855429741,-0.30726878668787183,-0.37057219954876575,-6.412841337452568e-05,-0.00516029600889376,0.0072738591473090275,9.840482746848382
6.784,0,4,1,1.7183580016555007,3457.6509720348467,0.0,6.116357855429741,160,9,1,1,-17,1,-0.030500000000000003,6.085857855429741,6.146857855429741,-0.3033549197078611,-0.3706417340402259,-6.41239443531609e-05,0.0346442619830052,0.006485913624361627,9.827505481755345
6.816,0,4,1,1.7183580016555007,3459.369330036502,0.0,6.116357855429741,160,9,1,1,-16,0,-0.03,6.086357855429741,6.146357855429741,-0.29944090756899167,-0.3707024780056573,-6.409980332337285e-05,0.01002870698480954,0.011600468413808834,9.768337943021068
6.848,0,4,1,1.7183580016555007,3461.0876880381575,0.0,6.116357855429741,160,9,1,1,-15,0,-0.024999999999999994,6.091357855429741,6.141357855429741,-0.2955268641689893,-0.3707606196914434,-6.406983429855725e-05,0.016891016458940162,0.005360680803053051,9.754129573701034
6.88,0,4,1,1.7183580016555007,3462.806046039813,0.0,6.116357855429741,160,9,1,1,-14,0,-0.020000000000000004,6.0963578554297415,6.136357855429741,-0.29161279268295576,-0.37081623595446966,-6.403422840706337e-05,0.016045698356206665,0.005176991395257877,9.781604687821035
6.912,0,4,1,1.1457628381751443,3463.951808877988,-0.5725951634803563,6.169143233402604,160,9,1,0,-14,-1,-0.07450000000000001,6.0946432334026035,6.243643233402604,-0.2876986965383356,-0.37086982228392795,-6.403476972802712e-05,0.014154410301841029,0.0046260126048653614,9.84509100122027
6.944,0,4,1,1.7183580016555007,3465.670166879643,0.5725951634803563,6.116357855429741,160,9,1,1,-13,1,-0.010499999999999999,6.105857855429741,6.1268578554297415,-0.283750790695532,-0.3709222689437423,-6.402208878146867e-05,0.04656427473834973,0.0040346847353750805,9.82310285921871
6.976,0,4,1,1.1457628381751443,3466.815929717818,-0.5725951634803563,6.169143233402604,160,9,1,0,-13,-1,-0.0695,6.099643233402604,6.238643233402604,-0.27983658339707135,-0.3709674537176734,-6.4035452292905e-05,-0.02694321826169154,0.009161053449249489,9.81053836182769
7.008,0,4,1,1.1457628381751443,3467.961692555993,0.0,6.169143233402604,160,9,1,1,-12,1,-0.005499999999999995,6.163643233402604,6.174643233402604,-0.2758885791874021,-0.3710123398847189,-6.404292788238751e-05,0.037440948686503064,0.0030141004976279007,9.797332759855502
7.04,0,4,1,1.1457628381751443,3469.107455394168,0.0,6.169143233402604,160,9,1,1,-11,0,-0.0049999999999999975,6.164143233402604,6.174143233402604,-0.2719405171432302,-0.3710508081537339,-6.40385753111275e-05,0.0026642657871974703,0.00863564571311749,9.80386551326528
7.072,0,4,1,1.1457628381751443,3470.253218232343,0.0,6.169143233402604,160,9,1,0,-11,-1,-0.0595,6.109643233402604,6.228643233402604,-0.26799245680142053,-0.3710890700569579,-6.403364270790232e-05,0.0006902714189687797,0.0024890256630864488,9.823349898368022
7.104,0,4,1,1.1457628381751443,3471.398981070518,0.0,6.169143233402604,160,9,1,1,-10,1,0.0045,6.173643233402604,6.164643233402604,-0.2640443884849924,-0.3711271780394051,-6.403657831577543e-05,-0.0013231395666669192,0.0023657102912079007,9.815684242667235
7.136,0,4,1,0.5729386976839008,3471.971919768202,-0.5728241404912435,6.223655143819362,160,9,1,0,-10,-1,-0.0545,6.169155143819362,6.278155143819362,-0.2600962773070308,-0.37115979965238693,-6.402758488197047e-05,-0.0032581170109354162,0.007518013199983929,9.761690973474815
7.168,0,4,1,1.1457628381751443,3473.117682606377,0.5728241404912435,6.169143233402604,160,9,1,1,-9,1,0.009500000000000005,6.178643233402604,6.159643233402604,-0.2561132797899448,-0.3711934719634142,-6.403004280856016e-05,0.03620813619680226,0.0012760942462306437,9.837833939621042
