Time,SetPointAngle,SensorAngleRow,SensorAngleWidth,Angle,IntegralAngle,DeltaAngle,BaseSpeed,SetPointError,SensorErrorRow,SensorErrorWidth,Error,IntegralError,DeltaError,DeltaSpeed,LeftSpeed,RightSpeed,X,Y,Z,Roll,Pitch,Yaw
0.032,0,4,1,1.7714697400340056,1.7714697400340056,1.7714697400340056,5.5,160,9,1,-4,-4,-4,-0.36599999999999994,5.134,5.866,-0.42705200000000004,0.3999999999999992,-6.396457831309502e-05,-3.881199933407102,-0.0932117966037196,9.77930381065122
0.064,0,4,1,0.5906572146464071,2.362126954680413,-1.1808125253875985,5.5,160,9,1,-3,-7,1,-0.26849999999999996,5.2315000000000005,5.7684999999999995,-0.4235558556072559,0.40000475130272745,-2.6525426863616836e-05,4.106364984459623,-0.02439831269612651,9.613778746374575
0.096,0,4,1,0.5906572146464071,2.95278416932682,0.0,5.5,160,9,1,-1,-8,2,-0.117,5.383,5.617,-0.4200509808928392,0.4000478068278432,-6.101774766957557e-05,0.3536504178735801,0.030243732538075566,9.711305575599374
0.128,0,4,1,0.5906572146464071,3.543441383973227,0.0,5.5,160,9,1,0,-8,1,-0.051,5.449,5.551,-0.41653081394225866,0.40010945789221924,-7.514700380524368e-05,-0.003386080585895428,0.01943236726064518,9.858496877916679
0.16,0,4,1,1.181188913326966,4.724630297300193,0.5905316986805589,5.5,160,9,1,0,-8,0,-0.06,5.44,5.56,-0.4130115155683853,0.4001796663588435,-6.904052564959094e-05,0.16049351458505123,0.010011681181156506,9.845656190217206
0.192,0,4,1,1.181188913326966,5.9058192106271585,0.0,5.5,160,9,1,1,-7,1,0.0315,5.5315,5.4685,-0.4094959255243728,0.4002537996894771,-6.897169746810164e-05,0.06978812073391998,0.0050175297327233765,9.7966747099263
0.224,0,4,1,1.181188913326966,7.087008123954124,0.0,5.5,160,9,1,1,-6,0,0.03,5.53,5.47,-0.4059769725344459,0.40033232111629,-6.876540394234847e-05,-0.014775013604087561,0.006500527969260862,9.816661270279836
0.256,0,4,1,1.181188913326966,8.268197037281091,0.0,5.5,160,9,1,1,-5,0,0.0375,5.5375,5.4625,-0.402457953371141,0.40040722302881304,-6.756061724219435e-05,-0.01738252736886574,-0.0009509558464477443,9.79116142812664
0.28800000000000003,0,4,1,1.181188913326966,9.449385950608058,0.0,5.5,160,9,1,1,-4,0,0.045,5.545,5.455,-0.3989388484386954,0.40047859984641326,-6.694687795586254e-05,-0.015425409700838031,-0.00041160016649411426,9.789570048269137
0.32,0,4,1,1.181188913326966,10.630574863935024,0.0,5.5,160,9,1,1,-3,0,0.0525,5.5525,5.4475,-0.3954196393502693,0.4005459009331047,-6.643608127551714e-05,-0.012784740258178261,-0.0007741551837503836,9.775874692355089
0.352,0,4,1,1.181188913326966,11.81176377726199,0.0,5.5,160,9,1,1,-2,0,0.06,5.56,5.44,-0.39190031502591327,0.4006086214301797,-6.60108564993888e-05,-0.009370872410962336,-0.0013142625844764226,9.85973545530441
0.384,0,4,1,0.5906572146464071,12.402420991908398,-0.5905316986805589,5.5,160,9,1,1,-1,0,0.0675,5.5675,5.4325,-0.3883808716735082,0.4006662764274666,-6.56580572872198e-05,-0.005432545350714107,-0.0020013892986992556,9.803583931335943
0.41600000000000004,0,4,1,0.5906572146464071,12.993078206554806,0.0,5.5,160,9,1,1,0,0,0.075,5.575,5.425,-0.3848613108830676,0.4007183868765521,-6.536699044373817e-05,-0.001189531888322079,-0.0028379432237538547,9.878256397103245
0.448,0,4,1,0.0,12.993078206554806,-0.5906572146464071,5.5,160,9,1,1,1,0,0.08249999999999999,5.5825,5.4175,-0.3813416382361922,0.4007644692811485,-6.51289070745572e-05,0.0030863288385779538,-0.0037940980119871813,9.752596745457629
0.48,0,4,1,0.5906572146464071,13.583735421201213,0.5906572146464071,5.5,160,9,1,0,1,-1,-0.0014999999999999996,5.4985,5.5015,-0.3778218624064446,0.40080402972767004,-6.493673425559537e-05,0.0071083043473791525,-0.00483286429527832,9.735760253946932
0.512,0,4,1,0.5906572146464071,14.17439263584762,0.0,5.5,160,9,1,0,1,0,0.0075,5.5075,5.4925,-0.37430206151695544,0.4008365960724636,-6.477242438323455e-05,0.010730725926443863,-0.005895235210869037,9.7446441958518
0.544,0,4,1,0.5906572146464071,14.765049850494028,0.0,5.5,160,9,1,0,1,0,0.0075,5.5075,5.4925,-0.37078225962829264,0.4008695923398355,-6.463189710984203e-05,0.013712892032846204,0.0007958771558471733,9.852044442833437
0.5760000000000001,0,4,1,0.0,14.765049850494028,-0.5906572146464071,5.5,160,9,1,1,2,1,0.09899999999999999,5.599,5.401,-0.3672624513588181,0.4009022960030473,-6.451021311891687e-05,0.0141373222941397,-0.0004212146879038829,9.814008643166828
0.608,0,4,1,0.0,14.765049850494028,0.0,5.5,160,9,1,0,2,-1,0.006,5.506,5.494,-0.3637426067760224,0.40093467358639456,-6.443505422065211e-05,0.01378269085910706,-0.0008658825372120615,9.845473269328904
0.64,0,4,1,0.0,14.765049850494028,0.0,5.5,160,9,1,0,2,0,0.015,5.515,5.485,-0.3602227077078139,0.4009588851596172,-6.43575916275986e-05,0.012495763058265956,-0.008860213299134565,9.802265533746512
0.672,0,4,1,0.0,14.765049850494028,0.0,5.5,160,9,1,0,2,0,0.015,5.515,5.485,-0.3567028051499756,0.40098296024774066,-6.429638514863535e-05,0.010492336093801007,-0.0012731941092491883,9.78905533426161
0.704,0,4,1,0.0,14.765049850494028,0.0,5.5,160,9,1,0,2,0,0.015,5.515,5.485,-0.35318289625899674,0.40100611526000335,-6.42457104840892e-05,0.007912770377733318,-0.0022524456687414,9.826776486205471
0.736,0,4,1,0.0,14.765049850494028,0.0,5.5,160,9,1,0,2,0,0.015,5.515,5.485,-0.34966297996810447,0.401028324418571,-6.42024266297829e-05,0.0047438257576754034,-0.002395723066397492,9.793389130507087
0.768,0,4,1,0.0,14.765049850494028,0.0,5.5,160,9,1,0,2,0,0.015,5.515,5.485,-0.34614305564519887,0.40104955262273206,-6.416416286738127e-05,0.001372466020482992,-0.0024864122504796872,9.824289984982057
0.8,0,4,1,0.0,14.765049850494028,0.0,5.5,160,9,1,0,2,0,0.015,5.515,5.485,-0.34262312303313003,0.4010697609946897,-6.41293661081694e-05,-0.002094677420258255,-0.0025037208426980317,9.871984532306474
0.8320000000000001,0,4,1,0.0,14.765049850494028,0.0,5.5,160,9,1,0,2,0,0.015,5.515,5.485,-0.33910318218064955,0.40108891087943427,-6.409729930145248e-05,-0.005461820513778725,-0.0025054833975154617,9.842126263157661
0.864,0,4,1,0.0,14.765049850494028,0.0,5.5,160,9,1,0,2,0,0.015,5.515,5.485,-0.33558323337222257,0.40110696649118116,-6.406794524474804e-05,-0.00849079930250642,-0.002462104878687704,9.818113667572756
0.896,0,4,1,0.0,14.765049850494028,0.0,5.5,160,9,1,0,2,0,0.015,5.515,5.485,-0.33206327706224215,0.401123896472346,-6.404180716603793e-05,-0.011026885578399119,-0.0024167849269959153,9.798240185810387
0.928,0,4,1,0.0,14.765049850494028,0.0,5.5,160,9,1,0,2,0,0.015,5.515,5.485,-0.3285433138170203,0.40113967461907507,-6.401963099160468e-05,-0.012941935212027808,-0.0023365338699797584,9.803383311449421
0.96,0,4,1,0.0,14.765049850494028,0.0,5.5,160,9,1,0,2,0,0.015,5.515,5.485,-0.3250233442663676,0.40115428000160186,-6.400209964445812e-05,-0.013954666089809454,-0.0022648252821781435,9.804795027831982
0.992,0,4,1,0.0,14.765049850494028,0.0,5.5,160,9,1,0,2,0,0.015,5.515,5.485,-0.3215033690411154,0.4011676965912367,-6.398917717588028e-05,-0.013811117258119909,-0.0021808253927227206,9.814857933738423
1.024,0,4,1,0.5906572146464071,15.355707065140436,0.5906572146464071,5.5,160,9,1,0,2,0,0.015,5.515,5.485,-0.31798338884553723,0.401179912740656,-6.398253841594266e-05,-0.013000690007037321,-0.0021126777950751905,9.866015294820805
1.056,0,4,1,0.5906572146464071,15.946364279786843,0.0,5.5,160,9,1,0,2,0,0.015,5.515,5.485,-0.3144634042830862,0.40119092073755275,-6.397961248379505e-05,-0.011325346225221153,-0.0020497161980763553,9.765198168191016
1.088,0,4,1,0.5906572146464071,16.53702149443325,0.0,5.5,160,9,1,0,2,0,0.015,5.515,5.485,-0.31094341595247293,0.4012007159547155,-6.397909096845372e-05,-0.008935862796632384,-0.0019907378640277853,9.856219233775855
1.12,0,4,1,0.5906572146464071,17.127678709079657,0.0,5.5,160,9,1,0,2,0,0.015,5.515,5.485,-0.30742342441564424,0.4012092961671177,-6.397950867656661e-05,-0.006100173977124251,-0.0019433841143626257,9.833422142155031
1.1520000000000001,0,4,1,0.5906572146464071,17.718335923726062,0.0,5.5,160,9,1,0,2,0,0.015,5.515,5.485,-0.30390343019759714,0.4012166609360703,-6.39795208627874e-05,-0.002844074958041113,-0.0018996026564729277,9.846196309642732
1.184,0,4,1,0.5906572146464071,18.308993138372468,0.0,5.5,160,9,1,0,2,0,0.015,5.515,5.485,-0.3003834337889647,0.40122281107975916,-6.397816092641034e-05,0.0005681908987326692,-0.0018769606133193703,9.841697321270765
1.216,0,4,1,0.5906572146464071,18.899650353018874,0.0,5.5,160,9,1,0,2,0,0.015,5.515,5.485,-0.2968634356501439,0.4012277482374992,-6.397501552087882e-05,0.003962422078464966,-0.0018474137771624973,9.8143208300879
1.248,0,4,1,0.5906572146464071,19.49030756766528,0.0,5.5,160,9,1,0,2,0,0.015,5.515,5.485,-0.2933434362161425,0.401231474525422,-6.397027596574331e-05,0.007114179518587924,-0.001821096893647862,9.802101573962508
1.28,0,4,1,0.5906572146464071,20.080964782311685,0.0,5.5,160,9,1,0,2,0,0.015,5.515,5.485,-0.28982343590166937,0.4012339922751612,-6.39646538080716e-05,0.009833145309560943,-0.0018245643360948064,9.793641633686022
1.312,0,4,1,1.181188913326966,21.262153695638652,0.5905316986805589,5.5,160,9,1,0,2,0,0.015,5.515,5.485,-0.286303435106203,0.4012353038437492,-6.395918016139854e-05,0.012011960934062493,-0.0018207332973972147,9.80940653954722
1.344,0,4,1,1.181188913326966,22.44334260896562,0.0,5.5,160,9,1,0,2,0,0.015,5.515,5.485,-0.2827834342188315,0.401235411481731,-6.39549356375637e-05,0.013329359647965257,-0.001799183258355535,9.77007785478165
1.3760000000000001,0,4,1,1.181188913326966,23.624531522292585,0.0,5.5,160,9,1,0,2,0,0.015,5.515,5.485,-0.2792634336226315,0.4012343172468044,-6.395277389882777e-05,0.014006484850572454,-0.001797845508598183,9.756497412552786
1.408,0,4,1,1.181188913326966,24.805720435619552,0.0,5.5,160,9,1,0,2,0,0.015,5.515,5.485,-0.2757434336983237,0.40123202295158616,-6.395310326250125e-05,0.013771772917557719,-0.001807116972067278,9.811650288708412
1.44,0,4,1,0.5906572146464071,25.396377650265958,-0.5905316986805589,5.5,160,9,1,-1,1,-1,-0.0765,5.4235,5.5765,-0.2722234348270006,0.4012285301359359,-6.395577710459517e-05,0.012732066249789228,-0.0018088727233727178,9.842616353907314
1.472,0,4,1,0.5906572146464071,25.987034864912363,0.0,5.5,160,9,1,0,1,1,0.0165,5.5165,5.4835,-0.2687034481098796,0.40122389077811793,-6.395447325131635e-05,0.010929205331724708,-0.0017494208280027918,9.808558026426994
1.504,0,4,1,1.181188913326966,27.16822377823933,0.5905316986805589,5.5,160,9,1,0,1,0,0.0075,5.5075,5.4925,-0.2651834397543197,0.40122597610744765,-6.396121627279955e-05,0.00848190413094063,0.005937702129455312,9.810198227892325
1.536,0,4,1,1.181188913326966,28.349412691566297,0.0,5.5,160,9,1,0,1,0,0.0075,5.5075,5.4925,-0.2616634335944895,0.40122669782563186,-6.39675122532414e-05,0.0055288954594410805,-0.0018789795059855803,9.808353965732936
1.568,0,4,1,1.181188913326966,29.530601604893263,0.0,5.5,160,9,1,0,1,0,0.0075,5.5075,5.4925,-0.25814343075901536,0.4012268004205444,-6.397231280644983e-05,0.002221421555230563,-0.0010758675685755812,9.816669574309037
1.6,0,4,1,1.181188913326966,30.71179051822023,0.0,5.5,160,9,1,0,1,0,0.0075,5.5075,5.4925,-0.2546234302653663,0.4012262640607097,-6.397451811434966e-05,-0.001212783207826737,-0.0010111973897967723,9.799627431621895
1.6320000000000001,0,4,1,1.181188913326966,31.892979431547197,0.0,5.5,160,9,1,0,1,0,0.0075,5.5075,5.4925,-0.25110343138641156,0.4012250779576834,-6.39737997328374e-05,-0.004568218839926864,-0.0009582509650986187,9.778564193280173
1.6640000000000001,0,4,1,1.181188913326966,33.07416834487416,0.0,5.5,160,9,1,0,1,0,0.0075,5.5075,5.4925,-0.2475834336129078,0.4012232381240368,-6.397055000932628e-05,-0.007660291246264995,-0.0009083039833162771,9.82837430455864
1.696,0,4,1,0.5906572146464071,33.664825559520565,-0.5905316986805589,5.5,160,9,1,-1,0,-1,-0.08399999999999999,5.416,5.584,-0.24406343661452912,0.4012207453569379,-6.396571755523314e-05,-0.010286353984122391,-0.0008703549072569145,9.807042834317066
1.728,0,4,1,0.5906572146464071,34.25548277416697,0.0,5.5,160,9,1,0,0,1,0.009,5.509,5.491,-0.2405434445404305,0.40121755713528817,-6.395971149577781e-05,-0.012366043832108861,-0.0008847955883616412,9.857421306103314
1.76,0,4,1,0.5906572146464071,34.84613998881338,0.0,5.5,160,9,1,0,0,0,0.0,5.5,5.5,-0.23702343827518052,0.40122174372311425,-6.395712827388794e-05,-0.013539419111537327,0.0070152400762707005,9.834467969469593
1.792,0,4,1,0.5906572146464071,35.43679720345978,0.0,5.5,160,9,1,0,0,0,0.0,5.5,5.5,-0.2335034347742041,0.4012251170608141,-6.395731572484721e-05,-0.013977366517251582,-0.0008812848674347485,9.79180455292982
1.824,0,4,1,0.5906572146464071,36.02745441810619,0.0,5.5,160,9,1,0,0,0,0.0,5.5,5.5,-0.2299834348020758,0.40122844861120355,-6.395998199360681e-05,-0.01374154341450846,-5.5931458457998924e-05,9.817251823555315
1.856,0,4,1,0.5906572146464071,36.618111632752594,0.0,5.5,160,9,1,0,0,0,0.0,5.5,5.5,-0.2264634371477532,0.40123172506520305,-6.396442578860718e-05,-0.012561231902075216,-1.428583539896474e-06,9.803646366861347
1.8880000000000001,0,4,1,0.5906572146464071,37.208768847399,0.0,5.5,160,9,1,0,0,0,0.0,5.5,5.5,-0.22294344087668772,0.401234941432127,-6.396970106758125e-05,-0.01062660191516653,4.9136397450965455e-05,9.777837375936281
1.92,0,4,1,0.5906572146464071,37.799426062045406,0.0,5.5,160,9,1,0,0,0,0.0,5.5,5.5,-0.21942344529715999,0.4012380986597435,-6.397469004367114e-05,-0.0081107936648408,9.006918166951277e-05,9.815108998165883
1.952,0,4,1,0.5906572146464071,38.39008327669181,0.0,5.5,160,9,1,0,0,0,0.0,5.5,5.5,-0.21590344992149554,0.40124120158633025,-6.397828426917343e-05,-0.005043514639940553,0.0001209294668083957,9.807021571227468
1.984,0,4,1,0.5906572146464071,38.98074049133822,0.0,5.5,160,9,1,0,0,0,0.0,5.5,5.5,-0.212383454426746,0.4012442572992188,-6.397960985230974e-05,-0.0017212642011982993,0.00013972718607833557,9.818228314282731
2.016,0,4,1,0.5906572146464071,39.57139770598462,0.0,5.5,160,9,1,0,0,0,0.0,5.5,5.5,-0.20886345861770256,0.40124727388028975,-6.397822721483995e-05,0.00172895631657621,0.00014786516047028442,9.813597024690795
2.048,0,4,1,0.5906572146464071,40.16205492063103,0.0,5.5,160,9,1,0,0,0,0.0,5.5,5.5,-0.20534346239396928,0.40125025949844656,-6.39742461156119e-05,0.005037415903058642,0.000146718603956491,9.743721216203598
2.08,0,4,1,0.5906572146464071,40.752712135277434,0.0,5.5,160,9,1,0,0,0,0.0,5.5,5.5,-0.2018234657220306,0.4012532217980076,-6.396832014592818e-05,0.008038258636733337,0.00014072031651622606,9.80354235984537
2.112,0,4,1,0.5906572146464071,41.34336934992384,0.0,5.5,160,9,1,0,0,0,0.0,5.5,5.5,-0.1983034686126636,0.4012561675280607,-6.396151609590686e-05,0.010687707765400557,0.00012822280639006092,9.786309964013771
2.144,0,4,1,0.5906572146464071,41.934026564570246,0.0,5.5,160,9,1,0,0,0,0.0,5.5,5.5,-0.19478347110357105,0.4012591023590085,-6.395508520113877e-05,0.012592532654855047,0.00011355942285311014,9.760032487522004
2.176,0,4,1,0.5906572146464071,42.52468377921665,0.0,5.5,160,9,1,0,0,0,0.0,5.5,5.5,-0.19126347324671603,0.4012620308371172,-6.395018797873166e-05,0.013700289137800433,9.7715924374256e-05,9.789779885817685
2.208,0,4,1,0.5906572146464071,43.11534099386306,0.0,5.5,160,9,1,0,0,0,0.0,5.5,5.5,-0.1877434750995583,0.401264956434415,-6.39476364243663e-05,0.014020836682762477,8.137628747648661e-05,9.81079055599152
2.24,0,4,1,0.5906572146464071,43.70599820850946,0.0,5.5,160,9,1,0,0,0,0.0,5.5,5.5,-0.1842234767192656,0.401267881658678,-6.394771402136283e-05,0.013603032253394038,6.588408476786845e-05,9.808067924693836
2.2720000000000002,0,4,1,0.5906572146464071,44.29665542315587,0.0,5.5,160,9,1,0,0,0,0.0,5.5,5.5,-0.18070347815902876,0.40127080819568545,-6.39501161964276e-05,0.012273689683074756,5.1451361957793164e-05,9.792024976104248
2.3040000000000003,0,4,1,0.5906572146464071,44.887312637802275,0.0,5.5,160,9,1,0,0,0,0.0,5.5,5.5,-0.17718347946580962,0.4012737370628822,-6.395402577106038e-05,0.01023335973925742,3.898455457805586e-05,9.783199574769286
2.336,0,4,1,0.5906572146464071,45.47796985244868,0.0,5.5,160,9,1,0,0,0,0.0,5.5,5.5,-0.1736634806791116,0.40127666875969875,-6.395830632375393e-05,0.007566236236261611,2.8613610218804318e-05,9.782221932804454
2.368,0,4,1,0.5906572146464071,46.068627067095086,0.0,5.5,160,9,1,0,0,0,0.0,5.5,5.5,-0.17014348183058287,0.401279603404927,-6.396176864023606e-05,0.00447844983376012,1.9914093491759056e-05,9.781482474942097
2.4,0,4,1,0.5906572146464071,46.65928428174149,0.0,5.5,160,9,1,0,0,0,0.0,5.5,5.5,-0.16662348294436294,0.40128254085565823,-6.396344817652909e-05,0.0011153001828074062,1.301533845094993e-05,9.818986271338165
2.432,0,4,1,0.5906572146464071,47.2499414963879,0.0,5.5,160,9,1,0,0,0,0.0,5.5,5.5,-0.16310348403805908,0.40128548080541815,-6.396282879224911e-05,-0.0023065876944334722,7.84690223523815e-06,9.788855904187587
2.464,0,4,1,0.5906572146464071,47.8405987110343,0.0,5.5,160,9,1,0,0,0,0.0,5.5,5.5,-0.15958348512412998,0.40128842286140404,-6.39599605413415e-05,-0.005604576858209933,4.040831929360135e-06,9.856290120168666
2.496,0,4,1,0.5906572146464071,48.43125592568071,0.0,5.5,160,9,1,0,0,0,0.0,5.5,5.5,-0.15606348621136154,0.40129136660223746,-6.395544413598069e-05,-0.008646083631808884,1.3597540649770609e-06,9.827492624494669
2.528,0,4,1,0.5906572146464071,49.021913140327115,0.0,5.5,160,9,1,0,0,0,0.0,5.5,5.5,-0.15254348730611125,0.40129431161856827,-6.395028597284275e-05,-0.011018032322422237,-3.874625645008149e-07,9.802005103408511
2.56,0,4,1,0.5906572146464071,49.61257035497352,0.0,5.5,160,9,1,0,0,0,0.0,5.5,5.5,-0.14902348841310595,0.4012972575393039,-6.394565799023103e-05,-0.012889248874309126,-1.4202474087094674e-06,9.85148908285294
2.592,0,4,1,0.5906572146464071,50.203227569619926,0.0,5.5,160,9,1,0,0,0,0.0,5.5,5.5,-0.14550348953576744,0.4013002040463473,-6.394261894218309e-05,-0.01385724798790534,-1.915488704125331e-06,9.81818377592763
2.624,0,4,1,0.5906572146464071,50.79388478426633,0.0,5.5,160,9,1,0,0,0,0.0,5.5,5.5,-0.14198349067622387,0.4013031508805899,-6.394186271216525e-05,-0.014048689368965884,-2.0373031769869857e-06,9.797996933662734
2.656,0,4,1,0.5906572146464071,51.38454199891274,0.0,5.5,160,9,1,0,0,0,0.0,5.5,5.5,-0.13846349183526238,0.401306097841621,-6.394355287916986e-05,-0.013386181262986772,-1.928519513081552e-06,9.819609785512613
2.688,0,4,1,0.5906572146464071,51.975199213559144,0.0,5.5,160,9,1,0,0,0,0.0,5.5,5.5,-0.1349434930124466,0.4013090447832528,-6.394728244886981e-05,-0.011908078963633746,-1.6678281630466136e-06,9.833368604825708
2.72,0,4,1,0.5906572146464071,52.56585642820555,0.0,5.5,160,9,1,0,0,0,0.0,5.5,5.5,-0.13142349420648103,0.40131199160656605,-6.395216817555588e-05,-0.009804221443990613,-1.33876843106065e-06,9.794069463889123
2.7520000000000002,0,4,1,0.5906572146464071,53.156513642851955,0.0,5.5,160,9,1,0,0,0,0.0,5.5,5.5,-0.12790349541573123,0.401314938251797,-6.395705725076826e-05,-0.007085187319664254,-1.002424652769519e-06,9.788760455078151
2.7840000000000003,0,4,1,0.5906572146464071,53.74717085749836,0.0,5.5,160,9,1,0,0,0,0.0,5.5,5.5,-0.12438349663869282,0.4013178846900343,-6.396079768363101e-05,-0.003905608828231386,-6.892673139697503e-07,9.839732089423036
2.816,0,4,1,0.5906572146464071,54.33782807214477,0.0,5.5,160,9,1,0,0,0,0.0,5.5,5.5,-0.12086349787420596,0.4013208309153897,-6.39625087098545e-05,-0.0005115052840628596,-4.119689878388198e-07,9.769879472303206
2.848,0,4,1,0.5906572146464071,54.92848528679117,0.0,5.5,160,9,1,0,0,0,0.0,5.5,5.5,-0.11734349912132729,0.4013237769380516,-6.39617875739084e-05,0.002912080907671178,-1.8205160301392796e-07,9.804145380769539
2.88,0,4,1,0.5906572146464071,55.51914250143758,0.0,5.5,160,9,1,0,0,0,0.0,5.5,5.5,-0.11382350037894394,0.4013267227784366,-6.395880399158622e-05,0.006148187100417607,-7.103038630284925e-09,9.791722734647042
2.912,0,4,1,0.5906572146464071,56.109799716083984,0.0,5.5,160,9,1,0,0,0,0.0,5.5,5.5,-0.11030350164534602,0.40132966846249946,-6.395426003704893e-05,0.009038372791654802,1.1876188566232728e-07,9.805661192374687
2.944,0,4,1,0.5906572146464071,56.70045693073039,0.0,5.5,160,9,1,0,0,0,0.0,5.5,5.5,-0.1067835029180018,0.40133261401815956,-6.39492248623915e-05,0.011400223484254944,2.0019402321405738e-07,9.827809280392618
2.976,0,4,1,0.5906572146464071,57.291114145376795,0.0,5.5,160,9,1,0,0,0,0.0,5.5,5.5,-0.10326350419368062,0.40133555947273936,-6.394488310936496e-05,0.013093853907861589,2.4447253409408434e-07,9.837024327153346
3.008,0,4,1,0.5906572146464071,57.8817713600232,0.0,5.5,160,9,1,0,0,0,0.0,5.5,5.5,-0.0997435054688978,0.4013385048512673,-6.39422561920424e-05,0.01392954022200692,2.612608694653404e-07,9.813173201564597
3.04,0,4,1,0.5906572146464071,58.47242857466961,0.0,5.5,160,9,1,0,0,0,0.0,5.5,5.5,-0.09622350674049536,0.40134145017548445,-6.394196199658447e-05,0.01394864675066504,2.5886498335925515e-07,9.791430660075408
3.072,0,4,1,0.5906572146464071,59.06308578931601,0.0,5.5,160,9,1,0,0,0,0.0,5.5,5.5,-0.09270350800610694,0.40134439546340156,-6.394406953695239e-05,0.013070343364177884,2.409040111674783e-07,9.860124056094449
3.104,0,4,1,0.5906572146464071,59.65374300396242,0.0,5.5,160,9,1,0,0,0,0.0,5.5,5.5,-0.08918350926431762,0.4013473407292565,-6.394808273910493e-05,0.011633956689864906,2.1354716943593657e-07,9.744943502443721
3.136,0,4,1,0.5906572146464071,60.244400218608824,0.0,5.5,160,9,1,0,0,0,0.0,5.5,5.5,-0.08566351051448301,0.40135028598375044,-6.395305717213709e-05,0.009380107310125823,1.8303283511772814e-07,9.762999381695066
3.168,0,4,1,0.5906572146464071,60.83505743325523,0.0,5.5,160,9,1,0,0,0,0.0,5.5,5.5,-0.08214351175634528,0.40135323123445477,-6.395782225918946e-05,0.006558195279065322,1.5133688436547272e-07,9.789201373517205
3.2,0,4,1,0.5906572146464071,61.425714647901636,0.0,5.5,160,9,1,0,0,0,0.0,5.5,5.5,-0.07862351298967876,0.4013561764863065,-6.396125668819627e-05,0.0033099628098626917,1.2335537860320263e-07,9.804521685993082
3.232,0,4,1,0.5906572146464071,62.01637186254804,0.0,5.5,160,9,1,0,0,0,0.0,5.5,5.5,-0.07510351421417104,0.40135912174213106,-6.39625522267373e-05,-9.186972801303543e-05,9.625300883785684e-08,9.832729714337203
3.2640000000000002,0,4,1,0.5906572146464071,62.60702907719445,0.0,5.5,160,9,1,0,0,0,0.0,5.5,5.5,-0.07158351542961265,0.40136206700314575,-6.396140387789247e-05,-0.0034998693674581707,7.472100174757106e-08,9.783435905858708
3.2960000000000003,0,4,1,0.5906572146464071,63.19768629184085,0.0,5.5,160,9,1,0,0,0,0.0,5.5,5.5,-0.06806351663629341,0.40136501226941673,-6.395808163509563e-05,-0.006660321196930315,5.656090298720974e-08,9.815536686260195
3.3280000000000003,0,4,1,0.5906572146464071,63.78834350648726,0.0,5.5,160,9,1,0,0,0,0.0,5.5,5.5,-0.06454351783538316,0.4013679575402549,-6.395336696207558e-05,-0.009560369453067761,4.278208530640277e-08,9.814683896770353
3.36,0,4,1,0.5906572146464071,64.37900072113366,0.0,5.5,160,9,1,0,0,0,0.0,5.5,5.5,-0.061023519029068676,0.4013709028145417,-6.394836893751019e-05,-0.011716637841093159,3.2369757714926655e-08,9.787703903520086
3.392,0,4,1,0.5906572146464071,64.96965793578008,0.0,5.5,160,9,1,0,0,0,0.0,5.5,5.5,-0.057503520220332505,0.4013738480909825,-6.394426332146687e-05,-0.01319269895189451,2.4893825778385815e-08,9.772465790091974
3.424,0,4,1,0.5906572146464071,65.56031515042649,0.0,5.5,160,9,1,0,0,0,0.0,5.5,5.5,-0.05398352141243479,0.40137679336829885,-6.394201593542051e-05,-0.014091802005624625,1.9682056341201483e-08,9.751237333253522
3.456,0,4,1,0.5906572146464071,66.1509723650729,0.0,5.5,160,9,1,0,0,0,0.0,5.5,5.5,-0.05046352260830461,0.40137973864536003,-6.394215543520723e-05,-0.013886754973512112,1.606223893731015e-08,9.82792142370737
3.488,0,4,1,0.5906572146464071,66.74162957971932,0.0,5.5,160,9,1,0,0,0,0.0,5.5,5.5,-0.04694352381009341,0.4013826839212656,-6.394464892985757e-05,-0.012903215687689418,1.3891883408007835e-08,9.834663729330288
3.52,0,4,1,0.5906572146464071,67.33228679436573,0.0,5.5,160,9,1,0,0,0,0.0,5.5,5.5,-0.04342352501905669,0.4013856291953879,-6.394890971957168e-05,-0.011202181828260575,1.1977573182258338e-08,9.795233382707359
3.552,0,4,1,0.5906572146464071,67.92294400901214,0.0,5.5,160,9,1,0,0,0,0.0,5.5,5.5,-0.03990352623576761,0.40138857446738185,-6.395393531961197e-05,-0.008912256982747183,1.050882134795521e-08,9.800882066707148
3.584,0,4,1,0.5906572146464071,68.51360122365855,0.0,5.5,160,9,1,0,0,0,0.0,5.5,5.5,-0.036383527460501004,0.4013915197371724,-6.395854330714865e-05,-0.00597414717499436,8.873455629574383e-09,9.803931701847246
3.616,0,4,1,0.5906572146464071,69.10425843830497,0.0,5.5,160,9,1,0,0,0,0.0,5.5,5.5,-0.03286352869354948,0.40139446500492576,-6.396164950519569e-05,-0.002735717001458786,7.009063460834255e-09,9.834537441331467
3.648,0,4,1,0.5906572146464071,69.69491565295138,0.0,5.5,160,9,1,0,0,0,0.0,5.5,5.5,-0.029343529935281713,0.4013974102710105,-6.396252304999121e-05,0.0006959501285043304,4.797851531898725e-09,9.832773481020634
3.68,0,4,1,0.0,69.69491565295138,-0.5906572146464071,5.5,160,9,1,0,0,0,0.0,5.5,5.5,-0.025823531185900528,0.40140035553595227,-6.396095834023535e-05,0.004077707818055596,2.2210541989222734e-09,9.791759440378954
3.712,0,4,1,0.0,69.69491565295138,0.0,5.5,160,9,1,0,0,0,0.0,5.5,5.5,-0.022303532445028945,0.4014033008003889,-6.395732341032273e-05,0.007213563796710764,-7.046009610098457e-10,9.816745018324706
3.744,0,4,1,0.5906572146464071,70.28557286759779,0.5906572146464071,5.5,160,9,1,0,0,0,0.0,5.5,5.5,-0.018783533711356357,0.4014062460650231,-6.395247334677057e-05,0.009878986738993734,-3.9044508839373225e-09,9.837546879084265
3.7760000000000002,0,4,1,0.0,70.28557286759779,-0.5906572146464071,5.5,160,9,1,0,0,0,0.0,5.5,5.5,-0.015263534982560516,0.4014091913305817,-6.394754912019199e-05,0.012080447363154325,-7.2446781008063874e-09,9.82316660741675
3.8080000000000003,0,4,1,0.0,70.28557286759779,0.0,5.5,160,9,1,0,0,0,0.0,5.5,5.5,-0.011743536255590305,0.4014121365977761,-6.394370915836431e-05,0.013333833835329472,-1.0562870782358421e-08,9.79332691390683
3.84,0,4,1,0.0,70.28557286759779,0.0,5.5,160,9,1,0,0,0,0.0,5.5,5.5,-0.00822353752721872,0.4014150818672669,-6.394185681238285e-05,0.013889522645542886,-1.3883477570480241e-08,9.808753996173163
3.872,0,4,1,0.0,70.28557286759779,0.0,5.5,160,9,1,0,0,0,0.0,5.5,5.5,-0.0047035387946407535,0.401418027139636,-6.39424278338803e-05,0.013806293881787016,-1.6823919342784876e-08,9.815437127244758
3.904,0,4,1,0.0,70.28557286759779,0.0,5.5,160,9,1,0,0,0,0.0,5.5,5.5,-0.0011835400558721874,0.40142097241536323,-6.394528786088545e-05,0.012722214192302957,-1.9422424235287138e-08,9.805676769379385
3.936,0,4,1,0.0,70.28557286759779,0.0,5.5,160,9,1,0,0,0,0.0,5.5,5.5,0.0023364586901948956,0.401423917694809,-6.394976402993025e-05,0.010939806269882566,-2.1499144756620047e-08,9.7916256827878
3.968,0,4,1,0.5906572146464071,70.8762300822442,0.5906572146464071,5.5,160,9,1,1,1,1,0.09149999999999998,5.5915,5.4085,0.00585645744404971,0.40142686297820207,-6.395480327599928e-05,0.008425723159055687,-2.2991142717694457e-08,9.76566052041987
4.0,0,4,1,0.5906572146464071,71.46688729689062,0.0,5.5,160,9,1,0,1,-1,-0.0014999999999999996,5.4985,5.5015,0.009376456186892562,0.401429777638313,-6.395922142110252e-05,0.005449575557046901,-2.8405891372290568e-05,9.778810921223185
4.032,0,4,1,0.5906572146464071,72.05754451153703,0.0,5.5,160,9,1,0,1,0,0.0075,5.5075,5.4925,0.01289646589476856,0.4014247624266294,-6.396428756570705e-05,0.002150571247025856,-0.007748104661797135,9.815638185160356
4.064,0,4,1,0.5906572146464071,72.64820172618344,0.0,5.5,160,9,1,0,1,0,0.0075,5.5075,5.4925,0.016416472220842478,0.40141992611551525,-6.39684585860955e-05,-0.0013056338124295052,7.741331222056388e-05,9.809946681672539
4.096,0,4,1,0.5906572146464071,73.23885894082986,0.0,5.5,160,9,1,0,1,0,0.0075,5.5075,5.4925,0.019936472644798146,0.4014145035230005,-6.397047391715205e-05,-0.004651460830245302,-0.0007513329674839034,9.807825205205203
4.128,0,4,1,1.181188913326966,74.42004785415682,0.5905316986805589,5.5,160,9,1,0,1,0,0.0075,5.5075,5.4925,0.023456468586420108,0.4014085137791651,-6.39700411619662e-05,-0.0077423468149664205,-0.0008027338186566979,9.787630237661515
4.16,0,4,1,1.181188913326966,75.60123676748378,0.0,5.5,160,9,1,0,1,0,0.0075,5.5075,5.4925,0.026976461189048544,0.40140196697931796,-6.396770179443491e-05,-0.010413061128549877,-0.0008689263441053534,9.824487450763629
4.192,0,4,1,1.181188913326966,76.78242568081075,0.0,5.5,160,9,1,0,1,0,0.0075,5.5075,5.4925,0.030496451325061968,0.4013948663996848,-6.396449898945535e-05,-0.012451773713098923,-0.0009224868788818555,9.813746888920623
4.224,0,4,1,1.181188913326966,77.96361459413771,0.0,5.5,160,9,1,0,1,0,0.0075,5.5075,5.4925,0.03401643961935642,0.4013872105039083,-6.396161148669241e-05,-0.013682728616874208,-0.0009704370275500544,9.793470275205527
4.256,0,4,1,1.181188913326966,79.14480350746467,0.0,5.5,160,9,1,0,1,0,0.0075,5.5075,5.4925,0.03753642648277532,0.4013789946273419,-6.396001576408974e-05,-0.01409161835131926,-0.0009913004671840342,9.816679130487724
4.288,0,4,1,1.181188913326966,80.32599242079164,0.0,5.5,160,9,1,0,1,0,0.0075,5.5075,5.4925,0.041056412149586954,0.40137021232897324,-6.396023673067505e-05,-0.013726043218753363,-0.0010185140680845973,9.839250001736762
4.32,0,4,1,1.181188913326966,81.5071813341186,0.0,5.5,160,9,1,0,1,0,0.0075,5.5075,5.4925,0.04457639671475372,0.40136085642682057,-6.396223064540282e-05,-0.012513845958932296,-0.001026357791156647,9.85636741712727
4.352,0,4,1,0.5906572146464071,82.09783854876501,-0.5905316986805589,5.5,160,9,1,-1,0,-1,-0.08399999999999999,5.416,5.584,0.04809638016822269,0.40135091974909426,-6.396541662363753e-05,-0.010610532739737224,-0.0010334810502849725,9.791107675946
4.384,0,4,1,1.181188913326966,83.27902746209197,0.5905316986805589,5.5,160,9,1,0,0,1,0.009,5.509,5.491,0.05161635779407659,0.40134035523107325,-6.396523974804696e-05,-0.007976555567629665,-0.0010650213765001765,9.809002357380166
4.416,0,4,1,1.181188913326966,84.46021637541894,0.0,5.5,160,9,1,0,0,0,0.0,5.5,5.5,0.055136366199587054,0.40133721009942297,-6.397015250056079e-05,-0.004952066520397403,0.006843415004364392,9.84980585745064
4.448,0,4,1,1.181188913326966,85.6414052887459,0.0,5.5,160,9,1,0,0,0,0.0,5.5,5.5,0.05865637019558421,0.4013332942296992,-6.39739884149837e-05,-0.0016162979739966846,-0.0010760722935610574,9.836979996876773
4.48,0,4,1,1.181188913326966,86.82259420207286,0.0,5.5,160,9,1,0,0,0,0.0,5.5,5.5,0.06217637058371578,0.4013293664065413,-6.397574302770444e-05,0.0018363561890274481,-0.0002441165639731597,9.712560958656148
4.5120000000000005,0,4,1,1.181188913326966,88.00378311539983,0.0,5.5,160,9,1,0,0,0,0.0,5.5,5.5,0.06569636846819035,0.4013254042464034,-6.39748561719021e-05,0.005164049708568837,-0.00017452694489133885,9.882061804837095
4.5440000000000005,0,4,1,1.181188913326966,89.18497202872679,0.0,5.5,160,9,1,0,0,0,0.0,5.5,5.5,0.06921636472764553,0.4013213952266459,-6.39716098553185e-05,0.008184529199250216,-0.00010309792392299435,9.816697659169375
4.5760000000000005,0,4,1,1.181188913326966,90.36616094205375,0.0,5.5,160,9,1,0,0,0,0.0,5.5,5.5,0.07273636003587956,0.40131733433023925,-6.396690297168911e-05,0.01072081857405916,-3.90723742061702e-05,9.798490927694422
4.6080000000000005,0,4,1,1.181188913326966,91.54734985538072,0.0,5.5,160,9,1,0,0,0,0.0,5.5,5.5,0.07625635488941658,0.40131322190305696,-6.396194809277916e-05,0.012611575466584733,1.3300727173679417e-05,9.848679756806863
4.64,0,4,1,1.181188913326966,92.72853876870768,0.0,5.5,160,9,1,0,0,0,0.0,5.5,5.5,0.0797763496372461,0.40130906184453763,-6.395794159031777e-05,0.01365501445572928,5.302279513639346e-05,9.784232155546398
4.672,0,4,1,1.181188913326966,93.90972768203464,0.0,5.5,160,9,1,0,0,0,0.0,5.5,5.5,0.08329634450978077,0.40130486014828703,-6.395576853021091e-05,0.014030983159212349,8.093064851338591e-05,9.774512529257377
4.704,0,4,1,1.181188913326966,95.0909165953616,0.0,5.5,160,9,1,0,0,0,0.0,5.5,5.5,0.08681633964538778,0.40130062377929704,-6.395579965887133e-05,0.013525658512484976,9.706341034662269e-05,9.85705971364751
4.736,0,4,1,1.181188913326966,96.27210550868857,0.0,5.5,160,9,1,0,0,0,0.0,5.5,5.5,0.09033633511371791,0.401296359855307,-6.395781952284012e-05,0.012142154024850733,0.00010426474425169826,9.835856762489941
4.768,0,4,1,1.181188913326966,97.45329442201553,0.0,5.5,160,9,1,0,0,0,0.0,5.5,5.5,0.09385633093554342,0.4012920750892134,-6.396109664812306e-05,0.010149270858384279,0.00010356104524147798,9.846871796008358
4.8,0,4,1,1.181188913326966,98.6344833353425,0.0,5.5,160,9,1,0,0,0,0.0,5.5,5.5,0.09737632709905125,0.401287775445347,-6.396457540659359e-05,0.007420985113203024,9.788282930531804e-05,9.841922835222244
4.832,0,4,1,1.181188913326966,99.81567224866946,0.0,5.5,160,9,1,0,0,0,0.0,5.5,5.5,0.10089632357265955,0.40128346596300357,-6.396714214089785e-05,0.004324790055656191,8.94015468745806e-05,9.801716193421285
4.864,0,4,1,1.181188913326966,100.99686116199642,0.0,5.5,160,9,1,0,0,0,0.0,5.5,5.5,0.10441632031454973,0.40127915070426556,-6.396790178571365e-05,0.0009652317488308812,7.696751512532141e-05,9.79553776727858
4.896,0,4,1,1.181188913326966,102.17805007532338,0.0,5.5,160,9,1,0,0,0,0.0,5.5,5.5,0.10793631727926833,0.40127483278863124,-6.39663995181828e-05,-0.002447675725555887,6.461125016804367e-05,9.8076304127383
4.928,0,4,1,1.181188913326966,103.35923898865035,0.0,5.5,160,9,1,0,0,0,0.0,5.5,5.5,0.1114563144219291,0.40127051448323714,-6.396273538972902e-05,-0.005757760227097602,5.265497679462742e-05,9.802198984615215
4.96,0,4,1,1.181188913326966,104.54042790197731,0.0,5.5,160,9,1,0,0,0,0.0,5.5,5.5,0.11497631170066229,0.40126619732388413,-6.395754536291272e-05,-0.008672358511831487,4.1409372024920353e-05,9.883681912251511
4.992,0,4,1,1.181188913326966,105.72161681530427,0.0,5.5,160,9,1,0,0,0,0.0,5.5,5.5,0.11849630907795652,0.40126188224808584,-6.39518537325183e-05,-0.011142068595511596,3.126956367064569e-05,9.826447222771689
5.024,0,4,1,1.181188913326966,106.90280572863124,0.0,5.5,160,9,1,0,0,0,0.0,5.5,5.5,0.12201630652140098,0.40125756972671833,-6.394683221700413e-05,-0.012912629270701696,2.293526869862184e-05,9.840172128615686
5.056,0,4,1,1.181188913326966,108.0839946419582,0.0,5.5,160,9,1,0,0,0,0.0,5.5,5.5,0.12553630400411014,0.401253259885384,-6.394352293393087e-05,-0.013910192205423685,1.564220713633533e-05,9.789870157860603
5.088,0,4,1,1.181188913326966,109.26518355528516,0.0,5.5,160,9,1,0,0,0,0.0,5.5,5.5,0.12905630150489394,0.4012489526102525,-6.394259090818782e-05,-0.014024779042286772,1.0089418853816971e-05,9.787221978530615
5.12,0,4,1,1.181188913326966,110.44637246861213,0.0,5.5,160,9,1,0,0,0,0.0,5.5,5.5,0.13257629900810045,0.401244647635973,-6.394416473813613e-05,-0.013322349367926211,5.785220169435682e-06,9.847080585207719
5.152,0,4,1,0.5906572146464071,111.03702968325854,-0.5905316986805589,5.5,160,9,1,-1,-1,-1,-0.09149999999999998,5.4085,5.5915,0.1360962965030592,0.40124034461531544,-6.394780322023508e-05,-0.011808327990038791,2.6328742726589998e-06,9.805946042648646
5.184,0,4,1,0.5906572146464071,111.62768689790495,0.0,5.5,160,9,1,0,-1,1,0.0014999999999999996,5.5015,5.4985,0.13961629403368228,0.40123599682559014,-6.395252436335735e-05,-0.009666577524200777,-4.375663705972425e-05,9.815210498253126
5.216,0,4,1,0.5906572146464071,112.21834411255136,0.0,5.5,160,9,1,0,-1,0,-0.0075,5.4925,5.5075,0.14313630546335182,0.4012396578217347,-6.395961805948785e-05,-0.006903327421562978,0.007897011577176477,9.841981082047045
5.248,0,4,1,0.5906572146464071,112.80900132719778,0.0,5.5,160,9,1,0,-1,0,-0.0075,5.4925,5.5075,0.1466563134485225,0.4012431377705029,-6.396693942259737e-05,-0.003743325596502375,-8.577349794797358e-05,9.861821351417047
5.28,0,4,1,0.5906572146464071,113.39965854184419,0.0,5.5,160,9,1,0,-1,0,-0.0075,5.4925,5.5075,0.15017631573255544,0.4012472071529905,-6.397249078950867e-05,-0.0003772472038465359,0.0007474655868508787,9.863875831900232
5.312,0,4,1,0.5906572146464071,113.9903157564906,0.0,5.5,160,9,1,0,-1,0,-0.0075,5.4925,5.5075,0.15369631372439518,0.40125184658114504,-6.39751530047035e-05,0.0030462142809802462,0.0007980327071729229,9.762092990847849
5.344,0,4,1,0.5906572146464071,114.58097297113702,0.0,5.5,160,9,1,0,-1,0,-0.0075,5.4925,5.5075,0.15721630856076105,0.4012570456095879,-6.397474576914398e-05,0.006289707581117376,0.000859898352734987,9.791108822908248
5.376,0,4,1,0.5906572146464071,115.17163018578343,0.0,5.5,160,9,1,0,-1,0,-0.0075,5.4925,5.5075,0.16073630111272622,0.40126280052162483,-6.397186293253913e-05,0.009061137275287325,0.0009127513166419085,9.83253815817573
5.408,0,4,1,0.5906572146464071,115.76228740042984,0.0,5.5,160,9,1,0,-1,0,-0.0075,5.4925,5.5075,0.16425629200930236,0.4012691123318047,-6.396761122511377e-05,0.011402611464193425,0.0009558976563102145,9.81150749138322
5.44,0,4,1,0.5906572146464071,116.35294461507625,0.0,5.5,160,9,1,0,-1,0,-0.0075,5.4925,5.5075,0.16777628166992278,0.40127598511860874,-6.396328950014282e-05,0.013008693548776627,0.0009891536398442258,9.793921238836923
5.472,0,4,1,0.0,116.35294461507625,-0.5906572146464071,5.5,160,9,1,0,-1,0,-0.0075,5.4925,5.5075,0.1712962703402443,0.40128342469653505,-6.396006419625774e-05,0.013773228539022141,0.0010045697117896245,9.805635211629493
5.5040000000000004,0,4,1,0.0,116.35294461507625,0.0,5.5,160,9,1,0,-1,0,-0.0075,5.4925,5.5075,0.17481625812559218,0.40129143760643554,-6.395866870501435e-05,0.013859010640697765,0.0010244322810469464,9.855281153934568
5.5360000000000005,0,4,1,0.0,116.35294461507625,0.0,5.5,160,9,1,0,-1,0,-0.0075,5.4925,5.5075,0.17833624503213152,0.4013000303975188,-6.39594660790388e-05,0.01301044539230393,0.001025874315691535,9.829464217065512
5.5680000000000005,0,4,1,0.0,116.35294461507625,0.0,5.5,160,9,1,0,-1,0,-0.0075,5.4925,5.5075,0.1818562309828733,0.4013092091610429,-6.39619314993789e-05,0.011397314757325128,0.0010225117916525738,9.850971687833427
5.6000000000000005,0,4,1,0.5906572146464071,116.94360182972267,0.5906572146464071,5.5,160,9,1,1,0,1,0.08399999999999999,5.584,5.416,0.18537621585118771,0.40131897924539633,-6.396522351675808e-05,0.00905852344642225,0.0010093483977105019,9.83344397337787
5.632,0,4,1,0.5906572146464071,117.53425904436908,0.0,5.5,160,9,1,0,0,-1,-0.009,5.491,5.509,0.18889619504295338,0.4013293115045334,-6.396511157356032e-05,0.006228739024695761,0.000976075740340867,9.818860444589909
5.664,0,4,1,0.5906572146464071,118.12491625901549,0.0,5.5,160,9,1,0,0,0,0.0,5.5,5.5,0.19241620434466086,0.4013323052106889,-6.396911541470436e-05,0.003038118124509179,-0.00680771431462987,9.849807692628621
5.696,0,4,1,0.5906572146464071,118.7155734736619,0.0,5.5,160,9,1,0,0,0,0.0,5.5,5.5,0.19593620911281256,0.4013360711744842,-6.397183858259346e-05,-0.0003920327085561487,0.0010498128643267443,9.777907529897774
5.728,0,4,1,0.5906572146464071,119.30623068830832,0.0,5.5,160,9,1,0,0,0,0.0,5.5,5.5,0.1994562101612888,0.40133985393479354,-6.397249873266349e-05,-0.003766602059124218,0.00022006801390785037,9.800126749690387
5.76,0,4,1,0.5906572146464071,119.89688790295473,0.0,5.5,160,9,1,0,0,0,0.0,5.5,5.5,0.2029762086055273,0.40134367440918556,-6.397081680183277e-05,-0.006914887514490811,0.0001489656201009345,9.830151070807823
5.792,0,4,1,0.5906572146464071,120.48754511760114,0.0,5.5,160,9,1,0,0,0,0.0,5.5,5.5,0.20649620533977686,0.4013475439066752,-6.396730121052165e-05,-0.009645432032259621,7.973111669616228e-05,9.817903106595926
5.824,0,4,1,0.5906572146464071,121.07820233224756,0.0,5.5,160,9,1,0,0,0,0.0,5.5,5.5,0.21001620105350569,0.40135146648295245,-6.396296364475154e-05,-0.01183120620580229,1.9163020655600737e-05,9.839061293920267
5.856,0,4,1,0.5906572146464071,121.66885954689397,0.0,5.5,160,9,1,0,0,0,0.0,5.5,5.5,0.2135361962565504,0.4013554410651515,-6.39589841911533e-05,-0.013358007258951053,-3.022706185388582e-05,9.791607152930798
5.888,0,4,1,0.5906572146464071,122.25951676154038,0.0,5.5,160,9,1,0,0,0,0.0,5.5,5.5,0.21705619130817602,0.40135946323325156,-6.395638477352424e-05,-0.013982347201387597,-6.714975899092625e-05,9.835363536261733
5.92,0,4,1,0.5906572146464071,122.8501739761868,0.0,5.5,160,9,1,0,0,0,0.0,5.5,5.5,0.22057618644651283,0.40136352664707176,-6.395577175103209e-05,-0.013763661967068283,-9.152449475226249e-05,9.767358312173437
5.952,0,4,1,0.5906572146464071,123.44083119083321,0.0,5.5,160,9,1,0,0,0,0.0,5.5,5.5,0.22409618181597923,0.4013676241359137,-6.39571961820011e-05,-0.012856042040456437,-0.00010453905236120327,9.797456813899522
5.984,0,4,1,0.5906572146464071,124.03148840547962,0.0,5.5,160,9,1,0,0,0,0.0,5.5,5.5,0.22761617749128985,0.40137174848569046,-6.396015585099536e-05,-0.011041917960209237,-0.00011050331830532823,9.748927663599677
6.016,0,4,1,0.0,124.03148840547962,-0.5906572146464071,5.5,160,9,1,0,0,0,0.0,5.5,5.5,0.23113617349748128,0.40137589296803217,-6.396373244142196e-05,-0.008676396193423148,-0.00010726635651668046,9.800151038857818
6.048,0,4,1,0.0,124.03148840547962,0.0,5.5,160,9,1,0,0,0,0.0,5.5,5.5,0.23465616982601264,0.40138005165928364,-6.396682752463079e-05,-0.005748011385905845,-0.0001004694017687999,9.803549925890916
6.08,0,4,1,0.0,124.03148840547962,0.0,5.5,160,9,1,0,0,0,0.0,5.5,5.5,0.23817616644737333,0.4013842195963078,-6.396843934956993e-05,-0.002473738193195836,-8.975993554786695e-05,9.802109364883453
6.112,0,4,1,0.0,124.03148840547962,0.0,5.5,160,9,1,0,0,0,0.0,5.5,5.5,0.24169616332075627,0.4013883928120526,-6.396791396758549e-05,0.0009532431264314448,-7.749193545303493e-05,9.796603171702014
6.144,0,4,1,0.0,124.03148840547962,0.0,5.5,160,9,1,0,0,0,0.0,5.5,5.5,0.2452161604012965,0.40139256828817793,-6.396511106809312e-05,0.004323594553443823,-6.42190397088341e-05,9.848820425255777
6.176,0,4,1,0.0,124.03148840547962,0.0,5.5,160,9,1,0,0,0,0.0,5.5,5.5,0.24873615764523108,0.40139674385560453,-6.396044550203289e-05,0.007424577943866971,-5.269054151807917e-05,9.84852372543824
6.208,0,4,1,0.0,124.03148840547962,0.0,5.5,160,9,1,0,0,0,0.0,5.5,5.5,0.2522561550132216,0.40140091806734696,-6.395479504373372e-05,0.010075104318254154,-4.0833036879159964e-05,9.821482810022765
6.24,0,4,1,0.0,124.03148840547962,0.0,5.5,160,9,1,0,0,0,0.0,5.5,5.5,0.25577615247206037,0.40140509006190284,-6.394929658266012e-05,0.012076863129722644,-3.079138060467764e-05,9.822257932600031
6.272,0,4,1,0.0,124.03148840547962,0.0,5.5,160,9,1,0,0,0,0.0,5.5,5.5,0.25929614999505524,0.4014092594300973,-6.394507924976749e-05,0.013365857020454962,-2.2325171710084052e-05,9.78629545900589
6.304,0,4,1,0.5906572146464071,124.62214562012603,0.5906572146464071,5.5,160,9,1,1,1,1,0.09149999999999998,5.5915,5.4085,0.2628161475614973,0.40141342609374875,-6.394299781417763e-05,0.01407903628373532,-1.5321129708607747e-05,9.78677566685893
6.336,0,4,1,0.5906572146464071,125.21280283477245,0.0,5.5,160,9,1,0,1,-1,-0.0014999999999999996,5.4985,5.5015,0.2663361450952709,0.40141753194161905,-6.394330428616431e-05,0.013750472583363739,-6.638055079083191e-05,9.798541536149571
6.368,0,4,1,0.5906572146464071,125.80346004941886,0.0,5.5,160,9,1,0,1,0,0.0075,5.5075,5.4925,0.26985615640867455,0.4014137330398992,-6.394838298641285e-05,0.012551073068280152,-0.007754893712777433,9.846272131822607
6.4,0,4,1,0.5906572146464071,126.39411726406527,0.0,5.5,160,9,1,0,1,0,0.0075,5.5075,5.4925,0.2733761642701228,0.4014101069408272,-6.39564774010358e-05,0.010705673293986582,7.305212800621167e-05,9.821160879911194
6.432,0,4,1,0.5906572146464071,126.98477447871169,0.0,5.5,160,9,1,0,1,0,0.0075,5.5075,5.4925,0.2768961664204336,0.40140589269935306,-6.396537160625014e-05,0.008158157782823975,-0.0007499521913870953,9.785874891409991
6.464,0,4,1,0.5906572146464071,127.5754316933581,0.0,5.5,160,9,1,0,1,0,0.0075,5.5075,5.4925,0.28041616426620297,0.4014011100392743,-6.397311839568577e-05,0.0051705388593388454,-0.0008059158849575822,9.834290713055932
6.496,0,4,1,1.181188913326966,128.75662060668506,0.5905316986805589,5.5,160,9,1,0,1,0,0.0075,5.5075,5.4925,0.2839361589456878,0.40139576963795015,-6.397830641171817e-05,0.0018331611669082928,-0.0008619028668134649,9.826542184004046
6.5280000000000005,0,4,1,1.181188913326966,129.93780952001202,0.0,5.5,160,9,1,0,1,0,0.0075,5.5075,5.4925,0.2874561513329905,0.4013898753120977,-6.398018618512975e-05,-0.0015889377077257802,-0.0009130260342642764,9.805565381291052
6.5600000000000005,0,4,1,1.181188913326966,131.118998433339,0.0,5.5,160,9,1,0,1,0,0.0075,5.5075,5.4925,0.2909761420593559,0.40138342600064847,-6.397872476860723e-05,-0.004941988680390498,-0.0009597662607583485,9.806336722195653
6.5920000000000005,0,4,1,1.181188913326966,132.30018734666595,0.0,5.5,160,9,1,0,1,0,0.0075,5.5075,5.4925,0.2944961315440496,0.4013764174314986,-6.397455207352541e-05,-0.00797466938834849,-0.0009919767576810066,9.783177855991152
6.6240000000000006,0,4,1,1.181188913326966,133.4813762599929,0.0,5.5,160,9,1,0,1,0,0.0075,5.5075,5.4925,0.29801612002955313,0.40136884346172,-6.396879219364507e-05,-0.010584152315680545,-0.001012504648097237,9.797222611031506
6.656000000000001,0,4,1,1.181188913326966,134.66256517331988,0.0,5.5,160,9,1,0,1,0,0.0075,5.5075,5.4925,0.30153610761736155,0.4013606971068176,-6.396280444127128e-05,-0.012476658628198817,-0.0010242463916638692,9.800807527001604
6.688,0,4,1,1.181188913326966,135.84375408664684,0.0,5.5,160,9,1,0,1,0,0.0075,5.5075,5.4925,0.3050560943018207,0.4013519712909968,-6.395788388120598e-05,-0.013691034962272548,-0.001026944896142306,9.785255700963344
6.72,0,4,1,1.181188913326966,137.0249429999738,0.0,5.5,160,9,1,0,1,0,0.0075,5.5075,5.4925,0.3085760800003113,0.40134265935916913,-6.395498385091021e-05,-0.014063652401403304,-0.0010228102628065492,9.84336078039719
6.752,0,4,1,0.5906572146464071,137.6156002146202,-0.5905316986805589,5.5,160,9,1,-1,0,-1,-0.08399999999999999,5.416,5.584,0.31209606457876715,0.40133275539444124,-6.395452033955591e-05,-0.013627059498524998,-0.0010194883948911695,9.840477064522396
6.784,0,4,1,1.181188913326966,138.79678912794716,0.5905316986805589,5.5,160,9,1,0,0,1,0.009,5.509,5.491,0.3156160432200787,0.4013221991199397,-6.395313767526035e-05,-0.012422867822647834,-0.0010585820575895173,9.827520157755693
6.816,0,4,1,1.181188913326966,139.97797804127413,0.0,5.5,160,9,1,0,0,0,0.0,5.5,5.5,0.3191360524161794,0.40131906910968873,-6.395865071744458e-05,-0.010334784394163842,0.006904118087261232,9.768315469007423
6.848,0,4,1,1.181188913326966,141.1591669546011,0.0,5.5,160,9,1,0,0,0,0.0,5.5,5.5,0.3226560570169586,0.40131516009080126,-6.396529550085212e-05,-0.007722808922611941,-0.001054284141248383,9.754136275214792
6.88,0,4,1,1.181188913326966,142.34035586792805,0.0,5.5,160,9,1,0,0,0,0.0,5.5,5.5,0.32617605789318077,0.401311234404148,-6.397137518910322e-05,-0.004650961878434596,-0.00022009928231094317,9.781616541294406
6.912,0,4,1,1.181188913326966,143.52154478125502,0.0,5.5,160,9,1,0,0,0,0.0,5.5,5.5,0.3296960561573444,0.40130727110074077,-6.39753466560259e-05,-0.0012849873119948378,-0.00015099668360642237,9.845139553789076
6.944,0,4,1,1.181188913326966,144.70273369458198,0.0,5.5,160,9,1,0,0,0,0.0,5.5,5.5,0.3332160527004278,0.4013032588499081,-6.39763977953716e-05,0.0021298477659259457,-8.194690029460264e-05,9.823150130726788
6.976,0,4,1,1.181188913326966,145.88392260790894,0.0,5.5,160,9,1,0,0,0,0.0,5.5,5.5,0.33673604820987646,0.4012991935801248,-6.39744728472124e-05,0.0054397409781396025,-2.1235590110051816e-05,9.810544043507536
7.008,0,4,1,1.181188913326966,147.0651115212359,0.0,5.5,160,9,1,0,0,0,0.0,5.5,5.5,0.3402560431957573,0.4012950763508052,-6.3970188492685e-05,0.008414257355601492,2.831242502503719e-05,9.797346588936772
7.04,0,4,1,1.181188913326966,148.24630043456287,0.0,5.5,160,9,1,0,0,0,0.0,5.5,5.5,0.3437760380199966,0.40129091156887814,-6.396464029080964e-05,0.010898039020430633,6.550378559027915e-05,9.803851004626448
7.072,0,4,1,1.181188913326966,149.42748934788983,0.0,5.5,160,9,1,0,0,0,0.0,5.5,5.5,0.34729603292523475,0.4012867055612097,-6.395912869164647e-05,0.012731632621343058,9.02592658995841e-05,9.823341122430403
7.104,0,4,1,1.181188913326966,150.6086782612168,0.0,5.5,160,9,1,0,0,0,0.0,5.5,5.5,0.3508160280612341,0.40128246548545193,-6.395485677261094e-05,0.013831371752466133,0.0001041531531643127,9.81568123860123
7.136,0,4,1,1.181188913326966,151.78986717454376,0.0,5.5,160,9,1,0,0,0,0.0,5.5,5.5,0.35433602350787125,0.4012781985439428,-6.395266185593024e-05,0.013930345538944138,0.00010920520745586116,9.761669287231713
7.168,0,4,1,1.181188913326966,152.97105608787072,0.0,5.5,160,9,1,0,0,0,0.0,5.5,5.5,0.3578560192944918,0.4012739114556678,-6.395283794208284e-05,0.013497076447750288,0.0001066959071512409,9.837838749158959
7.2,0,4,1,1.181188913326966,154.15224500119768,0.0,5.5,160,9,1,0,0,0,0.0,5.5,5.5,0.3613760154158085,0.4012696101380078,-6.39550866702275e-05,0.012014182661516217,9.940226881420234e-05,9.780521157471371
7.232,0,4,1,0.5906572146464071,154.74290221584408,-0.5905316986805589,5.5,160,9,1,0,0,0,0.0,5.5,5.5,0.36489601184465914,0.40126529955119367,-6.395860588646711e-05,0.009824829154722537,8.939246056117057e-05,9.81073183347069
7.264,0,4,1,0.5906572146464071,155.33355943049048,0.0,5.5,160,9,1,0,0,0,0.0,5.5,5.5,0.36841600854191486,0.4012609836624931,-6.396229370082829e-05,0.007173746505574177,7.743800310941786e-05,9.77143638563265
7.296,0,4,1,0.0,155.33355943049048,-0.5906572146464071,5.5,160,9,1,0,0,0,0.0,5.5,5.5,0.3719360054637807,0.401256665492955,-6.396501954959895e-05,0.004029239001590576,6.443751281419124e-05,9.821537658823123
7.328,0,4,1,0.5906572146464071,155.92421664513688,0.5906572146464071,5.5,160,9,1,0,0,0,0.0,5.5,5.5,0.37545600256673595,0.4012523472160155,-6.396589853587507e-05,0.0006666398644065282,5.2365802142878254e-05,9.775085776431448
7.36,0,4,1,0.5906572146464071,156.51487385978328,0.0,5.5,160,9,1,0,0,0,0.0,5.5,5.5,0.37897599981045543,0.4012480302837833,-6.39645048509628e-05,-0.002763924028309523,4.073868088077669e-05,9.770201128623894
7.392,0,4,1,1.7714697400340056,158.2863435998173,1.1808125253875985,5.5,160,9,1,-1,-1,-1,-0.09149999999999998,5.4085,5.5915,0.3824959971591759,0.40124371556287125,-6.396097457872507e-05,-0.006003227856093118,3.074944693142778e-05,9.799830437965023
7.424,0,4,1,2.9507791090063535,161.23712270882365,1.179309368972348,5.5,160,9,1,0,-1,1,0.0014999999999999996,5.5015,5.4985,0.38601599438209055,0.4012393737109649,-6.395583428371598e-05,-0.008926602258094551,-8.269770693531629e-06,9.806776789454045
7.456,0,4,1,4.127591702511717,165.36471441133537,1.1768125935053635,5.5,160,9,1,0,-1,0,-0.0075,5.4925,5.5075,0.3895360059258891,0.40124302498745024,-6.395271808165223e-05,-0.011278747397588617,0.007851872770443418,9.823253118185852
7.488,0,4,1,5.885987833028316,171.25070224436368,1.7583961305165987,5.5,160,9,1,0,-1,0,-0.0075,5.4925,5.5075,0.3930560140388115,0.40124649484719455,-6.395173555645908e-05,-0.013003730600209354,-7.271025903051808e-05,9.810337419751363
7.5200000000000005,0,4,1,7.6333305872312645,178.88403283159494,1.7473427542029487,5.5,160,9,1,0,-1,0,-0.0075,5.4925,5.5075,0.3965760164683719,0.4012505542188405,-6.395276032485596e-05,-0.013924403122044566,0.0007564301334927477,9.795593734566024
7.5520000000000005,0,4,1,9.36650995701213,188.25054278860708,1.7331793697808662,5.5,160,9,1,1,0,1,0.08399999999999999,5.584,5.416,0.40009601461368044,0.40125518379749914,-6.395566803664779e-05,-0.013967858367497261,0.000810462382631735,9.806980323060673
7.5840000000000005,0,4,1,10.512627169921368,198.76316995852844,1.1461172129092372,5.5,160,9,1,2,2,1,0.174,5.674,5.326,0.403615999106406,0.40126043075509915,-6.395500285762482e-05,-0.013271122941300246,0.000918956838604216,9.834770023600601
7.6160000000000005,0,4,1,12.778733188406045,211.5419031469345,2.2661060184846775,5.5,160,9,1,1,3,-1,0.08850000000000001,5.5885,5.4115,0.4071360357660022,0.4012583106637055,-6.39545972461221e-05,-0.011661499874823933,-0.006812728488062972,9.859662258957721
7.648000000000001,0,4,1,15.004920382860202,226.5468235297947,2.226187194454157,5.5,160,9,1,1,4,0,0.105,5.605,5.395,0.41065610140207975,0.40124094003273997,-6.397612199565e-05,-0.009350982354869473,-0.014636393441867183,9.80727775939081
7.68,0,4,1,17.72323661688633,244.27006014668103,2.718316234026126,5.5,160,9,1,0,4,-1,0.020999999999999998,5.521,5.479,0.41417612135523413,0.4012159199336194,-6.401436566252049e-05,-0.00672791492091725,-0.007364529947026765,9.837383649333685
7.712,0,4,1,19.84069808396836,264.11075823064937,2.1174614670820304,5.5,160,9,1,2,6,2,0.213,5.713,5.287,0.417695991246648,0.40118191963485283,-6.405211851681115e-05,-0.0036561875281838087,-0.00903633165488394,9.848065110709324
7.744,0,4,1,21.39289035198143,285.5036485826308,1.5521922680130693,5.5,160,9,1,4,10,2,0.393,5.893,5.107,0.421215947016885,0.40114641864174916,-6.412168927964756e-05,-0.00013682615221582913,-0.0020783818588669062,9.810186753591099
7.776,0,4,1,23.90766049417249,309.41130907680326,2.514770142191061,5.5,160,9,1,2,12,-2,0.222,5.722,5.278,0.42473597951788983,0.4010927564741594,-6.425476812194769e-05,0.0036499037219505565,-0.01890116521292787,9.831453808499132
7.808,0,4,1,25.371561753095957,334.7828708298992,1.4639012589234675,5.5,160,9,1,5,17,3,0.5295,6.0295,4.9705,0.4282554856186244,0.4010054387634957,-6.441748603727877e-05,0.006707473792767468,-0.034272931061785174,9.834740699682168
7.84,0,4,1,26.328293105170882,361.11116393507007,0.9567313520749252,5.5,160,9,1,5,22,0,0.54,6.04,4.96,0.43177499031335237,0.40089944220492907,-6.479180122936391e-05,0.009849531546987067,-0.020494795389178092,9.812278763168797
7.872,0,4,1,27.734190504985406,388.8453544400555,1.405897399814524,5.5,160,9,1,5,27,0,0.5775,6.0775,4.9225,0.4352935331490172,0.40074836068540953,-6.53481709348893e-05,0.012661294235852268,-0.04714867705703823,9.874400432953912
7.904,0,4,1,29.55368363230744,418.39903807236294,1.8194931273220334,5.5,160,9,1,3,30,-2,0.43199999999999994,5.932,5.068,0.43881030944557986,0.4005516742726971,-6.616542288863034e-05,0.011252293691462523,-0.049039456250301344,9.816511401707162
7.936,0,4,1,30.876813079060415,449.27585115142335,1.3231294467529757,5.5,160,9,1,5,35,2,0.6555,6.1555,4.8445,0.4423236767367901,0.4003068123673335,-6.70770726347459e-05,0.007581314064393342,-0.05289306768478348,9.818325919007004
7.968,0,4,1,30.876813079060415,480.15266423048377,0.0,5.5,160,9,1,6,41,1,0.7665,6.2665,4.7335,0.4458349220909911,0.40002670456883677,-6.838265108547077e-05,0.00482708984905793,-0.04213585531072043,9.829674108608573
8.0,0,4,1,31.739140795815157,511.8918050262989,0.8623277167547414,5.5,160,9,1,5,46,-1,0.711,6.211,4.789,0.4493424624645337,0.39969250996796335,-6.999935598621561e-05,0.001614470078490719,-0.06278178623626017,9.817942830830832
8.032,0,4,1,32.58570735391442,544.4775123802134,0.8465665580992656,5.5,160,9,1,6,52,1,0.849,6.28,4.651,0.45284423953639874,0.39929507189113395,-7.17180881699489e-05,-0.0035510978658812725,-0.07348972789380283,9.819995487381584
8.064,0,4,1,33.00310069207643,577.4806130722898,0.4173933381620074,5.5,160,9,1,6,58,0,0.885,6.28,4.615,0.4563178892675204,0.3988424406922276,-7.372288579672592e-05,-0.021906332876549264,-0.07095101089011992,9.864547144185813
8.096,0,4,1,34.231855438892175,611.7124685111819,1.2287547468157456,5.5,160,9,1,5,63,-1,0.8384999999999999,6.28,4.6615,0.45977060648391566,0.39832540801518057,-7.593712831065885e-05,-0.009292364732288727,-0.0807220054647226,9.836624809495055
8.128,0,4,1,34.633677396549515,646.3461459077314,0.4018219576573401,5.5,160,9,1,4,67,-1,0.7935,6.28,4.7065,0.4631896238800757,0.3977453614600498,-7.581621980043939e-05,-0.020614943605641343,-0.08395985430804276,9.80152088647235
8.16,0,4,1,35.42577211490818,681.7719180226396,0.792094718358662,5.5,160,9,1,5,72,1,0.924,6.28,4.576,0.4666010509933341,0.39709646859138775,-7.573845742955311e-05,0.006740117468562692,-0.08638550707321414,9.773326027371679
8.192,0,4,1,36.20258929000894,717.9745073126486,0.77681717510076,5.5,160,9,1,3,75,-2,0.7695,6.2695,4.7305,0.469954919725016,0.396389668998506,-7.584708750877148e-05,-0.042175001267618695,-0.08778085742862059,9.818105885863464
8.224,0,4,1,36.964289289465206,754.9387966021138,0.761699999456269,5.5,160,9,1,4,79,1,0.9015000000000001,6.28,4.5985,0.4733355139026347,0.39560049421026827,-7.579875896209821e-05,0.04501922517552372,-0.09374944093780087,9.768508016258046
8.256,0,4,1,39.16050768848255,794.0993042905964,2.19621839901734,5.5,160,9,1,5,84,1,1.0139999999999998,6.28,4.486000000000001,0.4763048320850599,0.39484386448485465,-7.590756779542358e-05,-0.3969607019465224,-0.09125144136464453,9.871884105905133
8.288,0,4,1,40.89188782286414,834.9911921134606,1.7313801343815953,5.5,160,9,1,10,94,5,1.5,6.28,4.0,0.4790841957644904,0.39412343559617813,-7.61231698530214e-05,-0.18925903067167124,-0.03570683552089679,9.822606511702713
8.32,0,4,1,42.53718332408315,877.5283754375437,1.6452955012190102,5.5,160,9,1,9,103,-1,1.4385,6.28,4.0615000000000006,0.481889066201837,0.39340341945077234,-7.67511507442642e-05,0.023889112095604046,-0.01821455609421635,9.772714429347237
8.352,0,4,1,41.56013030625398,919.0885057437977,-0.9770530178291708,5.5,160,9,1,10,113,1,1.6064999999999998,6.28,3.8935000000000004,0.4850214025786267,0.39255697968271697,-7.703714444497363e-05,0.3411457190484248,-0.05235521633321349,9.790452786745421
8.384,0,4,1,40.89188782286414,959.9803935666619,-0.6682424833898395,5.5,160,9,1,9,122,-1,1.581,6.28,3.919,0.48807574194190745,0.3916379984117041,-7.74016272128749e-05,-0.050019298450361654,-0.11594859554008542,9.82118694394502
8.416,0,4,1,41.22771639062016,1001.208109957282,0.33582856775601755,5.5,160,9,1,6,128,-3,1.383,6.28,4.117,0.49111155138207324,0.3906225232336665,-7.787770069812155e-05,0.015120758109583793,-0.11905763197656943,9.782836652747495
8.448,0,4,1,40.89188782286414,1042.0999977801462,-0.33582856775601755,5.5,160,9,1,6,134,0,1.4549999999999998,6.28,4.045,0.49418190939524337,0.389492181072559,-7.840594019758486e-05,0.0727155228506802,-0.11686784234146042,9.829985429190355
8.48,0,4,1,42.53718332408315,1084.6371811042293,1.6452955012190102,5.5,160,9,1,8,142,2,1.683,6.28,3.817,0.4966721229117125,0.3884877205053948,-7.92332991515609e-05,-0.5719357044968412,-0.11893399821476318,9.851518067288573
8.512,0,4,1,45.29382193465071,1129.93100303888,2.756638610567556,5.5,160,9,1,14,156,6,2.2739999999999996,6.28,3.2260000000000004,0.4984985144528128,0.38773876609288477,-8.038948297082668e-05,-0.6950125573993389,-0.02061759877560746,9.829127268292561
8.544,0,4,1,47.01459878787057,1176.9456018267506,1.72077685321986,5.5,160,9,1,17,173,3,2.5995,6.28,2.9005,0.5003083357142719,0.38704158139396766,-8.177786773883727e-05,-0.033369392612452836,0.016677430521077972,9.819615132914521
8.576,0,4,1,45.872457122902034,1222.8180589496526,-1.142141664968534,5.5,160,9,1,13,186,-4,2.334,6.28,3.166,0.502970071933274,0.38605357166165905,-8.258477935075594e-05,0.8746300110034597,0.03528214579605935,9.735166707758962
8.608,0,4,1,45.00000000000001,1267.8180589496526,-0.872457122902027,5.5,160,9,1,10,196,-3,2.1929999999999996,6.28,3.3070000000000004,0.5056801642091678,0.38491051867167875,-8.266921104637184e-05,0.10705059668549559,-0.13995126370270922,9.808503621606699
8.64,0,4,1,43.793951220780045,1311.6120101704325,-1.2060487792199623,5.5,160,9,1,7,203,-3,2.0204999999999997,6.28,3.4795000000000003,0.5083897079715547,0.38363620107217594,-8.29749281103815e-05,0.05774828512864014,-0.13745410868289995,9.858872066544306
8.672,0,4,1,41.889159346509224,1353.5011695169417,-1.9047918742708205,5.5,160,9,1,7,210,0,2.1,6.28,3.4,0.5111026652302239,0.3822303810486482,-8.376022392312006e-05,0.06557451062005944,-0.13329403135699847,9.838829880100592
8.704,0,4,1,44.1001402850956,1397.6013098020373,2.210980938586374,5.5,160,9,1,9,219,2,2.3354999999999997,6.28,3.1645000000000003,0.5129907842559933,0.381146531345849,-8.520804095183375e-05,-0.8541599262307968,-0.13737026541482117,9.785850359651528
8.736,0,4,1,46.71835800165546,1444.3196678036927,2.6182177165598617,5.5,160,9,1,14,233,5,2.8425,6.28,2.6575,0.5141654372305899,0.3804080097384737,-8.71124267275477e-05,-0.7778989235115745,-0.04716283859897754,9.809908347944383
8.768,0,4,1,47.834111016306515,1492.1537788199992,1.1157530146510553,5.5,160,9,1,20,253,6,3.4515,6.28,2.0485,0.515188941129134,0.37980840856465975,-8.883438180636201e-05,-0.193719806914861,0.03256489758466984,9.879315047523342
8.8,0,4,1,47.29061004263853,1539.4443888626377,-0.5435009736679888,5.5,160,9,1,19,272,-1,3.456,6.28,2.044,0.5168773097997003,0.3788998788715626,-8.960437178859477e-05,0.7121318134693041,0.015581374185989968,9.777170069431772
