Time,SetPointAngle,SensorAngleRow,SensorAngleWidth,Angle,IntegralAngle,DeltaAngle,BaseSpeed,SetPointError,SensorErrorRow,SensorErrorWidth,Error,IntegralError,DeltaError,DeltaSpeed,LeftSpeed,RightSpeed,X,Y,Z,Roll,Pitch,Yaw
0.032,0,4,1,7.199233638367641,7.199233638367641,7.199233638367641,5.912839084443251,160,9,1,-36,-36,-36,-3.2939999999999996,2.618839084443251,6.28,-0.15738800000000028,-0.03443060000000026,-6.396809943236617e-05,9.19601302334492e-08,5.105758731186278e-09,9.779363783699711
0.064,0,4,1,7.711892412658888,14.911126051026528,0.5126587742912472,5.893892720592764,160,9,1,-26,-62,10,-2.325,3.568892720592764,6.28,-0.15667355272913422,-0.03169545592778493,-3.9489183615753e-05,3.3203246019494057,-0.09162921590110075,9.680407006976925
0.096,0,4,1,6.4043527263841025,21.315478777410632,-1.3075396862747857,5.96108990336707,160,9,1,-14,-76,12,-1.512,4.449089903367071,6.28,-0.15604468609678646,-0.028680584646436105,-6.158048829153946e-05,0.5297538743400549,0.104984096671988,9.741038192736742
0.128,0,4,1,4.666858371439037,25.98233714884967,-1.7374943549450652,6.048394575782993,160,9,1,-9,-85,5,-1.2675,4.780894575782993,6.28,-0.1554353300433641,-0.025288219793618522,-7.295558312990676e-05,0.41149993015741193,0.08477381244977364,9.843987141486107
0.16,0,4,1,3.503531644784471,29.48586879363414,-1.1633267266545664,6.105986744487431,160,9,1,-4,-89,5,-0.9225,5.183486744487431,6.28,-0.15487499245606762,-0.02178366451679344,-7.542367463178254e-05,-0.06249481084226449,0.07157990978285235,9.843349622230775
0.192,0,4,1,2.9207215210003468,32.406590314634485,-0.5828101237841241,6.1345467340737665,160,9,1,-3,-92,1,-0.9059999999999999,5.228546734073767,6.28,-0.15435658121889148,-0.018151344905339283,-8.023291608281503e-05,0.06638152536649089,0.07063073244644792,9.800321734289408
0.224,0,4,1,13.20792846277913,45.614518777413615,10.287206941778782,5.609316369919265,160,9,1,13,-79,16,0.5265,6.135816369919265,5.082816369919264,-0.153884879557428,-0.014504410574598977,-8.350677852688587e-05,0.06991239627409038,0.059110325328956013,9.817696989613758
0.256,0,4,1,15.945395900922858,61.55991467833647,2.737467438143728,5.479992737515714,160,9,1,9,-70,-4,0.11399999999999991,5.5939927375157135,5.365992737515714,-0.15347045519128996,-0.010945996608343935,-8.290868842683596e-05,-0.046217356157079885,0.05822738313017959,9.793905874360329
0.28800000000000003,0,4,1,18.788621982168497,80.34853666050496,2.843226081245639,5.33772567481033,160,9,1,6,-64,-3,-0.05700000000000002,5.28072567481033,5.3947256748103305,-0.15301365914595422,-0.007472382529969992,-8.312854249284927e-05,-0.06478716272878048,-0.034405354958360855,9.789600741228988
0.32,0,4,1,20.361603275386152,100.7101399358911,1.572981293217655,5.260346854937475,160,9,1,4,-60,-2,-0.16799999999999995,5.092346854937475,5.428346854937475,-0.15255275481874564,-0.004090266022223527,-8.274840047078381e-05,-0.1329086274316911,0.003247789273947369,9.776219542226801
0.352,0,4,1,23.69068940282738,124.4008293387185,3.3290861274412293,5.09213644373119,160,9,1,2,-58,-2,-0.30300000000000005,4.78913644373119,5.3951364437311895,-0.1521008751627996,-0.0007524262705137706,-8.173206835061092e-05,-0.07903052211188859,0.022681738489834156,9.859966258012715
0.384,0,4,1,27.492836951539683,151.89366629025818,3.802147548712302,4.901556004874304,160,9,1,2,-56,0,-0.27,4.631556004874303,5.171556004874304,-0.15167541346718055,0.0024907985270712354,-8.066993695814845e-05,-0.12240502095669148,0.03280285020140517,9.803349112077976
0.41600000000000004,0,4,1,31.049657186622614,182.9433234768808,3.556820235082931,4.723960320433786,160,9,1,2,-54,0,-0.255,4.468960320433786,4.978960320433786,-0.15128842497330006,0.005617185590724877,-7.911926636076927e-05,-0.1397520269869403,0.041275724298793656,9.878443153731189
0.448,0,4,1,33.959059819676284,216.9023832965571,2.90940263305367,4.579137606383132,160,9,1,2,-52,0,-0.24000000000000002,4.339137606383132,4.819137606383133,-0.1509352091402236,0.008633084355216028,-7.738487742418344e-05,-0.12914184933677494,0.036760206354832944,9.752552897032935
0.48,0,4,1,36.30449712257524,253.20688041913235,2.345437302898958,4.462429706568339,160,9,1,2,-50,0,-0.225,4.2374297065683395,4.687429706568339,-0.15061107796906542,0.011558398711191771,-7.564663208641659e-05,-0.10601661949740437,0.033456954230124875,9.73561118626435
0.512,0,4,1,39.57477363157967,292.781654050712,3.2702765090044252,4.297991041912012,160,9,1,3,-47,1,-0.11850000000000001,4.179491041912012,4.416491041912012,-0.15031199069495293,0.014410320240010321,-7.400423531686226e-05,-0.08819910639970127,0.030340005570111277,9.74443518235357
0.544,0,4,1,41.268603000839555,334.05025705155157,1.6938293692598876,4.214876020588762,160,9,1,2,-45,-1,-0.19649999999999998,4.018376020588762,4.411376020588762,-0.15003915184576136,0.01715033134763486,-7.238871566098148e-05,-0.12445636381650102,0.02673975832994105,9.851866975767113
0.5760000000000001,0,4,1,42.21483357788564,376.2650906294372,0.9462305770460873,4.168312090528672,160,9,1,-3,-48,-5,-0.63,3.538312090528672,4.798312090528672,-0.14977918135276594,0.019844028461243283,-7.107588096179167e-05,-0.058506558375557426,0.01877343204585636,9.813661394695144
0.608,0,4,1,42.56335175318987,418.8284423826271,0.34851817530422835,4.151483894165203,160,9,1,-4,-52,-1,-0.699,3.452483894165203,4.850483894165203,-0.14953387068853358,0.022500616005067812,-7.023232632308134e-05,-0.04897058311134007,0.020873206498456708,9.845001308278698
0.64,0,4,1,42.56335175318987,461.39179413581695,0.0,4.151832412340507,160,9,1,-7,-59,-3,-0.9945,3.1573324123405073,5.146332412340508,-0.14932957390475207,0.0251510903822773,-6.964944418604534e-05,-0.019584239555970204,0.04824194725732308,9.801962931846232
0.672,0,4,1,43.5159853243379,504.90777946015487,0.9526335711480272,4.103248100211958,160,9,1,-2,-61,5,-0.5624999999999999,3.5407481002119576,4.665748100211958,-0.14916965516910477,0.027806614979032484,-6.959467638451185e-05,-0.006450707835339036,0.05101255088352588,9.78852142962511
0.704,0,4,1,44.09061955080087,548.9983990109557,0.5746342264629689,4.074894388233495,160,9,1,-4,-65,-2,-0.8055,3.269394388233495,4.880394388233495,-0.14907455478050097,0.03043414776256816,-6.963077546746042e-05,-0.03827922064642484,0.07054225623612098,9.82661677002466
0.736,0,4,1,43.172031755694995,592.1704307666507,-0.9185877951058714,4.122317000010356,160,9,1,-7,-72,-3,-1.0919999999999999,3.0303170000103563,5.214317000010356,-0.1490141245285635,0.03304505711719315,-7.025141039559459e-05,-0.024445781660000283,0.04176079889966171,9.792780412162346
0.768,0,4,1,42.856239134776594,635.0266699014273,-0.3157926209184012,4.1375038358820895,160,9,1,-5,-77,2,-0.9345,3.2030038358820896,5.072003835882089,-0.14900278889915264,0.035688560913753255,-7.155396809759712e-05,0.03133327663002511,0.05609056524803691,9.823591566693409
0.8,0,4,1,39.51384357499568,674.540513476423,-3.342395559780911,4.307650216809997,160,9,1,-13,-90,-8,-1.722,2.5856502168099973,6.029650216809998,-0.14906021953532922,0.03834146970800928,-7.305751191261263e-05,0.01771180472297254,0.07543369813076284,9.87171685276347
0.8320000000000001,0,4,1,38.15722658736906,712.6977400637921,-1.356616987626623,4.373495287619174,160,9,1,-7,-97,6,-1.1985,3.174995287619174,5.571995287619174,-0.14917956793611054,0.04110608329252714,-7.615426731882174e-05,0.11706700827705775,0.06205406241427701,9.840464178494988
0.864,0,4,1,38.078882361565,750.7766224253571,-0.07834422580405942,4.3761342261475535,160,9,1,-2,-99,5,-0.8474999999999999,3.5286342261475534,5.223634226147554,-0.14941587659997926,0.043901351909943334,-7.943655951903397e-05,0.04219079400451559,0.12201814574493426,9.817795837654735
0.896,0,4,1,37.4270513594566,788.2036737848138,-0.651831002108402,4.409299263029278,160,9,1,-3,-102,-1,-0.999,3.410299263029278,5.408299263029278,-0.14973038753032913,0.04669123910356647,-8.044600065466347e-05,0.004665541694986397,0.08977557528882864,9.800355288775283
0.928,0,4,1,39.22567409733672,827.4293478821505,1.7986227378801232,4.3169176723952845,160,9,1,3,-99,6,-0.46349999999999997,3.8534176723952847,4.780417672395284,-0.15009997473547065,0.04949097514966057,-8.168280921113345e-05,0.017866470713882747,0.06618062770903363,9.803086427039064
0.96,0,4,1,39.16050768848255,866.5898555706331,-0.06516640885417502,4.322039781984727,160,9,1,-1,-100,-4,-0.861,3.461039781984727,5.183039781984727,-0.1505187590895772,0.05220826894344465,-8.18450055424455e-05,-0.07165320472979687,0.07570272107226474,9.805753143489998
0.992,0,4,1,36.58531829969341,903.1751738703265,-2.575189388789134,4.453309274404119,160,9,1,-6,-106,-5,-1.2899999999999998,3.163309274404119,5.743309274404119,-0.15096214333311145,0.05490502089070853,-8.24671067420988e-05,-0.01512985152579467,0.04387023715774827,9.81436274638163
1.024,0,4,1,36.58531829969341,939.7604921700199,0.0,4.45073408501533,160,9,1,-2,-108,4,-0.9239999999999999,3.5267340850153297,5.37473408501533,-0.15145652486174485,0.0574388228283993,-8.36558822854775e-05,-0.1458462933913415,0.09827243333502059,9.865312972277467
1.056,0,4,1,37.99873244250467,977.7592246125246,1.4134141428112557,4.378649963731956,160,9,1,5,-103,7,-0.33449999999999996,4.044149963731956,4.713149963731956,-0.15203191407094746,0.06018078691549217,-8.400316153604932e-05,0.21594145709633727,0.05111595672693887,9.765940003136912
1.088,0,4,1,34.633677396549515,1012.3929020090741,-3.3650550459551525,4.551681185218479,160,9,1,-4,-107,-9,-1.1835,3.368181185218479,5.7351811852184795,-0.15266530352140564,0.06290396376111673,-8.305618878696672e-05,-0.004645548632385123,0.07870938582190562,9.857359091218811
1.12,0,4,1,31.476839349583983,1043.869741358658,-3.1568380469655324,4.709314870567766,160,9,1,-3,-110,1,-1.041,3.6683148705677664,5.750314870567767,-0.15333023749754518,0.06567421604396571,-8.35764287508093e-05,0.052616267373439406,0.03800094794238588,9.831930052069241
1.1520000000000001,0,4,1,29.302207482138666,1073.1719488407966,-2.174631867445317,4.817064257760513,160,9,1,-4,-114,-1,-1.164,3.653064257760513,5.981064257760512,-0.15410545766362413,0.06853208019721542,-8.370679582112711e-05,0.11244137813903651,0.09984950401241363,9.846386052644979
1.184,0,4,1,31.476839349583983,1104.6487881903806,2.174631867445317,4.703983400653355,160,9,1,6,-108,10,-0.27,4.433983400653355,4.9739834006533545,-0.1549498695804468,0.07133774305857707,-8.405926388007322e-05,-0.027666549845943605,0.10145604078380416,9.841282757068727
1.216,0,4,1,31.900156917733717,1136.5489451081144,0.4233175681497343,4.684568836545164,160,9,1,3,-105,-3,-0.5895,4.095068836545164,5.2740688365451645,-0.15588210196233707,0.07419561712311694,-8.268450744774135e-05,0.07555827816528492,0.08752595306000173,9.815835105545023
1.248,0,4,1,31.739140795815157,1168.2880859039294,-0.16101612191856063,4.69320397633116,160,9,1,1,-104,-2,-0.7230000000000001,3.9702039763311605,5.41620397633116,-0.15681796678967813,0.07701631315762111,-8.188645358993447e-05,-0.0330360149016804,0.03716564279217937,9.801481461766711
1.28,0,4,1,30.18368065722236,1198.4717665611518,-1.555460138592796,4.772371427277474,160,9,1,-1,-105,-2,-0.8805,3.8918714272774744,5.652871427277474,-0.15779092306281042,0.07982023022743205,-8.129494998919753e-05,-0.002892655000601185,0.06237157733237976,9.793328108060303
1.312,0,4,1,27.492836951539683,1225.9646035126914,-2.6908437056826777,4.908048996128699,160,9,1,-3,-108,-2,-1.053,3.8550489961286987,5.9610489961286985,-0.1588262793987057,0.08264477067885537,-8.094326394405237e-05,0.04111280179949311,0.0726810234809382,9.809038550165893
1.344,0,4,1,25.144785630678935,1251.1093891433702,-2.3480513208607476,5.025108769786915,160,9,1,-3,-111,0,-1.0575,3.9676087697869145,6.082608769786915,-0.15995056831218998,0.0855173401297831,-8.087286433925735e-05,0.07658588133398862,0.08469581179140986,9.76964260397487
1.3760000000000001,0,4,1,23.69068940282738,1274.8000785461975,-1.4540962278515543,5.096919626086482,160,9,1,0,-111,3,-0.8055,4.291419626086482,5.902419626086482,-0.1611795718942055,0.0884290417062049,-8.084765535395187e-05,0.07686473659572439,0.10054794616619063,9.756254677717484
1.408,0,4,1,26.565051177077994,1301.3651297232755,2.8743617742506125,4.948873079371849,160,9,1,9,-102,9,-0.009000000000000091,4.939873079371849,4.95787307937185,-0.1625100900095749,0.09136367132266962,-8.044339280942163e-05,0.06266118464832794,0.10391914275008564,9.811810439324024
1.44,0,4,1,27.734190504985406,1329.099320228261,1.1691393279074127,4.892121335422822,160,9,1,6,-96,-3,-0.29700000000000004,4.595121335422823,5.189121335422822,-0.1638727262192925,0.09421394191500046,-7.849917613429042e-05,-0.06092070625718988,0.08760349486507484,9.84395244527683
1.472,0,4,1,27.950969027890196,1357.050289256151,0.21677852290478938,4.882234770082586,160,9,1,5,-91,-1,-0.3165,4.565734770082585,5.198734770082586,-0.16521354254160625,0.09703876806616511,-7.718034679871089e-05,-0.031454392426923,0.015640891191387927,9.807941127216417
1.504,0,4,1,27.03086025984298,1384.081149515994,-0.9201087680472142,4.929377095775898,160,9,1,1,-90,-4,-0.636,4.293377095775898,5.565377095775898,-0.1665673725183007,0.09985012354602643,-7.601007276007883e-05,-0.0061079578291254825,0.04119273370796478,9.809992042652723
1.536,0,4,1,24.179107146689173,1408.260256662683,-2.8517531131538085,5.073896395778696,160,9,1,-3,-93,-4,-0.9585,4.115396395778696,6.0323963957786955,-0.1679531914061282,0.10268099380213201,-7.552035881351789e-05,0.03128494864579114,0.04315281618858045,9.807614253840057
1.568,0,4,1,23.69068940282738,1431.9509460655104,-0.4884177438617918,5.095953947602492,160,9,1,-3,-96,0,-0.945,4.150953947602492,6.0409539476024925,-0.1694223897095422,0.10557597405644081,-7.554246205299098e-05,0.09371718534604555,0.06592224656576556,9.816037652820414
1.6,0,4,1,23.69068940282738,1455.6416354683377,0.0,5.095465529858631,160,9,1,0,-96,3,-0.693,4.402465529858631,5.78846552985863,-0.17096336874265183,0.10845167753874545,-7.554250005695727e-05,0.017950401988303614,0.09254129791525137,9.79945678322061
1.6320000000000001,0,4,1,25.144785630678935,1480.7864210990165,1.4540962278515543,5.021306622238202,160,9,1,3,-93,3,-0.4455,4.575806622238202,5.466806622238202,-0.17256659443474212,0.11129254128662244,-7.52419672677071e-05,0.0011745555236892284,0.09179393709556374,9.778671475606298
1.6640000000000001,0,4,1,26.095424157388344,1506.8818452564049,0.9506385267094082,4.974278153603874,160,9,1,3,-90,0,-0.44999999999999996,4.524278153603873,5.424278153603874,-0.17418926520112202,0.11406547133845156,-7.464355767694032e-05,-0.04726651550373263,0.07215496681195387,9.828528859176703
1.696,0,4,1,24.179107146689173,1531.060952403094,-1.9163170106991707,5.072960959676241,160,9,1,0,-90,-3,-0.702,4.370960959676241,5.774960959676241,-0.1758228424186092,0.11679631701516184,-7.410816950610168e-05,-0.02951354166111268,0.05238585473990889,9.80689360107536
1.728,0,4,1,22.203478532057403,1553.2644309351515,-1.9756286146317699,5.171801702011762,160,9,1,-1,-91,-1,-0.7665,4.405301702011762,5.938301702011762,-0.17751659344148502,0.11956575376689127,-7.398897031471972e-05,0.06346096205573261,0.051344537663339906,9.8569294907045
1.76,0,4,1,20.684080267946797,1573.9485112030984,-1.519398264110606,5.247315384866771,160,9,1,1,-90,2,-0.582,4.665315384866771,5.829315384866771,-0.17928855553817064,0.12236192149499449,-7.396050119315087e-05,0.06348855029784076,0.070818959912044,9.834258705543505
1.792,0,4,1,20.684080267946797,1594.632591471045,0.0,5.24579598660266,160,9,1,3,-87,2,-0.4095,4.836295986602661,5.65529598660266,-0.181135256117861,0.12516667042004984,-7.364895630070784e-05,0.047396418463047804,0.07713578494588887,9.791947527335271
1.824,0,4,1,21.19405648154228,1615.8266479525873,0.5099762135954826,5.219787199709291,160,9,1,5,-82,2,-0.222,4.997787199709291,5.4417871997092915,-0.1830169066419631,0.12794544217202597,-7.308178371851631e-05,-0.001511022461928426,0.06373439304975995,9.817397289482084
1.856,0,4,1,20.1706534118504,1635.9973013644378,-1.0234030696918808,5.272490732477173,160,9,1,2,-80,-3,-0.477,4.795490732477172,5.749490732477173,-0.18491244147375502,0.13069290298926264,-7.223752069477306e-05,-0.017322235570361895,0.04998899886669098,9.803840779589043
1.8880000000000001,0,4,1,18.610164727827343,1654.6074660922652,-1.5604886840230563,5.351052252292656,160,9,1,1,-79,-1,-0.5265000000000001,4.824552252292656,5.877552252292657,-0.1868397314170032,0.13346060686493424,-7.18400451787931e-05,0.03412126251721637,0.03526711249077749,9.77735529626841
1.92,0,4,1,16.645038214675964,1671.252504306941,-1.9651265131513789,5.4497132157793535,160,9,1,-1,-80,-2,-0.693,4.756713215779354,6.142713215779353,-0.18882553535726346,0.13624912843561554,-7.153596446599596e-05,0.05031229291922428,0.055178645608797414,9.814923324732016
1.952,0,4,1,13.760785111791225,1685.0132894187323,-2.8842531028847382,5.594844997513324,160,9,1,-4,-84,-3,-0.957,4.637844997513324,6.28,-0.19088226369374534,0.13906571861451042,-7.14783436907545e-05,0.06355928948077318,0.059980557193252376,9.806674737605407
1.984,0,4,1,12.652556500557937,1697.6658459192902,-1.1082286112332884,5.648480403583337,160,9,1,-3,-87,1,-0.8684999999999999,4.779980403583337,6.28,-0.19298846335060177,0.1418547913138433,-7.162829687844957e-05,0.008664715014399334,0.07546020079784624,9.817886479753737
2.016,0,4,1,13.20792846277913,1710.8737743820693,0.5553719622211926,5.619048204898823,160,9,1,0,-87,3,-0.6255,4.993548204898823,6.244548204898822,-0.19517605683765765,0.1446394566454945,-7.171737332436513e-05,0.046925949931215315,0.08525376243594898,9.813496301848671
2.048,0,4,1,13.339248903363371,1724.2130232854327,0.13132044058424164,5.6129062343912475,160,9,1,3,-84,3,-0.378,5.234906234391247,5.990906234391248,-0.1974470698179375,0.14742976815764594,-7.165920977643923e-05,0.056286441307795525,0.07963543681589359,9.743715571073578
2.08,0,4,1,12.778733188406045,1736.9917564738387,-0.5605157149573259,5.641623856294655,160,9,1,4,-80,1,-0.291,5.350623856294654,5.932623856294655,-0.19975346658994392,0.15018313947272952,-7.122366824116252e-05,-0.005066045212998926,0.07118252996644431,9.803782020607024
2.112,0,4,1,12.094757077012089,1749.0865135508507,-0.6839761113939566,5.67594612226079,160,9,1,5,-75,1,-0.1785,5.49744612226079,5.854446122260789,-0.20209298304626508,0.15293092676275247,-7.061378150068943e-05,0.01713466830850543,0.04976733163547291,9.786398718152377
2.144,0,4,1,12.094757077012089,1761.1812706278627,0.0,5.675262146149396,160,9,1,5,-70,0,-0.15000000000000002,5.525262146149395,5.825262146149396,-0.20446221138794168,0.1556807912357358,-6.981949972365703e-05,0.020719858384262047,0.04271458358731329,9.760148950831823
2.176,0,4,1,11.976132444203364,1773.157403072066,-0.11862463280872504,5.681312002422641,160,9,1,5,-65,0,-0.11249999999999999,5.568812002422641,5.793812002422641,-0.20683980264568402,0.15842253717381202,-6.90676676652676e-05,-0.0005112016220691829,0.03367486025998965,9.789698932866235
2.208,0,4,1,12.094757077012089,1785.252160149078,0.11862463280872504,5.675143521516587,160,9,1,5,-60,0,-0.07499999999999996,5.6001435215165865,5.750143521516587,-0.20922701370834107,0.161161066882159,-6.841572690849743e-05,0.003903677945871756,0.0312253480408258,9.81066020876205
2.24,0,4,1,11.08256946302967,1796.3347296121076,-1.0121876139824195,5.726883714462499,160,9,1,0,-60,-5,-0.49499999999999994,5.231883714462499,6.221883714462499,-0.21161664604896924,0.16389254761306926,-6.79229248459149e-05,-0.0035561651862256968,0.027844524628272384,9.807887313344443
2.2720000000000002,0,4,1,7.556344056439443,1803.891073668547,-3.5262254065902265,5.9057090225846185,160,9,1,-6,-66,-6,-0.9989999999999999,4.906709022584619,6.28,-0.21403201130399754,0.16664704250068055,-6.811918675410367e-05,0.03364875494802787,0.024199389983611663,9.791333717010819
2.3040000000000003,0,4,1,9.1805419576262,1813.0716156261733,1.6241979011867578,5.819348704217504,160,9,1,-1,-67,5,-0.5324999999999999,5.286848704217504,6.28,-0.2164242849317921,0.16931100138998934,-6.853947809843178e-05,-0.08041102857716004,0.0625876495560308,9.782883358153176
2.336,0,4,1,8.615648184164066,1821.6872638103373,-0.5648937734621349,5.849782484565259,160,9,1,2,-65,3,-0.3105,5.539282484565259,6.1602824845652595,-0.21894114198935616,0.1720258504090955,-6.863081791913181e-05,0.11976918821437173,0.07282692821885672,9.782424098733294
2.368,0,4,1,7.556344056439443,1829.2436078667768,-1.059304127724623,5.903242101305753,160,9,1,3,-62,1,-0.23099999999999998,5.672242101305753,6.134242101305753,-0.22151811955769699,0.17474195428489298,-6.867311638469008e-05,0.04174270793312816,0.05923610118027738,9.7814383958384
2.4,0,4,1,7.556344056439443,1836.7999519232162,0.0,5.902182797178028,160,9,1,5,-57,2,-0.03449999999999999,5.867682797178028,5.936682797178029,-0.2241372863670418,0.17746430610322037,-6.861098153038148e-05,0.03328914367192205,0.042494801228949254,9.819025437814817
2.432,0,4,1,7.556344056439443,1844.3562959796557,0.0,5.902182797178028,160,9,1,5,-52,0,-0.015000000000000013,5.887182797178029,5.917182797178028,-0.22676877986552904,0.18017248325643354,-6.831988291210178e-05,-0.0013858812114325714,0.03537345279542178,9.789030103073191
2.464,0,4,1,7.6333305872312645,1851.989626566887,0.07698653079182183,5.898256484107645,160,9,1,5,-47,0,0.02250000000000002,5.9207564841076445,5.875756484107645,-0.22940184613618234,0.18288018853062551,-6.801015370516694e-05,0.0008005717087650792,0.01837135962837519,9.856290760296783
2.496,0,4,1,7.6333305872312645,1859.6229571541182,0.0,5.898333470638437,160,9,1,4,-43,-1,-0.03150000000000002,5.866833470638436,5.929833470638437,-0.23203217558428196,0.18558759521929064,-6.76011157653509e-05,-0.0024087907668844436,0.014700336067250906,9.827581142914966
2.528,0,4,1,7.6333305872312645,1867.2562877413495,0.0,5.898333470638437,160,9,1,4,-39,0,0.007500000000000007,5.905833470638437,5.890833470638436,-0.23466013366571595,0.18829771418875366,-6.723379267746868e-05,-0.0005156037698876105,0.0121619395563169,9.801963362648028
2.56,0,4,1,1.169139327907133,1868.4254270692566,-6.4641912593241315,6.228007224863968,160,9,1,-7,-46,-11,-0.969,5.259007224863968,6.28,-0.23728787820172234,0.19100730060036797,-6.680671253049726e-05,-0.0020443449486745426,0.014764002433869227,9.85154561394252
2.592,0,4,1,0.5846305207048678,1869.0100575899614,-0.5845088072022652,6.25135298277196,160,9,1,-6,-52,1,-0.831,5.420352982771959,6.28,-0.23985673474561053,0.19365936020639438,-6.668181421812074e-05,-0.0833537992027971,0.011797026589357634,9.817869983190096
2.624,0,4,1,0.0,1869.0100575899614,-0.5846305207048678,6.280584630520705,160,9,1,-2,-54,4,-0.5189999999999999,5.761584630520705,6.28,-0.24249433990088365,0.19631714230746405,-6.652635957427044e-05,0.058147778380132804,0.054957980448341354,9.797950721734736
2.656,0,4,1,1.1934894239817435,1870.203547013943,1.1934894239817435,6.219132039376931,160,9,1,1,-53,3,-0.2955,5.9236320393769315,6.28,-0.2452369856107406,0.19902445888914322,-6.628605057284499e-05,0.11409498014323782,0.0478875239498226,9.81957330508899
2.688,0,4,1,2.361374658175717,1872.5649216721188,1.1678852341939736,6.16076338185702,160,9,1,3,-50,2,-0.13200000000000003,6.02876338185702,6.28,-0.24803296317155218,0.20175106684174432,-6.62300859909995e-05,0.05725567344203712,0.032952470884545004,9.833129767820052
2.72,0,4,1,2.9507791090063535,1875.5157007811251,0.5894044508306364,6.1318716400988516,160,9,1,4,-46,1,-0.03599999999999998,6.095871640098852,6.167871640098851,-0.2508638854469872,0.20448951520231187,-6.621686844567043e-05,0.03937005982308887,0.025311908203575952,9.793987957224084
2.7520000000000002,0,4,1,3.5763343749973706,1879.0920351561224,0.6255552659910171,6.100557725984141,160,9,1,5,-41,1,0.0765,6.177057725984141,6.02405772598414,-0.25369155348961836,0.20721003811957736,-6.615949148094935e-05,-0.01152644453135348,0.02038022359461832,9.788794921113565
2.7840000000000003,0,4,1,3.5395591685500816,1882.6315943246725,-0.036775206447289044,6.103058816778943,160,9,1,5,-36,0,0.10499999999999998,6.208058816778943,5.9980588167789435,-0.25650640063696245,0.20991568213646478,-6.5967240234081e-05,-0.02425724632034509,0.011823733382485003,9.839849209921992
2.816,0,4,1,1.1573330681298035,1883.7889273928024,-2.382226100420278,6.22451557269393,160,9,1,4,-32,-1,0.051,6.27551557269393,6.17351557269393,-0.2593161496706393,0.21262797769528421,-6.572123764945342e-05,-0.011934831161824548,0.0017285708872440643,9.769925325062735
2.848,0,4,1,0.5846305207048678,1884.3735579135073,-0.5727025474249358,6.251341176512182,160,9,1,4,-28,0,0.09,6.28,6.161341176512182,-0.26217356265560093,0.21540303974946262,-6.555389642000017e-05,0.07169116272467395,-0.0020866589179986735,9.804107551459778
2.88,0,4,1,0.5846305207048678,1884.9581884342122,0.0,6.250768473964757,160,9,1,3,-25,-1,0.028499999999999977,6.279268473964757,6.222268473964757,-0.2650247692923836,0.21818107393284503,-6.537329113084737e-05,0.0013167668650955551,0.0022732188621421116,9.791737074909737
2.912,0,4,1,0.0,1884.9581884342122,-0.5846305207048678,6.280584630520705,160,9,1,3,-22,0,0.06,6.28,6.2205846305207055,-0.2678849595513906,0.2209775658555243,-6.51933611322663e-05,0.03414389138956071,0.0007976742797614656,9.80562976872571
2.944,0,4,1,4.666858371439037,1889.6250468056512,4.666858371439037,6.041990223056609,160,9,1,-5,-27,-8,-0.6495,5.392490223056609,6.28,-0.2707424839495087,0.2237764177096802,-6.499352728164993e-05,0.014646964202617541,0.0028571609252162028,9.827814109893346
2.976,0,4,1,4.666858371439037,1894.2919051770903,0.0,6.046657081428048,160,9,1,0,-27,5,-0.15749999999999997,5.889157081428048,6.204157081428048,-0.27340835796654683,0.2263922312554331,-6.478932919347716e-05,-0.29909411569371414,0.004103627632990115,9.836150110502421
3.008,0,4,1,7.0523060078411755,1901.3442111849315,2.385447636402138,5.924999251971539,160,9,1,-3,-30,-3,-0.477,5.447999251971539,6.28,-0.27619995127476704,0.22907273226904815,-6.457470241399282e-05,0.09839670519373754,0.04352844406814207,9.813359595691225
3.04,0,4,1,5.826342029555814,1907.1705532144874,-1.2259639782853613,5.989908862500495,160,9,1,4,-26,7,0.16799999999999998,6.157908862500495,5.821908862500495,-0.27891754639617666,0.23166201896441455,-6.451979243757289e-05,-0.14353018953400695,0.019222926970624506,9.790886140131255
3.072,0,4,1,3.503531644784471,1910.674084859272,-2.3228103847713433,6.107146228145548,160,9,1,10,-16,6,0.6839999999999999,6.28,5.423146228145548,-0.28172033221918213,0.2342773578569634,-6.467810620067356e-05,0.06860744255580155,0.04198120396247795,9.860011955537587
3.104,0,4,1,4.085616779974888,1914.759701639247,0.5820851351904173,6.075137075866066,160,9,1,8,-8,-2,0.522,6.28,5.553137075866066,-0.2844473266296639,0.23684411893633914,-6.462560207655572e-05,-0.0910062942470964,-0.013615235655700008,9.745087223414995
3.136,0,4,1,4.170436524842141,1918.9301381640892,0.08481974486725274,6.0713933540130265,160,9,1,8,0,0,0.6,6.28,5.471393354013027,-0.2871770383639704,0.23946918338602616,-6.465169634527722e-05,0.049839008686023055,-0.03546699322484372,9.762914958067315
3.168,0,4,1,5.300926516525713,1924.231064680615,1.1304899916835724,6.013823184182031,160,9,1,4,4,-4,0.294,6.28,5.719823184182031,-0.2898640646018532,0.2421013005184637,-6.48244494581944e-05,-0.009883566390264643,-0.03107929460641923,9.789087907830806
3.2,0,4,1,6.469819985173149,1930.7008846657882,1.1688934686474353,5.955340107272695,160,9,1,1,5,-3,0.08549999999999999,6.040840107272695,5.869840107272696,-0.2925808220622816,0.24481641441768104,-6.513577184910462e-05,0.09269567232550653,-0.03448057685542504,9.804259554532798
3.232,0,4,1,8.212780189285867,1938.913664855074,1.7429602041127188,5.867618030331594,160,9,1,0,5,-1,0.028499999999999998,5.8961180303315945,5.839118030331594,-0.29525837016687556,0.2475291342350001,-6.559737232108252e-05,-0.020754617646924566,-0.024788233239719362,9.832605952350344
3.2640000000000002,0,4,1,9.940573033112985,1948.854237888187,1.7277928438271175,5.781243555500524,160,9,1,0,5,0,0.0375,5.818743555500523,5.743743555500524,-0.2978909762335351,0.25020713534068006,-6.592590310630121e-05,-0.06622016952302591,-0.008365904710746568,9.78351804352847
3.2960000000000003,0,4,1,10.512627169921368,1959.3668650581085,0.5720541368083829,5.753796587367124,160,9,1,0,5,0,0.0375,5.791296587367124,5.7162965873671245,-0.3004836372581465,0.2528466976158786,-6.598584757523673e-05,-0.09461012430424007,-0.0038850997840875006,9.815526943443272
3.3280000000000003,0,4,1,11.976132444203364,1971.3429975023118,1.4635052742819958,5.67972987251555,160,9,1,-1,4,-1,-0.054,5.625729872515549,5.73372987251555,-0.3030624676573572,0.25547433499952904,-6.594262100599081e-05,-0.052506401242033894,-0.005105862045375073,9.814600428355684
3.36,0,4,1,12.528807709151492,1983.8718052114634,0.5526752649481281,5.6530069392774775,160,9,1,4,8,5,0.40499999999999997,6.058006939277478,5.248006939277477,-0.30560696915987556,0.25806996182533454,-6.586667592951151e-05,-0.07469962284725395,-0.006473212032074967,9.787562515849242
3.392,0,4,1,9.841131759634363,1993.7129369710979,-2.6876759495171285,5.790631087967799,160,9,1,8,16,4,0.756,6.28,5.0346310879677985,-0.3081440792545819,0.26064884414921435,-6.605167403816135e-05,-0.0411693525106707,0.0010939055439700364,9.772150420504888
3.424,0,4,1,11.08256946302967,2004.7955064341274,1.241437703395306,5.724630089145121,160,9,1,3,19,-5,0.32249999999999995,6.047130089145121,5.402130089145121,-0.31065877146711746,0.2632545596505964,-6.630873135142663e-05,-0.014150170402155752,-0.039328795200529905,9.751151811900375
3.456,0,4,1,12.528807709151492,2017.324314143279,1.4462382461218226,5.652113376296303,160,9,1,0,19,-3,0.11549999999999999,5.767613376296303,5.5366133762963035,-0.31316352499685723,0.26592974363415706,-6.649762930027205e-05,0.04081593165830611,-0.058621082176946046,9.827993083539745
3.488,0,4,1,12.094757077012089,2029.419071220291,-0.4340506321394031,5.675696196781535,160,9,1,3,22,3,0.4169999999999999,6.092696196781535,5.2586961967815355,-0.31561572773090313,0.268589928745299,-6.659400135207785e-05,-0.041445713885508925,-0.034505125546783956,9.834746017200317
3.52,0,4,1,11.650299437537637,2041.0693706578286,-0.44445763947445194,5.697929485762593,160,9,1,5,27,2,0.5955,6.28,5.102429485762593,-0.3180718671233908,0.27126705278790114,-6.69689493160916e-05,0.027388550586887456,-0.015459550739538084,9.794936551978912
3.552,0,4,1,13.20792846277913,2054.2772991206075,1.5576290252414928,5.618045947835802,160,9,1,-1,26,-6,0.06600000000000002,5.684045947835802,5.552045947835802,-0.320508584428718,0.2739761020260931,-6.752375330118174e-05,0.0217208729667309,-0.04301418298150712,9.800655943201606
3.584,0,4,1,12.215719134130879,2066.493018254738,-0.9922093286482507,5.670206252622104,160,9,1,4,30,5,0.57,6.240206252622104,5.100206252622104,-0.32287573290495925,0.27668206948893564,-6.765677306991465e-05,-0.04901600517917241,-0.05825398120111211,9.804297510400744
3.616,0,4,1,11.534620653644708,2078.027638908383,-0.6810984804861704,5.703950065798251,160,9,1,2,32,-2,0.372,6.075950065798251,5.331950065798251,-0.32526281768306464,0.27941678954906035,-6.836761321567936e-05,0.02584359888015121,-0.013436401261846977,9.833977190127957
3.648,0,4,1,13.079123780066833,2091.1067626884496,1.544503126422125,5.624499307870236,160,9,1,-2,30,-4,0.038999999999999986,5.663499307870236,5.585499307870236,-0.32762699832522335,0.28219921894499794,-6.882599242152669e-05,0.014787396538033789,-0.05814571754168086,9.832968583065364
3.68,0,4,1,10.40771131249005,2101.5144740009396,-2.6714124675767827,5.762285846843074,160,9,1,5,35,7,0.7004999999999999,6.28,5.061785846843074,-0.3299338849074967,0.28496296715386726,-6.875825974409465e-05,-0.05517580821748124,-0.04310815380647137,9.79219759271729
3.712,0,4,1,12.215719134130879,2113.7301931350703,1.8080078216408282,5.667406035471815,160,9,1,0,35,-5,0.21750000000000003,5.884906035471816,5.449906035471815,-0.33225992017644906,0.28774982414248607,-6.948590588785018e-05,0.03130187764147485,-0.012474478266188768,9.815958139816415
3.744,0,4,1,15.403424962469613,2129.13361809754,3.187705828338734,5.506641046048181,160,9,1,-4,31,-4,-0.10350000000000001,5.403141046048181,5.610141046048182,-0.3345442174296599,0.29056673015365075,-6.953882986700417e-05,-0.0012724844175542155,-0.06355861046927663,9.838130753468569
3.7760000000000002,0,4,1,11.534620653644708,2140.6682387511846,-3.8688043088249042,5.70713777162659,160,9,1,6,37,10,0.8174999999999999,6.28,4.88963777162659,-0.33675129731445896,0.2933139443117637,-6.904220013357124e-05,-0.12102144636528148,-0.02961527289656273,9.823486874025841
3.8080000000000003,0,4,1,14.452428251092973,2155.1206670022775,2.917807597448265,5.554460779847903,160,9,1,-1,36,-7,0.132,5.686460779847903,5.422460779847904,-0.3389992784522622,0.29609314826725225,-6.961927382382986e-05,0.032890276342637886,-0.001916246485932672,9.792330726999484
3.84,0,4,1,9.841131759634363,2164.9617987619117,-4.61129649145861,5.792554708509741,160,9,1,9,45,10,1.1025,6.28,4.690054708509741,-0.34118891519285266,0.2988928004728446,-6.937869197033882e-05,-0.03205377785144275,-0.07146577795405051,9.809437172555795
3.872,0,4,1,12.652556500557937,2177.61435526247,2.8114247409235738,5.64456075023118,160,9,1,-1,44,-10,0.16499999999999995,5.80956075023118,5.47956075023118,-0.34334485976451024,0.30166465323883973,-7.000928941458366e-05,-0.051948403055064644,-0.024060404119080704,9.814523773959666
3.904,0,4,1,12.094757077012089,2189.709112339482,-0.5577994235458483,5.6758199455729414,160,9,1,2,46,3,0.522,6.197819945572942,5.153819945572941,-0.3455088080522656,0.30455717159139617,-6.991439425854847e-05,0.11102382270136726,-0.07834886098735025,9.806202700559805
3.936,0,4,1,10.972240237811638,2200.6813525772936,-1.1225168392004505,5.7325105049486185,160,9,1,1,47,-1,0.4185,6.151010504948618,5.314010504948619,-0.3476749121602729,0.3074742024514482,-7.027493418283737e-05,0.030175683479615783,-0.026658625959240893,9.791099092962233
3.968,0,4,1,15.004920382860202,2215.686272960154,4.032680145048564,5.5257213007119415,160,9,1,-6,41,-7,-0.20549999999999996,5.320221300711942,5.731221300711941,-0.34982675413186065,0.3104461530361146,-7.06353407046792e-05,0.04281574762294838,-0.05724016496702605,9.765561229915512
4.0,0,4,1,10.40771131249005,2226.093984272644,-4.597209070370152,5.764211643445868,160,9,1,5,46,11,0.819,6.28,4.945211643445868,-0.3518734157827147,0.3133295418452931,-7.00086740781751e-05,-0.15350454803921063,-0.04790735651494509,9.779448089565461
4.032,0,4,1,12.094757077012089,2238.188741349656,1.687045764522038,5.673575100384873,160,9,1,-1,45,-6,0.20849999999999996,5.882075100384873,5.465075100384873,-0.35396982074208144,0.31624685983770034,-7.05942941255696e-05,0.03678420883856359,0.005701262997156186,9.81449215826193
4.064,0,4,1,10.40771131249005,2248.596452662146,-1.687045764522038,5.76130148014002,160,9,1,2,47,3,0.5295,6.28,5.23180148014002,-0.35604205077030776,0.3192276935146497,-7.053778973755559e-05,0.032201695603936965,-0.07009507423180991,9.81050583331862
4.096,0,4,1,9.940573033112985,2258.537025695259,-0.46713827937706576,5.783438486623727,160,9,1,2,49,0,0.5175,6.28,5.265938486623727,-0.35813100288934735,0.3222620453436454,-7.08704565547634e-05,0.06994774968342642,-0.031111966993548294,9.807325899844981
4.128,0,4,1,12.778733188406045,2271.3157588836652,2.8381601552930604,5.638225180424405,160,9,1,-5,44,-7,-0.10800000000000004,5.530225180424405,5.746225180424404,-0.3601887462248635,0.32533104568572035,-7.107660062296954e-05,0.025502299800368337,-0.05876843937902673,9.787608322332963
4.16,0,4,1,8.702223789946824,2280.017982673612,-4.076509398459221,5.848965319901118,160,9,1,6,50,11,0.9239999999999999,6.28,4.924965319901117,-0.362163469898862,0.3283509171718056,-7.052970510568711e-05,-0.09385438064482006,-0.05687957924385001,9.825108559313426
4.192,0,4,1,13.20792846277913,2293.225911136391,4.505704672832305,5.615097872188212,160,9,1,-6,44,-12,-0.22799999999999998,5.387097872188212,5.843097872188212,-0.36413580667952183,0.3313462209862893,-7.095239926020735e-05,-0.028462400520612434,-0.004580411206219959,9.812755277049023
4.224,0,4,1,9.272601777200324,2302.498512913591,-3.935326685578806,5.820305237825562,160,9,1,7,51,13,1.0245,6.28,4.7958052378255625,-0.36606487696861845,0.3343779448730469,-7.014351645610699e-05,0.0026926224930193298,-0.07088001784342562,9.794584374407346
4.256,0,4,1,12.094757077012089,2314.5932699906034,2.822155299811765,5.672439990849584,160,9,1,-4,47,-11,-0.0465,5.625939990849584,5.718939990849584,-0.3679861657334835,0.3373570865014921,-7.06952351168591e-05,-0.050692119714537895,0.005295549383661195,9.815364929796267
4.288,0,4,1,8.702223789946824,2323.2954937805503,-3.3925332870652642,5.848281343789724,160,9,1,5,52,9,0.846,6.28,5.002281343789724,-0.3699010241943374,0.3404420444159744,-7.01851825606354e-05,0.09822388024892854,-0.07551180666218602,9.840088270996647
4.32,0,4,1,9.841131759634363,2333.1366255401845,1.1389079696875388,5.786804504048594,160,9,1,-2,50,-7,0.162,5.948804504048594,5.624804504048594,-0.37181000101999917,0.3435069147194531,-7.05797536774376e-05,-0.00847509196597919,-0.009690735618891333,9.855480372006772
4.352,0,4,1,10.512627169921368,2343.649252710106,0.6714954102870045,5.7536971460936455,160,9,1,-2,48,0,0.21,5.963697146093645,5.5436971460936455,-0.3737208331571662,0.34667842757337664,-7.039133251092629e-05,0.09966083100283546,-0.06717260761337157,9.791503774629073
4.384,0,4,1,9.841131759634363,2353.49038446974,-0.6714954102870045,5.788614907428569,160,9,1,0,48,2,0.378,6.166614907428569,5.4106149074285685,-0.37560979770681446,0.34984069059511874,-7.035035524221266e-05,-0.016295596544193398,-0.02845946035584715,9.808834249369347
4.416,0,4,1,8.530765609948096,2362.021150079688,-1.310366149686267,5.854772085652281,160,9,1,1,49,1,0.4515,6.28,5.403272085652281,-0.3774957835596378,0.3530283852622388,-7.04503925196831e-05,0.018786739121717504,-0.029595013767681408,9.849639933816801
4.448,0,4,1,8.702223789946824,2370.723373869635,0.17145817999872826,5.84471735232266,160,9,1,-1,48,-2,0.26699999999999996,6.1117173523226604,5.57771735232266,-0.3793711166819798,0.35626197051254915,-7.055461616104104e-05,0.03547460601184099,-0.045487425167699325,9.836912351629925
4.48,0,4,1,5.300926516525713,2376.0243003861606,-3.401297273421111,6.018354971447136,160,9,1,5,53,6,0.8265,6.28,5.191854971447135,-0.38121417936442226,0.3595157046452616,-7.040939121108133e-05,0.0030809365683495825,-0.051218870341744736,9.712735084876371
4.5120000000000005,0,4,1,7.6333305872312645,2383.657630973392,2.332404070705551,5.896001066567731,160,9,1,-3,50,-8,0.07800000000000003,5.974001066567731,5.818001066567731,-0.3830040229170501,0.3627221574739602,-7.059807424124667e-05,-0.07805754388482003,-0.03804736356642077,9.881608400717965
4.5440000000000005,0,4,1,8.702223789946824,2392.3598547633387,1.06889320271556,5.843819917299943,160,9,1,-3,47,0,0.1275,5.971319917299944,5.716319917299943,-0.3848013878080646,0.36603784145513535,-7.021907341357887e-05,0.09031784789478771,-0.059335100842177954,9.817229763839556
4.5760000000000005,0,4,1,6.981057406829782,2399.3409121701684,-1.7211663831170423,5.932668296041628,160,9,1,0,47,3,0.37949999999999995,6.28,5.553168296041628,-0.38657848747040774,0.3693297470913058,-6.986467221111771e-05,-0.03538773511282608,-0.021214076310002532,9.798429889379586
4.6080000000000005,0,4,1,11.534620653644708,2410.875532823813,4.553563246814926,5.69871540407095,160,9,1,-9,38,-9,-0.471,5.22771540407095,6.16971540407095,-0.38836962737753095,0.37266481975534,-6.979962526065808e-05,0.0485173716411206,-0.022494664487568327,9.848366410759871
4.64,0,4,1,5.826342029555814,2416.7018748533687,-5.708278624088894,5.994391177146298,160,9,1,4,42,13,0.732,6.28,5.262391177146298,-0.3900685548667117,0.3758910060577121,-6.855037051103387e-05,-0.1491084142285906,-0.04310452710123808,9.785162373683812
4.672,0,4,1,8.130102354156005,2424.8319772075247,2.3037603246001908,5.8711911219676,160,9,1,0,42,-4,0.279,6.1501911219676,5.5921911219676,-0.39182885090945496,0.37913782445053024,-6.861163050627186e-05,0.03441613786501481,0.029512815943207264,9.773323550305888
4.704,0,4,1,5.826342029555814,2430.6583192370804,-2.3037603246001908,5.9909866588468095,160,9,1,2,44,2,0.498,6.28,5.492986658846809,-0.3935800397769599,0.38246202205164453,-6.842609901020272e-05,0.06686119519158118,-0.05636004865893306,9.857235995838286
4.736,0,4,1,9.272601777200324,2439.9309210142806,3.4462597476445094,5.81292365139234,160,9,1,-3,41,-5,0.03750000000000002,5.850423651392339,5.77542365139234,-0.39531423456610876,0.3858064056882741,-6.832061686895714e-05,0.0140827745604942,-0.03665424471759374,9.8357254645435
4.768,0,4,1,6.981057406829782,2446.9119784211102,-2.2915443703705414,5.933238674028882,160,9,1,1,42,4,0.426,6.28,5.507238674028882,-0.3969958498278878,0.3891262275591223,-6.802573206061979e-05,-0.05035007400587507,-0.04729404356092567,9.846991808040302
4.8,0,4,1,12.094757077012089,2459.0067354981225,5.1136996701823065,5.670148446479214,160,9,1,-8,34,-9,-0.42599999999999993,5.244148446479214,6.096148446479214,-0.39869935704316517,0.3924912275917231,-6.807965377465981e-05,0.04378867989803534,-0.012453597862631284,9.841592996552611
4.832,0,4,1,9.272601777200324,2468.2793372753226,-2.822155299811765,5.819192066439795,160,9,1,4,38,12,0.693,6.28,5.1261920664397955,-0.4003087927287256,0.3957429810980057,-6.72589032396538e-05,-0.14530001438642387,-0.04376366673537579,9.802445472044749
4.864,0,4,1,5.826342029555814,2474.1056793048783,-3.4462597476445094,5.9921291582698535,160,9,1,5,43,1,0.7065,6.28,5.285629158269853,-0.40196331109680067,0.3989967480407257,-6.753227564930755e-05,0.019975339102900853,0.027613193472190357,9.794509966195177
4.896,0,4,1,9.272601777200324,2483.3782810820785,3.4462597476445094,5.81292365139234,160,9,1,-2,41,-7,0.0945,5.90742365139234,5.71842365139234,-0.4035954989171273,0.4023192506279098,-6.770313513147948e-05,0.06369411969464835,-0.05901794219370146,9.807609213730956
4.928,0,4,1,12.094757077012089,2495.4730381590907,2.822155299811765,5.672439990849584,160,9,1,-5,36,-3,-0.13199999999999998,5.540439990849585,5.804439990849584,-0.40519616441971684,0.4056771664679142,-6.763356631089845e-05,0.029681213819260113,-0.05261636182521823,9.802341011796713
4.96,0,4,1,12.094757077012089,2507.567795236103,0.0,5.675262146149396,160,9,1,0,36,5,0.315,5.990262146149396,5.360262146149395,-0.4067519796675213,0.4089571753127792,-6.748802669775955e-05,-0.09614417195647773,-0.01659688019153443,9.883696464774287
4.992,0,4,1,8.130102354156005,2515.697897590259,-3.964654722856084,5.877459537015056,160,9,1,7,43,7,0.9105000000000001,6.28,4.9669595370150565,-0.40832043305945903,0.4122326653255523,-6.758946470368857e-05,-0.006914555939825391,0.00326908403478242,9.826185976759726
5.024,0,4,1,13.760785111791225,2529.4586827020503,5.6306827576352205,5.586330061652804,160,9,1,-7,36,-14,-0.381,5.205330061652804,5.967330061652804,-0.40985095757192314,0.4154908545005993,-6.795912653993416e-05,-0.03839483792682062,-0.036527713004834136,9.839861108358175
5.056,0,4,1,11.534620653644708,2540.993303355695,-2.226164458146517,5.705495131775912,160,9,1,5,41,12,0.7905,6.28,4.914995131775912,-0.4113200341401215,0.4187497388798633,-6.750255661252917e-05,-0.03207800141833226,-0.06381291848962414,9.790608446258938
5.088,0,4,1,13.897176315015338,2554.89047967071,2.36255566137063,5.582778628587862,160,9,1,1,42,-4,0.35400000000000004,5.936778628587862,5.228778628587862,-0.41282442266857106,0.42200182162581445,-6.802192665799137e-05,0.0029226737086887563,0.02469934392338001,9.786314939171254
5.12,0,4,1,17.02052561151984,2571.9110052822302,3.123349296504502,5.425850370127504,160,9,1,-3,39,-4,0.03150000000000001,5.457350370127505,5.394350370127504,-0.4142716006176793,0.4252693521588453,-6.829752574461466e-05,-0.013386417290696314,-0.06658077733862615,9.847265419895503
5.152,0,4,1,13.20792846277913,2585.118933745009,-3.8125971487407107,5.623416174009785,160,9,1,6,45,9,0.8684999999999998,6.28,4.754916174009785,-0.41565103674502135,0.42845770649690396,-6.824972093900233e-05,-0.10179499227217167,-0.03935709452181646,9.806186312530246
5.184,0,4,1,18.08344538304867,2603.2023791280576,4.87551692026954,5.370952213927297,160,9,1,-8,37,-14,-0.4485,4.922452213927297,5.819452213927297,-0.4170532388161587,0.4316996875670573,-6.899450981459956e-05,0.06325004839477862,-0.009257961998372569,9.814407507873192
5.216,0,4,1,17.5535448263399,2620.7559239543975,-0.5299005567087711,5.402852659239714,160,9,1,1,38,9,0.44099999999999995,5.8438526592397135,4.961852659239714,-0.4183603875470477,0.43487786719295674,-6.851239559665066e-05,-0.09624282885381233,-0.0712152300761385,9.843092461006911
5.248,0,4,1,15.403424962469613,2636.159348916867,-2.1501198638702856,5.51197887174039,160,9,1,7,45,6,0.9165000000000001,6.28,4.59547887174039,-0.41971238547314677,0.43806135254372025,-6.897438554772685e-05,0.01402251996601068,0.028459143453094093,9.860939161318493
5.28,0,4,1,17.02052561151984,2653.1798745283872,1.6171006490502275,5.427356618774958,160,9,1,2,47,-5,0.45749999999999996,5.884856618774958,4.969856618774958,-0.42104036843855175,0.44127975668600444,-6.979237673317672e-05,0.016892510380699,-0.04478903127439488,9.863494255528423
5.312,0,4,1,22.70284212321281,2675.8827166516003,5.682316511692971,5.139175577327667,160,9,1,-7,40,-9,-0.30600000000000005,4.833175577327667,5.445175577327667,-0.4223006297589584,0.44451772274930945,-7.032033225435295e-05,-0.011110975973774534,-0.07863439242139025,9.762289282498147
5.344,0,4,1,21.700536739317474,2697.583253390918,-1.0023053838953366,5.195975468418022,160,9,1,3,43,10,0.6375,5.833475468418023,4.558475468418022,-0.4234605636713442,0.4475945458337497,-6.980875058356512e-05,-0.18838294783308523,-0.045075091503431405,9.791979736042402
5.376,0,4,1,20.1706534118504,2717.753906802768,-1.5298833274670756,5.272997212734947,160,9,1,6,49,3,0.8444999999999999,6.117497212734947,4.428497212734947,-0.42465888899633897,0.45069708811556225,-7.059580603446976e-05,0.03882551540860007,0.015216253091534447,9.831287607814309
5.408,0,4,1,19.983106521899995,2737.737013324668,-0.18754688995040425,5.281032220794951,160,9,1,6,55,0,0.8624999999999999,6.143532220794951,4.418532220794951,-0.42582754925061533,0.4538648735490755,-7.15211729554327e-05,0.06970779094927725,-0.059692009865259146,9.811215322459718
5.44,0,4,1,23.69068940282738,2761.4277027274957,3.7075828809273865,5.091757946977704,160,9,1,-2,53,-8,0.1755,5.267257946977704,4.916257946977703,-0.4269339639016512,0.45706184837385794,-7.25869958254164e-05,0.023134202221831806,-0.07812669195707647,9.793662777637039
5.472,0,4,1,28.40524643347077,2789.8329491609666,4.7145570306433875,4.855023121295818,160,9,1,-8,45,-6,-0.3165,4.5385231212958175,5.171523121295818,-0.42793679520619243,0.46016642230768406,-7.29942062240134e-05,-0.13187396090823772,-0.08054489288228464,9.8060646120967
5.5040000000000004,0,4,1,30.439724380643128,2820.2726735416095,2.034477947172359,4.755979303020671,160,9,1,0,45,8,0.4095,5.165479303020671,4.34647930302067,-0.4288796030354005,0.4631242313009544,-7.208016558539997e-05,-0.1677808284568186,-0.02379075651569029,9.856279760351814
5.5360000000000005,0,4,1,31.049657186622614,2851.322330728232,0.6099328059794864,4.726907207862889,160,9,1,3,48,3,0.612,5.338907207862889,4.114907207862889,-0.429831511091678,0.4660171735665474,-7.24915166817712e-05,-0.0678227395164952,0.014377518695051262,9.828142272589117
5.5680000000000005,0,4,1,32.05737573420542,2883.3797064624373,1.007718547582808,4.676123494742146,160,9,1,4,52,1,0.699,5.375123494742146,3.9771234947421465,-0.4307511536639063,0.4689010447516456,-7.301428080286505e-05,-0.025605933891322843,-0.04108814210479691,9.850805459607079
5.6000000000000005,0,4,1,33.554936221079004,2916.9346426835164,1.4975604868735815,4.600755628459177,160,9,1,3,55,-1,0.6285,5.2292556284591765,3.972255628459177,-0.4316202843422798,0.4717673968243268,-7.345789735006825e-05,-0.03624774486414556,-0.05579747477394934,9.833437432841503
5.632,0,4,1,35.92294619907056,2952.8575888825867,2.368009977991555,4.481484680068481,160,9,1,3,58,0,0.6599999999999999,5.141484680068481,3.8214846800684805,-0.43242901392385696,0.474602192488377,-7.372373275261156e-05,-0.050279571098846926,-0.062299087457707576,9.818933358556265
5.664,0,4,1,38.15722658736906,2991.014815469956,2.234280388298501,4.369904390243248,160,9,1,2,60,-1,0.591,4.960904390243249,3.778904390243248,-0.43317617440076833,0.47737515155639676,-7.401448139127478e-05,-0.077601375401996,-0.056492779602750086,9.849689790966424
5.696,0,4,1,40.93663400706695,3031.951449477023,2.7794074196978897,4.230388892226955,160,9,1,1,61,-1,0.5235,4.753888892226955,3.706888892226955,-0.43386297182276296,0.48009044284550456,-7.422920737670119e-05,-0.07169204862294118,-0.057218283921465156,9.777890483276499
5.728,0,4,1,44.10946374663943,3076.0609132236623,3.172829739572478,4.071353982928457,160,9,1,1,62,0,0.5399999999999999,4.611353982928457,3.531353982928457,-0.4344917838101405,0.48272816961609005,-7.431585840107086e-05,-0.08895529146880442,-0.051705300543787074,9.800168352259243
5.76,0,4,1,46.701354605326124,3122.7622678289886,2.591890858686696,3.9423403788750075,160,9,1,0,62,-1,0.45599999999999996,4.398340378875007,3.4863403788750076,-0.435066513722076,0.48527390020146455,-7.436672118572331e-05,-0.10096974021321131,-0.04567345577229246,9.830113163291385
5.792,0,4,1,49.563229754237845,3172.3254975832265,2.8618751489117216,3.798976637139196,160,9,1,0,62,0,0.46499999999999997,4.263976637139196,3.3339766371391963,-0.43559261422449413,0.48774604435098123,-7.423172637902042e-05,-0.08166536403320306,-0.04475000579444658,9.818021996072499
5.824,0,4,1,50.63068275763526,3222.956180340862,1.0674530033974179,3.7473984091148393,160,9,1,6,68,6,1.014,4.76139840911484,2.733398409114839,-0.4360751692868355,0.4901334664751554,-7.401966296696066e-05,-0.0911655123203714,-0.038483380660524175,9.839084776977788
5.856,0,4,1,51.282492088161376,3274.238672429023,0.6518093305261132,3.715223586261405,160,9,1,4,72,-2,0.8220000000000001,4.537223586261405,2.893223586261405,-0.4365270824143917,0.49249166256907045,-7.464938848202561e-05,-0.03481656713618345,-0.03714985869566554,9.790751988222114
5.888,0,4,1,51.571922654315884,3325.810595083339,0.2894305661545076,3.701114436718051,160,9,1,6,78,2,1.053,4.7541144367180515,2.648114436718051,-0.43691947704420375,0.4948421305370773,-7.499293343943281e-05,-0.01752465465411536,-0.06877608326197195,9.835574853598176
5.92,0,4,1,53.84181456019167,3379.652409643531,2.269891905875788,3.5856393800845408,160,9,1,-1,77,-7,0.43950000000000006,4.025139380084541,3.1461393800845405,-0.4372660130782194,0.49718857151443874,-7.580829070753803e-05,-0.01037760096169723,-0.05610609278045285,9.766848767024126
5.952,0,4,1,55.72629446612523,3435.378704109656,1.88447990593356,3.4918007967878046,160,9,1,-1,76,0,0.49499999999999994,3.9868007967878047,2.9968007967878045,-0.4375451868232383,0.4994755298318592,-7.570247244525867e-05,-0.0664232433771737,-0.07008167152906372,9.798281250670023
5.984,0,4,1,55.819398401978766,3491.1981025116347,0.09310393585353438,3.4889369759652085,160,9,1,3,79,4,0.8535,4.342436975965208,2.6354369759652085,-0.4377955974275913,0.5017039914169654,-7.570349189098616e-05,-0.06043483484797389,-0.03392525915020416,9.748793059252721
6.016,0,4,1,56.87626440375961,3548.0743669153944,1.0568660017808469,3.435129913810239,160,9,1,2,81,-1,0.7484999999999999,4.183629913810239,2.686629913810239,-0.4380217434057104,0.5039253039497271,-7.629747989028497e-05,-0.00955870564999534,-0.03474747994929218,9.799541527222736
6.048,0,4,1,57.07766916236423,3605.1520360777586,0.20140475860461748,3.425915137123184,160,9,1,6,87,4,1.1385,4.564415137123184,2.287415137123184,-0.4382012279990864,0.5061247164646718,-7.662233379410188e-05,-0.02498438563312012,-0.0558092595730889,9.80375327924664
6.08,0,4,1,57.88818512576571,3663.040221203524,0.8105159634014782,3.384780227748313,160,9,1,2,89,-4,0.7815,4.166280227748313,2.6032802277483134,-0.43834284217682856,0.5083161911965245,-7.756215008573701e-05,-0.009393478198750943,-0.04830525752797408,9.80145767206872
6.112,0,4,1,58.41410249613329,3721.4543236996574,0.5259173703675799,3.358768957822968,160,9,1,4,93,2,1.0155,4.374268957822968,2.3432689578229677,-0.43842579348924887,0.5104835674399378,-7.780430393286922e-05,-0.02522480577977109,-0.06818252870558315,9.797208076189422
6.144,0,4,1,58.9793459895957,3780.4336696892533,0.5652434934624111,3.330467457026753,160,9,1,3,96,-1,0.9359999999999999,4.266467457026753,2.394467457026753,-0.43846939859605477,0.5126361717187812,-7.831304090653336e-05,-0.014662897766219348,-0.04943818407920968,9.848505895323319
6.176,0,4,1,75,3855.4336696892533,16.0206540104043,2.513979345989596,160,9,1,5,101,2,1.1504999999999999,3.664479345989596,1.3634793459895962,-0.43846270678209165,0.51477091821634,-7.873911645510205e-05,-0.01668361014651117,-0.06121167439963225,9.848541105288223
6.208,0,4,1,75,3930.4336696892533,0,2.5300000000000002,160,9,1,3,104,-2,0.9869999999999999,3.5170000000000003,1.5430000000000004,-0.4384201048015012,0.516383098152177,-7.901835792961664e-05,-0.5091051348296749,-0.06719471303685257,9.821521995007265
6.24,0,4,1,75,4005.4336696892533,0,2.5300000000000002,160,9,1,5,109,2,1.2105,3.7405,1.3195000000000003,-0.43833579097514486,0.5180030590487525,-7.945524598269166e-05,0.009579684740013158,-0.05071596928685142,9.822062202460089
6.272,0,4,1,60.29468760527064,4065.728357294524,-14.705312394729361,3.2799709321311976,160,9,1,2,111,-3,0.9555,4.235470932131197,2.324470932131198,-0.43821567700985636,0.519621665958168,-8.019869347220855e-05,0.0016184559122442025,-0.045415721607971346,9.785964446029633
6.304,0,4,1,75,4140.728357294523,14.705312394729361,2.515294687605271,160,9,1,-2,109,-4,0.6315,3.146794687605271,1.883794687605271,-0.4380079920847982,0.5217139252762297,-8.061164977854994e-05,0.4718741137012779,-0.043548036472629024,9.787063348079089
6.336,0,4,1,75,4215.728357294523,0,2.5300000000000002,160,9,1,1,110,3,0.9269999999999999,3.4570000000000003,1.6030000000000002,-0.43781108915367223,0.5233119789236843,-8.00128775255253e-05,-0.48280382244346504,-0.06072538058941889,9.79943711504029
6.368,0,4,1,75,4290.728357294523,0,2.5300000000000002,160,9,1,7,117,6,1.4565,3.9865000000000004,1.0735000000000003,-0.4375916446131847,0.5249174288437415,-8.030649266729459e-05,0.009623727162616159,-0.03075403276678152,9.845384404950872
6.4,0,4,1,75,4365.728357294523,0,2.5300000000000002,160,9,1,1,118,-6,0.9059999999999999,3.436,1.6240000000000003,-0.4373379978933025,0.5265205025337187,-8.129513095230315e-05,0.0035224158519516374,-0.04346401796941074,9.820451130692602
6.432,0,4,1,75,4440.728357294523,0,2.5300000000000002,160,9,1,1,119,0,0.9674999999999999,3.4975,1.5625000000000004,-0.4370317240001927,0.5281126419551995,-8.134868395417473e-05,-0.0003960001635360981,-0.06247576641299175,9.786732739787183
6.464,0,4,1,75,4515.728357294523,0,2.5300000000000002,160,9,1,4,123,3,1.2494999999999998,3.7795,1.2805000000000004,-0.4366937382684028,0.52969810022,-8.147542443569765e-05,0.00031259230493523916,-0.041296813772442716,9.834183290081029
6.496,0,4,1,75,4590.728357294523,0,2.5300000000000002,160,9,1,2,125,-2,1.0695,3.5995,1.4605000000000004,-0.436320963266348,0.5312770100447977,-8.183690147975896e-05,0.002081321757093106,-0.0439148421810184,9.82627198264055
6.5280000000000005,0,4,1,75,4665.728357294523,0,2.5300000000000002,160,9,1,-2,123,-4,0.7364999999999999,3.2665,1.7935000000000003,-0.4359037366876332,0.532844200539495,-8.201846564321637e-05,0.0006310852368949263,-0.05409955883061228,9.805690292805815
6.5600000000000005,0,4,1,75,4740.728357294523,0,2.5300000000000002,160,9,1,11,134,13,1.9469999999999998,4.477,0.5830000000000004,-0.4354501913883157,0.5343990590502001,-8.180721425456172e-05,-0.001598252538359802,-0.04670095103018813,9.806678552132592
6.5920000000000005,0,4,1,75,4815.728357294523,0,2.5300000000000002,160,9,1,-1,133,-12,0.8145,3.3445,1.7155000000000002,-0.4349685809143804,0.5359514606915519,-8.27520735920944e-05,0.006537557063322729,-0.03601224058319179,9.782023119139538
6.6240000000000006,0,4,1,75,4890.728357294523,0,2.5300000000000002,160,9,1,-1,132,0,0.915,3.4450000000000003,1.6150000000000002,-0.43441916630593996,0.537477439650185,-8.272127551585406e-05,-0.0014792720748389105,-0.0803181543100713,9.798107177457075
6.656000000000001,0,4,1,75,4965.728357294523,0,2.5300000000000002,160,9,1,8,140,9,1.7309999999999999,4.261,0.7990000000000004,-0.4338433050704005,0.5389927525577543,-8.282244145065183e-05,-0.0004113328963441871,-0.03708751324940044,9.800656273090226
6.688,0,4,1,75,5040.728357294523,0,2.5300000000000002,160,9,1,-3,137,-11,0.7034999999999999,3.2335000000000003,1.8265000000000002,-0.4332342109621395,0.5404992708040794,-8.363862953103887e-05,0.00502252402572558,-0.04252831254363942,9.784534033922679
6.72,0,4,1,75,5115.728357294523,0,2.5300000000000002,160,9,1,-3,134,0,0.7799999999999999,3.31,1.7500000000000004,-0.4325686487291216,0.5419764714200628,-8.352565014666836e-05,-0.003228892430249506,-0.07130786334938667,9.844219920305598
6.752,0,4,1,75,5190.728357294523,0,2.5300000000000002,160,9,1,4,138,7,1.398,3.928,1.1320000000000003,-0.43188180370285817,0.5434428242910996,-8.348050670039034e-05,-0.0006888489387774659,-0.03271234259117642,9.840395982175231
6.784,0,4,1,75,5265.728357294523,0,2.5300000000000002,160,9,1,1,139,-3,1.0905,3.6205000000000003,1.4395000000000002,-0.43116830331669137,0.544899356723688,-8.394257395816923e-05,0.0033727655938546163,-0.03688271682752257,9.827000002600977
6.816,0,4,1,75,5340.728357294523,0,2.5300000000000002,160,9,1,6,145,5,1.5824999999999998,4.1125,0.9475000000000005,-0.4304093401053638,0.5463316605334153,-8.407293086818216e-05,0.000541362130179792,-0.05996202875828697,9.768597314718786
6.848,0,4,1,75,5415.728357294523,0,2.5300000000000002,160,9,1,4,149,-2,1.3995,3.9295,1.1305000000000003,-0.4296134521463354,0.5477468876953967,-8.462558305265613e-05,0.00406655795803402,-0.04887873010924239,9.75368756293986
6.88,0,4,1,60.45201064112969,5476.1803679356535,-14.54798935887031,3.2719474573023857,160,9,1,-1,148,-5,0.9899999999999999,4.2619474573023854,2.281947457302386,-0.42876647269675294,0.5491323192368419,-8.501990567733042e-05,0.0023155088721781374,-0.0671737252361953,9.781710052447597
6.912,0,4,1,60.728953079144105,5536.909321014798,0.27694243801441587,3.2432754036047804,160,9,1,-1,147,0,1.0275,4.27077540360478,2.2157754036047805,-0.4276525203351555,0.5508403363836016,-8.546663861718796e-05,0.4057321793640767,-0.05005164990567383,9.845030939979186
6.944,0,4,1,60.57254359681026,5597.481864611608,-0.15640948233384222,3.251529229641821,160,9,1,0,147,1,1.1115,4.363029229641821,2.140029229641821,-0.4264755562050287,0.5525526915841761,-8.592779643472846e-05,0.038981931654733445,-0.0579744643824466,9.823076747797526
6.976,0,4,1,59.14947608634519,5656.631340697953,-1.4230675104650743,3.3239492631932057,160,9,1,6,153,6,1.6515,4.975449263193205,1.6724492631932057,-0.42525631089893,0.5542412828304375,-8.642693915765672e-05,0.006289243346062993,-0.05767887260646421,9.810448148606802
7.008,0,4,1,57.709388136255775,5714.34072883421,-1.4400879500894135,3.395970681137301,160,9,1,8,161,2,1.8255000000000001,5.221470681137301,1.5704706811373008,-0.42396396650976265,0.5559379373892818,-8.749758775231618e-05,0.05108788022761572,-0.06205379660669523,9.796724711720803
7.04,0,4,1,56.309932474020215,5770.65066130823,-1.3994556622355603,3.465902831961225,160,9,1,6,167,-2,1.6844999999999999,5.150402831961225,1.7814028319612252,-0.42264509714576787,0.5575349040192864,-8.886275225789171e-05,-0.055646401954259246,-0.09631575672221401,9.803459264092458
7.072,0,4,1,55.06456820725187,5825.715229515482,-1.2453642667683482,3.528016953904175,160,9,1,4,171,-2,1.5645,5.092516953904175,1.9635169539041748,-0.42121575841747716,0.5591103192312847,-9.031970192080116e-05,0.05989350245581403,-0.10548856207921851,9.823129004757982
7.104,0,4,1,54.38151016074824,5880.09673967623,-0.6830580465036249,3.5616075500090916,160,9,1,2,173,-2,1.4294999999999998,4.991107550009091,2.132107550009092,-0.41969260690791726,0.5606483374922162,-9.191530465476987e-05,0.041081065913634945,-0.1038624357058861,9.815419506806704
