Time,SetPointAngle,SensorAngleRow,SensorAngleWidth,Angle,IntegralAngle,DeltaAngle,BaseSpeed,SetPointError,SensorErrorRow,SensorErrorWidth,Error,IntegralError,DeltaError,DeltaSpeed,LeftSpeed,RightSpeed,X,Y,Z,Roll,Pitch,Yaw
0.032,0,4,1,1.181188913326966,1.181188913326966,1.181188913326966,6.219759365420325,160,9,1,-5,-5,-5,-0.45749999999999996,5.762259365420325,6.28,-0.01906340000000063,0.01816209999999909,-6.396729917784554e-05,4.6299602390096686e-08,-6.323787631613885e-08,9.779363589244984
0.064,0,4,1,5.885987833028316,7.0671767463552815,4.70479891970135,5.980995809428883,160,9,1,-4,-9,1,-0.3585,5.622495809428883,6.28,-0.021778386389056662,0.020871878137079775,-1.891020032143524e-05,4.50421145907164,-0.018927619184686023,9.574595624346754
0.096,0,4,1,5.885987833028316,12.953164579383596,0.0,5.985700608348584,160,9,1,-2,-11,2,-0.2145,5.771200608348584,6.2002006083485846,-0.024484744219139345,0.023525723013702763,-6.090274661887593e-05,0.3326300494733619,0.02751331013408689,9.691796323143754
0.128,0,4,1,5.885987833028316,18.839152412411913,0.0,5.985700608348584,160,9,1,0,-11,2,-0.06449999999999999,5.921200608348585,6.050200608348584,-0.027238634139048833,0.026190086303743424,-7.768572916584844e-05,0.02421031873700752,0.02738191781567336,9.863188269997776
0.16,0,4,1,7.0523060078411755,25.891458420253088,1.1663181748128597,5.926218381433128,160,9,1,0,-11,0,-0.08249999999999999,5.843718381433129,6.008718381433128,-0.03000415897855302,0.02884101989466149,-7.044848999051591e-05,0.17776522996137784,0.020768796311406372,9.84769714872858
0.192,0,4,1,7.0523060078411755,32.94376442809426,0.0,5.927384699607941,160,9,1,2,-9,2,0.10049999999999999,6.027884699607942,5.826884699607941,-0.03274610009161639,0.031461487108573376,-7.045734840254933e-05,0.046143233478289726,0.007725261754474829,9.795370597771916
0.224,0,4,1,5.300926516525713,38.244690944619975,-1.7513794913154621,6.01670505366503,160,9,1,5,-4,3,0.372,6.28,5.64470505366503,-0.035492518600491824,0.03407782789510324,-7.01303344406868e-05,-0.01629741159057518,0.009535744023591987,9.816873386270496
0.256,0,4,1,5.885987833028316,44.13067877764829,0.5850613165026024,5.985115547032081,160,9,1,4,0,-1,0.291,6.276115547032082,5.694115547032081,-0.03824807756990774,0.036716735728749415,-6.848752739486812e-05,0.0058046815381297395,-0.0058352669254782006,9.791386235480779
0.28800000000000003,0,4,1,6.469819985173149,50.60049876282144,0.5838321521448329,5.955925168589197,160,9,1,2,2,-2,0.147,6.102925168589198,5.808925168589197,-0.04099288414201303,0.039388748379221225,-6.762086536971079e-05,0.0038672574319504106,-0.02618072201938564,9.789425837797445
0.32,0,4,1,7.0523060078411755,57.65280477066261,0.5824860226680268,5.926802213585273,160,9,1,1,3,-1,0.08850000000000001,6.015302213585273,5.838302213585274,-0.04370443058101042,0.042068247300850986,-6.707804792936006e-05,-0.027729243185911204,-0.024015982916382118,9.775653248218772
0.352,0,4,1,7.6333305872312645,65.28613535789388,0.581024579390089,5.897752446059046,160,9,1,1,4,0,0.105,6.002752446059047,5.792752446059046,-0.04639247149569894,0.044744802557838574,-6.671041968239408e-05,-0.02886021532166574,-0.010975450508425504,9.85962929515641
0.384,0,4,1,5.885987833028316,71.17212319092219,-1.7473427542029487,5.987447951102787,160,9,1,4,8,3,0.387,6.28,5.600447951102787,-0.04906139082503807,0.04741407280466828,-6.64332998311784e-05,-0.02978184891852324,-0.006006432782070993,9.803539963435405
0.41600000000000004,0,4,1,6.469819985173149,77.64194317609534,0.5838321521448329,5.955925168589197,160,9,1,2,10,-2,0.207,6.162925168589197,5.7489251685891976,-0.051743071876756835,0.050109331119166066,-6.632447633888802e-05,0.020345775065640972,-0.007907454811313525,9.878168836980043
0.448,0,4,1,7.0523060078411755,84.69424918393652,0.5824860226680268,5.926802213585273,160,9,1,1,11,-1,0.14849999999999997,6.075302213585274,5.778302213585273,-0.054409459727332354,0.052833740045768476,-6.627287805917662e-05,0.010701621626342637,-0.030853650478670842,9.752592340149828
0.48,0,4,1,6.469819985173149,91.16406916910967,-0.5824860226680268,5.957091486764011,160,9,1,2,13,1,0.2565,6.2135914867640105,5.700591486764011,-0.0570493638792069,0.05555758280426315,-6.624357753381473e-05,-0.01430758986835063,-0.019949044364051642,9.735785062367336
0.512,0,4,1,6.469819985173149,97.63388915428281,0.0,5.956509000741343,160,9,1,2,15,0,0.26249999999999996,6.219009000741343,5.694009000741342,-0.05969361128773629,0.058304377850954485,-6.630572282037041e-05,0.029787100570719982,-0.015582788617897228,9.744559965474444
0.544,0,4,1,7.0523060078411755,104.686195162124,0.5824860226680268,5.926802213585273,160,9,1,0,15,-2,0.09449999999999999,6.021302213585273,5.832302213585273,-0.062321153900980274,0.06106666127546763,-6.638539181070754e-05,0.016161657538922212,-0.02679135623166263,9.852035275364132
0.5760000000000001,0,4,1,7.0523060078411755,111.73850116996518,0.0,5.927384699607941,160,9,1,2,17,2,0.2955,6.222884699607941,5.631884699607942,-0.06491868356257424,0.06383046130183849,-6.633026984852186e-05,-0.004913640336952316,-0.027872563826887322,9.814170065307634
0.608,0,4,1,7.0523060078411755,118.79080717780636,0.0,5.927384699607941,160,9,1,1,18,-1,0.201,6.128384699607941,5.726384699607942,-0.06751135708240087,0.06659988112487125,-6.646243337827921e-05,0.011748131311721432,-0.01394248959891708,9.845331029600894
0.64,0,4,1,7.6333305872312645,126.42413776503763,0.581024579390089,5.897752446059046,160,9,1,0,18,-1,0.126,6.023752446059047,5.771752446059046,-0.07008513317912758,0.06938662801939201,-6.64825439452843e-05,0.00691201643128087,-0.032751327222573824,9.802356567191376
0.672,0,4,1,7.0523060078411755,133.4764437728788,-0.581024579390089,5.927965724187332,160,9,1,2,20,2,0.318,6.245965724187331,5.609965724187332,-0.07263352474398549,0.0721706055834124,-6.640857286147571e-05,-0.020205814871629185,-0.02470258345671125,9.789151589285265
0.704,0,4,1,7.6333305872312645,141.10977436011007,0.581024579390089,5.897752446059046,160,9,1,0,20,-2,0.132,6.029752446059046,5.765752446059047,-0.07518787130850313,0.07497586177203817,-6.64968573118891e-05,0.013323415625710638,-0.01874556110881157,9.826624285601751
0.736,0,4,1,6.469819985173149,147.57959434528323,-1.1635106020581159,5.957672511343401,160,9,1,2,22,2,0.33299999999999996,6.28,5.624672511343401,-0.07770850272712854,0.07778508672800911,-6.634663436573367e-05,-0.024718344955477062,-0.036803213666681156,9.793584434626668
0.768,0,4,1,8.212780189285867,155.7923745345691,1.7429602041127188,5.867618030331594,160,9,1,-1,21,-3,0.05550000000000001,5.923118030331595,5.812118030331594,-0.08024478172262071,0.08062772938833945,-6.643552373538156e-05,0.036263791296640556,-0.0201143886980851,9.824043960178223
0.8,0,4,1,7.0523060078411755,162.84468054241026,-1.160474181444692,5.928545173789386,160,9,1,2,23,3,0.34950000000000003,6.278045173789386,5.579045173789386,-0.08272331439128937,0.0834491690733053,-6.624479968733374e-05,-0.054378199277134116,-0.03865594082969133,9.872214861562579
0.8320000000000001,0,4,1,8.790543182813987,171.63522372522425,1.738237174972812,5.838734603684328,160,9,1,-1,22,-3,0.06299999999999999,5.901734603684328,5.775734603684328,-0.0852252944859709,0.08630188138442237,-6.634830890847425e-05,0.04057752197459685,-0.01299282962306025,9.84182475797437
0.864,0,4,1,7.6333305872312645,179.2685543124555,-1.157212595582723,5.89949068323402,160,9,1,2,24,3,0.357,6.25649068323402,5.5424906832340195,-0.08766620044419883,0.08913164927167151,-6.617027593092996e-05,-0.061068403056594674,-0.04077744807302348,9.818330272886364
0.896,0,4,1,8.790543182813987,188.0590974952695,1.157212595582723,5.8393156282637175,160,9,1,-1,23,-3,0.0705,5.9098156282637175,5.7688156282637175,-0.09012968152957726,0.09199324105100708,-6.628461551491487e-05,0.03339097163925213,-0.013802828615848948,9.79796816299572
0.928,0,4,1,7.6333305872312645,195.69242808250075,-1.157212595582723,5.89949068323402,160,9,1,2,25,3,0.36450000000000005,6.26399068323402,5.534990683234019,-0.09254409957582714,0.09484540812412084,-6.612157902966508e-05,-0.05016977880384408,-0.04103353542748224,9.80357922040853
0.96,0,4,1,9.36650995701213,205.0589380395129,1.7331793697808662,5.809941322779613,160,9,1,-2,23,-4,-0.013500000000000005,5.796441322779613,5.823441322779613,-0.09498003707399483,0.09773053946460418,-6.625806337074228e-05,0.02770268823222864,-0.014918181558170653,9.804538472094446
0.992,0,4,1,8.212780189285867,213.27171822879876,-1.1537297677262632,5.870514720303434,160,9,1,2,25,4,0.3735,6.244014720303434,5.497014720303434,-0.09735457305988676,0.1005921222340239,-6.600612220612583e-05,-0.06519181652104544,-0.041665134211178255,9.81515390858606
1.024,0,4,1,8.212780189285867,221.48449841808463,0.0,5.869360990535707,160,9,1,2,27,0,0.3525,6.221860990535707,5.516860990535707,-0.0997562070488962,0.1034817778023836,-6.618178315010922e-05,0.037587080617527455,-0.007240638844762155,9.865615864746593
1.056,0,4,1,7.6333305872312645,229.11782900531588,-0.5794496020546029,5.898912920240491,160,9,1,1,28,-1,0.27599999999999997,6.174912920240491,5.622912920240491,-0.10213201269744243,0.10639203762779557,-6.631713338590799e-05,0.008381462406518884,-0.04250719912811364,9.765204935843787
1.088,0,4,1,8.790543182813987,237.90837218812987,1.157212595582723,5.8393156282637175,160,9,1,-1,27,-2,0.1095,5.948815628263717,5.729815628263718,-0.10449551398647132,0.1093364584425194,-6.63846027266126e-05,0.026358337148376994,-0.04036787958435082,9.85623117204663
1.12,0,4,1,8.212780189285867,246.12115237741574,-0.5777629935281201,5.869938753529235,160,9,1,1,28,2,0.303,6.172938753529235,5.566938753529235,-0.1068163223160418,0.11226615330221947,-6.639118164938548e-05,-0.038312850406639086,-0.03421683079009127,9.833455387143555
1.1520000000000001,0,4,1,7.6333305872312645,253.754482964647,-0.5794496020546029,5.898912920240491,160,9,1,2,30,1,0.384,6.28,5.514912920240491,-0.10914295572537283,0.11521589397592619,-6.656870747063885e-05,0.012490801214009735,-0.018158460649424075,9.846020962960104
1.184,0,4,1,9.36650995701213,263.12099292165914,1.7331793697808662,5.809941322779613,160,9,1,-2,28,-4,0.024,5.833941322779613,5.785941322779613,-0.111459992193473,0.11819585615838311,-6.6803534027585e-05,0.011887176913841236,-0.03637233635830656,9.84161242972554
1.216,0,4,1,9.36650995701213,272.48750287867125,0.0,5.811674502149394,160,9,1,0,28,2,0.22799999999999998,6.039674502149394,5.583674502149394,-0.1137158148303457,0.12115216488377353,-6.662484399688577e-05,-0.06031691468878912,-0.04448213950298352,9.814647925157624
1.248,0,4,1,8.790543182813987,281.2780460614852,-0.5759667741981431,5.8410488076334985,160,9,1,1,29,1,0.3015,6.142548807633498,5.539548807633499,-0.1159722944024293,0.12410873577277444,-6.67002784380654e-05,-0.004301897930457284,-0.01082183746413775,9.80184791763101
1.28,0,4,1,8.790543182813987,290.0685892442992,0.0,5.8404728408593005,160,9,1,1,30,0,0.3,6.1404728408593,5.540472840859301,-0.1182251080112444,0.12709187041688258,-6.681420881122016e-05,0.018257029682802427,-0.029834177495763902,9.793582961941942
1.312,0,4,1,9.940573033112985,300.00916227741214,1.1500298502989974,5.7818213184940515,160,9,1,0,30,-1,0.21599999999999997,5.997821318494052,5.565821318494051,-0.12045702904354322,0.13009030100264937,-6.689343478002638e-05,0.0037703154850846775,-0.03685742541918839,9.809411450898462
1.344,0,4,1,8.790543182813987,308.7997054602261,-1.1500298502989974,5.8416228707096,160,9,1,2,32,2,0.40800000000000003,6.2496228707096,5.433622870709599,-0.12264593535107635,0.13307436329163305,-6.68796380900779e-05,-0.035749243241018025,-0.03694048139776948,9.770142922339597
1.3760000000000001,0,4,1,10.512627169921368,319.31233263014747,1.7220839871073803,5.752646557516825,160,9,1,-2,30,-4,0.038999999999999986,5.791646557516825,5.713646557516825,-0.12484318609857194,0.13609958386170318,-6.706272506921442e-05,0.041446924241192395,-0.02816876453925362,9.756276247271419
1.408,0,4,1,10.512627169921368,329.8249598000688,0.0,5.754368641503932,160,9,1,0,30,2,0.24299999999999997,5.9973686415039325,5.511368641503932,-0.1269780902787639,0.13909959513590905,-6.68619193562401e-05,-0.05947218591403677,-0.04693566563073272,9.81196869189055
1.44,0,4,1,11.650299437537637,341.47525923760645,1.137672267616269,5.696347355855502,160,9,1,-1,29,-1,0.1335,5.8298473558555015,5.562847355855502,-0.12911254191033367,0.14210055041358657,-6.684728201524978e-05,-0.003541226790201444,-0.012608001746487555,9.8424308378503
1.472,0,4,1,11.08256946302967,352.5578287006361,-0.5677299745079676,5.726439256823024,160,9,1,1,30,2,0.318,6.044439256823024,5.408439256823025,-0.13120911078736935,0.14508342472571906,-6.669725550960057e-05,-0.03978301918609864,-0.031678466661659355,9.808645734451536
1.504,0,4,1,11.08256946302967,363.64039816366574,0.0,5.7258715268485165,160,9,1,1,31,0,0.3075,6.033371526848517,5.418371526848516,-0.13330861697606547,0.1480872412649104,-6.675505605316205e-05,0.018145335356463923,-0.02074051466304708,9.809990079367854
1.536,0,4,1,11.08256946302967,374.7229676266954,0.0,5.7258715268485165,160,9,1,1,32,0,0.315,6.040871526848517,5.410871526848516,-0.13538589646104765,0.1511061880569879,-6.677581120170806e-05,0.0033673542471044635,-0.037679135004170375,9.808353312594157
1.568,0,4,1,11.08256946302967,385.805537089725,0.0,5.7258715268485165,160,9,1,1,33,0,0.3225,6.048371526848516,5.403371526848517,-0.13744175939577097,0.15413991195076865,-6.681302039917257e-05,0.006950532545413398,-0.0367454508061496,9.816613784985384
1.6,0,4,1,11.650299437537637,397.45583652726265,0.5677299745079676,5.696917298148611,160,9,1,1,34,0,0.33,6.026917298148611,5.366917298148611,-0.1394755501946724,0.15718859258047474,-6.687693271693884e-05,0.006430805187009542,-0.03704398909494652,9.799559740811793
1.6320000000000001,0,4,1,11.08256946302967,408.5384059902923,-0.5677299745079676,5.726439256823024,160,9,1,1,35,0,0.3375,6.063939256823025,5.388939256823024,-0.14147647934306656,0.16023688252326998,-6.700192214486277e-05,-0.01643532539393584,-0.037959576266683066,9.778469713703787
1.6640000000000001,0,4,1,11.650299437537637,420.1887054278299,0.5677299745079676,5.696917298148611,160,9,1,0,35,-1,0.2535,5.9504172981486105,5.443417298148611,-0.14346454747184287,0.1633161289425643,-6.716635719155283e-05,0.018715798869174544,-0.038342209507956936,9.828296383908317
1.696,0,4,1,11.650299437537637,431.83900486536754,0.0,5.697485028123118,160,9,1,1,36,1,0.35400000000000004,6.0514850281231185,5.343485028123118,-0.14541844109814958,0.1663944029713066,-6.72574834211688e-05,-0.024049534203980545,-0.039623434734911124,9.807068264681519
1.728,0,4,1,11.650299437537637,443.48930430290517,0.0,5.697485028123118,160,9,1,1,37,0,0.3525,6.0499850281231184,5.344985028123118,-0.14735519942059022,0.16948420107923537,-6.744803912252066e-05,-0.004058986914919088,-0.03228026402141794,9.857295063010962
1.76,0,4,1,11.650299437537637,455.1396037404428,0.0,5.697485028123118,160,9,1,1,38,0,0.36,6.057485028123119,5.337485028123118,-0.14926685621241417,0.17258959164630094,-6.766232430926479e-05,-0.0038417106495252165,-0.04105211799600059,9.834412495786575
1.792,0,4,1,11.08256946302967,466.22217320347244,-0.5677299745079676,5.726439256823024,160,9,1,1,39,0,0.3675,6.093939256823024,5.3589392568230245,-0.15115344589883162,0.1757102851471391,-6.788702441618e-05,-0.00319095730723721,-0.041288504130108594,9.791761473977312
1.824,0,4,1,11.650299437537637,477.87247264101006,0.5677299745079676,5.696917298148611,160,9,1,0,39,-1,0.2835,5.980417298148611,5.413417298148611,-0.15302379605636812,0.17886229997184222,-6.812625779938769e-05,0.019049180249493397,-0.042087375014348775,9.817202116980575
1.856,0,4,1,11.650299437537637,489.5227720785477,0.0,5.697485028123118,160,9,1,1,40,1,0.384,6.081485028123119,5.313485028123118,-0.15485795196004848,0.18201316895894706,-6.824648835134645e-05,-0.018089416172899473,-0.04347517258212725,9.803721495313813
1.8880000000000001,0,4,1,11.650299437537637,501.1730715160853,0.0,5.697485028123118,160,9,1,0,40,-1,0.291,5.988485028123119,5.406485028123118,-0.1566724801633219,0.1851761319658553,-6.848631911369682e-05,0.0010485997025534606,-0.03638270114704543,9.777685996562512
1.92,0,4,1,12.215719134130879,513.3887906502162,0.5654196965932421,5.668648623596863,160,9,1,0,40,0,0.3,5.968648623596863,5.368648623596863,-0.15845916718037012,0.1883544016078177,-6.85703682638851e-05,-0.0008246687934929029,-0.04501212829867099,9.815208934230345
1.952,0,4,1,12.778733188406045,526.1675238386222,0.5630140542751665,5.640500326525423,160,9,1,0,40,0,0.3,5.940500326525423,5.340500326525423,-0.16021630865690684,0.19152792004051783,-6.863442781811398e-05,-0.023431719375147514,-0.03764972591987115,9.806986170542965
1.984,0,4,1,13.897176315015338,540.0647001536375,1.118443126609293,5.584022741122624,160,9,1,-1,39,-1,0.20849999999999996,5.792522741122624,5.375522741122624,-0.1619435977070491,0.19469718576872871,-6.861949631966138e-05,-0.022055225286887033,-0.038504092421744074,9.818246016527171
2.016,0,4,1,13.897176315015338,553.9618764686529,0.0,5.585141184249233,160,9,1,0,39,1,0.3015,5.886641184249233,5.283641184249233,-0.1636324226110044,0.19784752948078113,-6.84491422661155e-05,-0.0378984403935988,-0.03926432446340446,9.813684684972662
2.048,0,4,1,15.004920382860202,568.9667968515131,1.1077440678448642,5.528646236789145,160,9,1,-1,38,-1,0.20099999999999996,5.7296462367891445,5.327646236789145,-0.1653076878398682,0.2010043968426314,-6.840274371522174e-05,-0.003647395335290552,-0.02930184650582884,9.743566264715588
2.08,0,4,1,15.004920382860202,583.9717172343733,0.0,5.52975398085699,160,9,1,1,39,2,0.3855,5.91525398085699,5.144253980856989,-0.1669447776783535,0.20414199582902162,-6.815011793072367e-05,-0.03657518315508819,-0.03915942880874957,9.803687627160839
2.112,0,4,1,14.452428251092973,598.4241454854663,-0.5524921317672291,5.557931079577119,160,9,1,2,41,1,0.4665,6.024431079577119,5.091431079577119,-0.1685688902273933,0.20728603237678442,-6.814599155571983e-05,-0.0028362235175469846,-0.028452428931009088,9.786041514960136
2.144,0,4,1,15.004920382860202,613.4290658683265,0.5524921317672291,5.5292014887252225,160,9,1,1,42,-1,0.381,5.910201488725223,5.148201488725222,-0.1701734260301299,0.21046095984786142,-6.822808328280777e-05,0.019830502047212636,-0.044574738399533576,9.759902567189515
2.176,0,4,1,15.554571270074414,628.9836371384009,0.5496508872142112,5.501721785609066,160,9,1,0,42,-1,0.306,5.807721785609066,5.195721785609066,-0.17173523378283617,0.2136366344463941,-6.825097942558117e-05,-0.016498236570074147,-0.051841241563009066,9.789786348546915
2.208,0,4,1,15.554571270074414,644.5382084084754,0.0,5.5022714364962795,160,9,1,1,43,1,0.40650000000000003,5.90877143649628,5.095771436496279,-0.17326148357736876,0.21680967610162852,-6.824844243331733e-05,-0.020320182918446943,-0.04413738107119327,9.810770959627163
2.24,0,4,1,15.004920382860202,659.5431287913356,-0.5496508872142112,5.530303631744204,160,9,1,2,45,1,0.49649999999999994,6.026803631744204,5.033803631744203,-0.17476612921931234,0.21999379452361603,-6.839974744685465e-05,-0.001835969477197978,-0.03763369347095211,9.807885165798334
2.2720000000000002,0,4,1,15.554571270074414,675.09770006141,0.5496508872142112,5.501721785609066,160,9,1,0,45,-2,0.31949999999999995,5.821221785609065,5.182221785609066,-0.1762486563941659,0.22320856598273053,-6.872815337534942e-05,0.01956082126482552,-0.045831461329031827,9.791806168140962
2.3040000000000003,0,4,1,15.554571270074414,690.6522713314845,0.0,5.5022714364962795,160,9,1,1,46,1,0.429,5.93127143649628,5.073271436496279,-0.17768634190119004,0.22642271114252274,-6.88643192180826e-05,-0.01770250417275064,-0.05369467508199787,9.783326532469792
2.336,0,4,1,16.10130239915845,706.753573730643,0.5467311290840353,5.474388148912993,160,9,1,1,47,0,0.4275,5.9018881489129935,5.046888148912993,-0.17910123101833625,0.22964772401634997,-6.918143968305014e-05,0.0007076577487316413,-0.039048385904165456,9.78200252778057
2.368,0,4,1,15.554571270074414,722.3081450007174,-0.5467311290840353,5.502818167625364,160,9,1,2,49,1,0.5265,6.029318167625364,4.976318167625363,-0.18047742380445703,0.23286993934493413,-6.949580900084129e-05,-0.022214865373215573,-0.048396123433301366,9.781415579182827
2.4,0,4,1,16.645038214675964,738.9531832153934,1.09046694460155,5.4466576223216006,160,9,1,-1,48,-3,0.258,5.704657622321601,5.1886576223216005,-0.18182935402569964,0.23612264938324012,-6.995694317683647e-05,0.015040188956931539,-0.047892469769116104,9.81878347907141
2.432,0,4,1,16.645038214675964,755.5982214300694,0.0,5.447748089266202,160,9,1,1,49,2,0.4605,5.908248089266202,4.9872480892662026,-0.18312782308694214,0.23935939491134112,-6.99836267617094e-05,-0.03631203303050259,-0.057925912339101264,9.789189120356548
2.464,0,4,1,17.72323661688633,773.3214580469557,1.078198402210365,5.392759970753473,160,9,1,-1,48,-2,0.26699999999999996,5.659759970753473,5.125759970753473,-0.18440876606710221,0.24260200589548916,-7.034312148600924e-05,-0.0024367369544405788,-0.033767523583109575,9.855921267436106
2.496,0,4,1,17.72323661688633,791.044694663842,0.0,5.393838169155684,160,9,1,2,50,3,0.552,5.945838169155683,4.841838169155684,-0.18564274426261682,0.24582690380233113,-7.030070354797219e-05,-0.03371366064678158,-0.0526891532491853,9.827812086406416
2.528,0,4,1,18.788621982168497,809.8333166460105,1.065385365282168,5.339503515526293,160,9,1,-1,49,-3,0.26549999999999996,5.605003515526294,5.074003515526293,-0.1868586568687402,0.24905777559236647,-7.031580954897781e-05,-0.0013377895725964085,-0.03478142584475946,9.801911256251712
2.56,0,4,1,17.72323661688633,827.5565532628968,-1.065385365282168,5.394903554520966,160,9,1,2,51,3,0.5595,5.954403554520966,4.835403554520966,-0.18802123199830317,0.2522694773057979,-7.004334065923573e-05,-0.036080428152560226,-0.05907450093891185,9.851694322720924
2.592,0,4,1,17.72323661688633,845.2797898797832,0.0,5.393838169155684,160,9,1,0,51,-2,0.3645,5.758338169155683,5.029338169155684,-0.18917760803599562,0.25552282320695086,-7.012517480958942e-05,0.03609550885063223,-0.035107801237815546,9.817806337484607
2.624,0,4,1,17.72323661688633,863.0030264966695,0.0,5.393838169155684,160,9,1,0,51,0,0.3825,5.776338169155684,5.0113381691556835,-0.19029151559467897,0.25878908072937173,-7.000233051978645e-05,-0.0016018331532950349,-0.059361956888317996,9.798124240922544
2.656,0,4,1,17.185706144224778,880.1887326408943,-0.5375304726615511,5.4212522232614235,160,9,1,2,53,2,0.5655,5.986752223261424,4.855752223261423,-0.19137872364747804,0.26206426035897523,-6.991344746949506e-05,-8.801495481351744e-05,-0.04372240673087783,9.819529200878561
2.688,0,4,1,16.645038214675964,896.8337708555703,-0.5406679295488139,5.448288757195751,160,9,1,3,56,1,0.654,6.102288757195751,4.794288757195751,-0.19244331173370033,0.26536647817929465,-7.003645059031581e-05,0.01835987081683325,-0.04509797784609344,9.83310924271156
2.72,0,4,1,18.788621982168497,915.6223928377387,2.143583767492533,5.338425317124083,160,9,1,-2,54,-5,0.21000000000000002,5.548425317124083,5.1284253171240834,-0.19346992115750175,0.26869976508893473,-7.025789617836307e-05,0.018453448923595187,-0.06011044911056773,9.793892699740935
2.7520000000000002,0,4,1,19.316352819504157,934.9387456572429,0.5277308373356604,5.313654628187457,160,9,1,1,55,3,0.5145,5.828154628187457,4.799154628187457,-0.19442538280280866,0.27197743589246,-6.998187860401267e-05,-0.07197555302902052,-0.06772128735409938,9.789145864451998
2.7840000000000003,0,4,1,18.788621982168497,953.7273676394113,-0.5277308373356604,5.341096631728911,160,9,1,2,57,1,0.5865,5.927596631728911,4.754596631728911,-0.1953624502581414,0.2752460619159434,-7.007818547401928e-05,-0.013484309228545873,-0.03157601664055378,9.83932713882195
2.816,0,4,1,18.788621982168497,972.5159896215798,0.0,5.340568900891576,160,9,1,2,59,0,0.5925,5.933068900891576,4.7480689008915755,-0.19626581567974127,0.27854277821341117,-7.025653026798521e-05,0.018105839267977545,-0.055750898547714735,9.769717634213968
2.848,0,4,1,19.316352819504157,991.8323424410839,0.5277308373356604,5.313654628187457,160,9,1,0,59,-2,0.4245,5.738154628187457,4.889154628187457,-0.1971244858951637,0.2818511549540061,-7.043983046748151e-05,0.0004337094920911687,-0.061868137047332294,9.804046455359554
2.88,0,4,1,21.39289035198143,1013.2252327930654,2.0765375324772712,5.208278944868452,160,9,1,-2,57,-2,0.25949999999999995,5.467778944868452,4.948778944868452,-0.19793363270284126,0.2851524559274065,-7.040714554644618e-05,-0.017986868716896483,-0.0624841982696924,9.7918390354119
2.912,0,4,1,21.90317808183915,1035.1284108749046,0.5102877298577226,5.184330808178185,160,9,1,-1,56,1,0.354,5.538330808178185,4.830330808178185,-0.19869550862818264,0.2883935726717964,-7.016343721836377e-05,-0.06780778367415394,-0.049127114673979476,9.805798289745667
2.944,0,4,1,21.90317808183915,1057.0315889567437,0.0,5.184841095908043,160,9,1,0,56,1,0.429,5.613841095908043,4.755841095908043,-0.19943625056798372,0.2916243733957033,-7.004756631823379e-05,-0.014455553172183607,-0.0353680627187686,9.827643133719945
2.976,0,4,1,22.409837371493268,1079.441426328237,0.5066592896541167,5.1590014721356825,160,9,1,1,57,1,0.5115,5.670501472135682,4.647501472135683,-0.20015191986103062,0.2948615619265185,-7.003654443278086e-05,0.0009232202768442283,-0.042493836818459724,9.836870961448582
3.008,0,4,1,22.91282839677165,1102.3542547250086,0.5029910252783836,5.133855589136139,160,9,1,0,57,-1,0.4185,5.5523555891361385,4.715355589136139,-0.20083288345215408,0.29809005452061915,-7.013825981330886e-05,-0.015096783592844512,-0.04865171918929439,9.813004010115069
3.04,0,4,1,22.91282839677165,1125.2670831217802,0.0,5.134358580161417,160,9,1,1,58,1,0.519,5.6533585801614175,4.615358580161417,-0.20147281658977081,0.30130965408683175,-7.013094098780141e-05,-0.01611169884300121,-0.054981470168875904,9.791468678046726
3.072,0,4,1,22.409837371493268,1147.6769204932734,-0.5029910252783836,5.160011122450616,160,9,1,3,61,2,0.7004999999999999,5.860511122450616,4.459511122450616,-0.20208237999642467,0.30453649322543175,-7.024554265764454e-05,0.0016531028195751077,-0.04753619925642696,9.859948257635715
3.104,0,4,1,22.91282839677165,1170.589748890045,0.5029910252783836,5.133855589136139,160,9,1,1,62,-2,0.5219999999999999,5.655855589136139,4.611855589136138,-0.20265643934885963,0.3077885419941479,-7.056364549085092e-05,0.0187098302095745,-0.05496090354790198,9.744675782003178
3.136,0,4,1,22.91282839677165,1193.5025772868166,0.0,5.134358580161417,160,9,1,2,64,1,0.639,5.773358580161418,4.495358580161417,-0.20317453526770163,0.311031308425157,-7.067898763727862e-05,-0.017214349123809983,-0.06937975141631297,9.763098431200076
3.168,0,4,1,22.409837371493268,1215.91241465831,-0.5029910252783836,5.160011122450616,160,9,1,2,66,0,0.645,5.805011122450615,4.515011122450616,-0.20365383149672264,0.31428171230161595,-7.093807401110236e-05,0.0022578720995169465,-0.055013944525570034,9.788983511373507
3.2,0,4,1,22.91282839677165,1238.8252430550815,0.5029910252783836,5.133855589136139,160,9,1,0,66,-2,0.477,5.610855589136139,4.656855589136138,-0.20408723928133496,0.317554836924951,-7.119662030062937e-05,0.01657768551759334,-0.064327451620969,9.8044261528792
3.232,0,4,1,22.91282839677165,1261.738071451853,0.0,5.134358580161417,160,9,1,1,67,1,0.5864999999999999,5.720858580161417,4.547858580161417,-0.20446970432745168,0.32081410343114647,-7.123275134963448e-05,-0.018992493415731015,-0.06475081306066068,9.832846851398223
3.2640000000000002,0,4,1,23.41211416930267,1285.1501856211557,0.49928577253101736,5.108895005762335,160,9,1,0,67,-1,0.49349999999999994,5.602395005762335,4.615395005762335,-0.20481692648398028,0.3240786605692305,-7.139351061482939e-05,0.0018275637863035834,-0.05217933623065748,9.783236336808418
3.2960000000000003,0,4,1,23.41211416930267,1308.5622997904584,0.0,5.1093942915348665,160,9,1,1,68,1,0.594,5.703394291534867,4.515394291534866,-0.20511861221801278,0.32732812947468143,-7.140344835454733e-05,-0.018380874123070528,-0.06055482997852275,9.815591186527975
3.3280000000000003,0,4,1,23.90766049417249,1332.4699602846308,0.49554632486982086,5.0841214289665055,160,9,1,0,68,-1,0.501,5.585121428966506,4.583121428966505,-0.2053833822209651,0.3305883277608397,-7.153252212809165e-05,0.007936193541285422,-0.054644486725197665,9.814487760306156
3.36,0,4,1,24.399435924175126,1356.869396208806,0.4917754300026367,5.059536428361242,160,9,1,0,68,0,0.51,5.569536428361242,4.549536428361242,-0.20560303072997668,0.33383527600917823,-7.150877469930088e-05,-0.01557105964008997,-0.06139443669140196,9.78776363167383
3.392,0,4,1,24.887411710924507,1381.7568079197304,0.4879757867493808,5.035141438667025,160,9,1,0,68,0,0.51,5.545141438667025,4.525141438667025,-0.20578564542692807,0.33706860635356956,-7.14832066365835e-05,-0.014989517819910352,-0.05383623465584837,9.772394873854541
3.424,0,4,1,24.887411710924507,1406.6442196306548,0.0,5.0356294144537745,160,9,1,1,69,1,0.6014999999999999,5.637129414453774,4.434129414453775,-0.20593085130895816,0.3402881183130874,-7.144687632330143e-05,-0.014969547589943103,-0.05437919036372467,9.751175626536279
3.456,0,4,1,24.887411710924507,1431.5316313415792,0.0,5.0356294144537745,160,9,1,1,70,0,0.6,5.635629414453774,4.435629414453775,-0.20603970867186744,0.3435097091525835,-7.152940298995637e-05,0.00118179345589333,-0.053543170136201294,9.82773339771713
3.488,0,4,1,25.371561753095957,1456.903193094675,0.48415004217144997,5.010937762303031,160,9,1,1,71,0,0.6074999999999999,5.618437762303031,4.403437762303031,-0.20610470999424804,0.3467327011815483,-7.160071925414735e-05,0.0009216584808313572,-0.06171546209713536,9.834587794071057
3.52,0,4,1,25.371561753095957,1482.274754847771,0.0,5.011421912345202,160,9,1,1,72,0,0.615,5.626421912345203,4.396421912345202,-0.20612579696688835,0.34994065729414137,-7.168637900912753e-05,-0.014466276613629038,-0.061152648000433615,9.795130062458467
3.552,0,4,1,25.851862542060406,1508.1266173898314,0.48030078896444905,4.986926572108015,160,9,1,1,73,0,0.6224999999999999,5.609426572108014,4.364426572108015,-0.2061028246130714,0.3531490518214448,-7.178276408688344e-05,0.0011682395932820905,-0.061671413467465915,9.800778634363681
3.584,0,4,1,26.328293105170882,1534.4549104950022,0.47643056311047616,4.9631089141783455,160,9,1,0,73,-1,0.5385,5.5016089141783455,4.424608914178346,-0.2060360733439213,0.35634124965293035,-7.188784767177096e-05,-0.01444726661937047,-0.0617403070977273,9.803826403295998
3.616,0,4,1,25.851862542060406,1560.3067730370626,-0.47643056311047616,4.98788330346009,160,9,1,1,74,1,0.6389999999999999,5.62688330346009,4.34888330346009,-0.2059243725989765,0.3595166182538848,-7.187689381520437e-05,-0.014571436542160431,-0.06305406462647241,9.834548706687878
3.648,0,4,1,25.851862542060406,1586.158635579123,0.0,4.98740687289698,160,9,1,1,75,0,0.6375,5.62490687289698,4.349906872896979,-0.20577357891998513,0.36270650660068326,-7.20025285868963e-05,0.016367466619160755,-0.05575844491841042,9.832549781323943
3.68,0,4,1,25.851862542060406,1612.0104981211834,0.0,4.98740687289698,160,9,1,1,76,0,0.6449999999999999,5.632406872896979,4.34240687289698,-0.20557663007448382,0.365893689312583,-7.212099905714794e-05,0.0006179991363587733,-0.06374153115347372,9.791662429167054
3.712,0,4,1,26.328293105170882,1638.3387912263543,0.47643056311047616,4.9631089141783455,160,9,1,0,76,-1,0.5609999999999999,5.5241089141783455,4.402108914178346,-0.20533371752196553,0.3690777894972637,-7.224726907597255e-05,0.000894295238061116,-0.06354860150033124,9.816635208452594
3.744,0,4,1,26.800834946954605,1665.139626173309,0.47254184178372327,4.9394857108104855,160,9,1,1,77,1,0.6615,5.600985710810486,4.277985710810485,-0.20504559041887152,0.37224215886994283,-7.225087911112531e-05,-0.014726184213274632,-0.0646873017246162,9.837565674650603
3.7760000000000002,0,4,1,26.800834946954605,1691.9404611202635,0.0,4.93995825265227,160,9,1,2,79,1,0.7515000000000001,5.69145825265227,4.18845825265227,-0.20471953727512268,0.3753878814211551,-7.240091882169779e-05,-0.013917248952125181,-0.05768084604155598,9.822938623212478
3.8080000000000003,0,4,1,27.26947198845808,1719.2099331087215,0.46863704150347374,4.916057763535592,160,9,1,0,79,-2,0.5745,5.490557763535593,4.341557763535592,-0.20434643604016867,0.37852919341862434,-7.267523200906074e-05,0.0017255698008352518,-0.06470719450558947,9.793109812722554
3.84,0,4,1,27.26947198845808,1746.4794050971796,0.0,4.916526400577096,160,9,1,0,79,0,0.5925,5.509026400577096,4.324026400577096,-0.20392318648694838,0.3816479410326399,-7.268434994218455e-05,-0.014637089210047869,-0.07073900823208243,9.808907264719956
3.872,0,4,1,27.26947198845808,1773.7488770856376,0.0,4.916526400577096,160,9,1,1,80,1,0.6839999999999999,5.600526400577096,4.232526400577096,-0.2034600836155889,0.3847610832529151,-7.271403352174417e-05,0.0006943800198696894,-0.05830946347946483,9.815334354431926
3.904,0,4,1,27.734190504985406,1801.483067590623,0.4647185165273271,4.892825756234203,160,9,1,0,80,-1,0.591,5.483825756234203,4.301825756234202,-0.2029556714466341,0.38786806105956206,-7.28691919886365e-05,0.001006588161193676,-0.05990171802633024,9.805466575369067
3.936,0,4,1,27.734190504985406,1829.2172580956085,0.0,4.89329047475073,160,9,1,1,81,1,0.6914999999999999,5.584790474750729,4.20179047475073,-0.202406091379576,0.39095159150826664,-7.28725116315651e-05,-0.014411529261479665,-0.06675121936548364,9.791669444968877
3.968,0,4,1,28.194979062462156,1857.4122371580706,0.46078855747675007,4.869790258319416,160,9,1,0,81,-1,0.5984999999999999,5.468290258319415,4.271290258319416,-0.20181566108292254,0.39402818281912483,-7.301865758121452e-05,0.0013475643900702754,-0.059698849407397954,9.76542775381371
4.0,0,4,1,28.651828452648743,1886.0640656107194,0.4568493901865871,4.846951727977377,160,9,1,0,81,0,0.6074999999999999,5.454451727977377,4.239451727977377,-0.20118041206244347,0.3970801270228145,-7.301459427415218e-05,-0.014214688038476904,-0.06714801795393407,9.77884504283107
4.032,0,4,1,28.651828452648743,1914.715894063368,0.0,4.847408577367563,160,9,1,0,81,0,0.6074999999999999,5.454908577367563,4.239908577367563,-0.20050761834521616,0.40010892171491486,-7.302099648437248e-05,-0.013690449499893603,-0.05987812140654775,9.815529292114537
4.064,0,4,1,28.194979062462156,1942.9108731258302,-0.4568493901865871,4.870707896267079,160,9,1,2,83,2,0.7905,5.661207896267078,4.080207896267079,-0.1997937570941398,0.4031285149627705,-7.301677023751653e-05,0.0008911368323110167,-0.06053822140291514,9.809856356971881
4.096,0,4,1,28.194979062462156,1971.1058521882924,0.0,4.870251046876892,160,9,1,1,84,-1,0.696,5.566251046876892,4.1742510468768925,-0.19903485101360552,0.40615336010741526,-7.327665233005862e-05,0.01622268629622129,-0.060678407359956235,9.807466458548323
4.128,0,4,1,27.734190504985406,1998.8400426932778,-0.46078855747675007,4.893751263308206,160,9,1,1,85,0,0.7124999999999999,5.606251263308206,4.181251263308207,-0.19822154999374766,0.40916375788485354,-7.339049026169019e-05,0.000881658389427938,-0.07374876761461215,9.787646706756913
4.16,0,4,1,28.194979062462156,2027.03502175574,0.46078855747675007,4.869790258319416,160,9,1,0,85,-1,0.6285,5.4982902583194155,4.241290258319416,-0.19735678807651813,0.4121755151813731,-7.353287326562936e-05,0.015794136638344596,-0.06721854043932876,9.82435001654561
4.192,0,4,1,28.194979062462156,2055.2300008182024,0.0,4.870251046876892,160,9,1,0,85,0,0.6375,5.507751046876892,4.232751046876892,-0.19644821718348374,0.4151578230083218,-7.355207906334718e-05,-0.01461100460205761,-0.06904829938160835,9.81375742493627
4.224,0,4,1,28.651828452648743,2083.881829270851,0.4568493901865871,4.846951727977377,160,9,1,0,85,0,0.6375,5.484451727977377,4.209451727977377,-0.19549782329037282,0.41812714735260154,-7.357920111265154e-05,0.0008345679610203454,-0.0627654876842736,9.79336834086758
4.256,0,4,1,28.651828452648743,2112.5336577235,0.0,4.847408577367563,160,9,1,1,86,1,0.729,5.576408577367563,4.118408577367563,-0.19450993785164097,0.4210683011565842,-7.359792557853212e-05,-0.013929396736679957,-0.06300819722450432,9.816592287951273
4.288,0,4,1,28.651828452648743,2141.1854861761485,0.0,4.847408577367563,160,9,1,1,87,0,0.7274999999999999,5.574908577367563,4.119908577367563,-0.19347984817671166,0.4239956486333017,-7.374705787147051e-05,0.00151429408195828,-0.06321207492190069,9.839027035404024
4.32,0,4,1,28.651828452648743,2169.8373146287972,0.0,4.847408577367563,160,9,1,0,87,-1,0.6435,5.490908577367563,4.203908577367564,-0.19240151442645936,0.42690574193435493,-7.388230378780475e-05,0.0011973308572524983,-0.06977285000990348,9.856270115066263
4.352,0,4,1,28.651828452648743,2198.489143081446,0.0,4.847408577367563,160,9,1,1,88,1,0.7439999999999999,5.591408577367563,4.1034085773675635,-0.19127571361274548,0.4297973713300109,-7.388003890565487e-05,0.0005482820391486115,-0.06985799365690412,9.79112871243771
4.384,0,4,1,29.10473162741869,2227.593874708865,0.452903174769947,4.824310515454296,160,9,1,0,88,-1,0.6509999999999999,5.475310515454296,4.173310515454296,-0.19010810390069763,0.4326727736330861,-7.403268850407138e-05,0.001247928463271303,-0.06374382280288911,9.808742562682514
4.416,0,4,1,28.651828452648743,2256.2457031615136,-0.452903174769947,4.847861480542333,160,9,1,1,89,1,0.7515,5.599361480542333,4.096361480542333,-0.18889825719403652,0.4355141462826263,-7.40335894216862e-05,-0.013912799350627142,-0.07107797457568964,9.849836377602792
4.448,0,4,1,29.10473162741869,2285.3504347889325,0.452903174769947,4.824310515454296,160,9,1,0,89,-1,0.6585,5.482810515454296,4.165810515454296,-0.1876408124854479,0.43835169246111266,-7.418591767713485e-05,0.01606332603136827,-0.06349998004909936,9.836721081881839
4.48,0,4,1,29.55368363230744,2314.90411842124,0.4489520048887492,4.801866866379739,160,9,1,-1,88,-1,0.576,5.377866866379739,4.225866866379739,-0.18634185632703534,0.4411534053441551,-7.418502969339796e-05,-0.014157598520709285,-0.07127384503749878,9.712582948764892
4.5120000000000005,0,4,1,29.55368363230744,2344.4578020535478,0.0,4.802315818384628,160,9,1,0,88,1,0.6689999999999999,5.471315818384627,4.133315818384628,-0.1850084279879773,0.4439221785198934,-7.404829480580494e-05,-0.013966385197787503,-0.06464612586158833,9.882082354869173
4.5440000000000005,0,4,1,29.998681539528512,2374.4564835930764,0.44499790722107235,4.779620925116354,160,9,1,0,88,0,0.6599999999999999,5.439620925116354,4.119620925116354,-0.18363958198912128,0.44667418800288766,-7.405180240851669e-05,0.0011911679902514443,-0.05839965973328599,9.816463147435133
4.5760000000000005,0,4,1,29.998681539528512,2404.455165132605,0.0,4.7800659230235745,160,9,1,0,88,0,0.6599999999999999,5.440065923023575,4.120065923023574,-0.18223624652231943,0.4493924134833632,-7.40317575173375e-05,-0.013370233058229583,-0.0650035166351753,9.798406062508617
4.6080000000000005,0,4,1,29.998681539528512,2434.4538466721337,0.0,4.7800659230235745,160,9,1,0,88,0,0.6599999999999999,5.440065923023575,4.120065923023574,-0.18079272727694076,0.452089852930714,-7.40048267548997e-05,0.0011162330926629484,-0.0639570758126071,9.848584056431113
4.64,0,4,1,29.998681539528512,2464.4525282116624,0.0,4.7800659230235745,160,9,1,0,88,0,0.6599999999999999,5.440065923023575,4.120065923023574,-0.1793094185534054,0.45476564736378117,-7.397485135530318e-05,0.0008470537988033045,-0.06382044779542088,9.784136371964658
4.672,0,4,1,29.55368363230744,2494.00621184397,-0.44499790722107235,4.8027608162918485,160,9,1,1,89,1,0.7515,5.5542608162918485,4.051260816291848,-0.17778660704664545,0.4574191919582525,-7.394503791114185e-05,0.0008567063841551642,-0.06419031196617245,9.774415421970636
4.704,0,4,1,29.10473162741869,2523.110943471389,-0.4489520048887492,4.825212370633954,160,9,1,2,91,1,0.8415,5.666712370633954,3.9837123706339543,-0.17621681053843516,0.4600627659308934,-7.405547982920757e-05,0.015668028900636052,-0.0639261662846023,9.856824364531768
4.736,0,4,1,29.10473162741869,2552.215675098808,0.0,4.8247634186290655,160,9,1,1,92,-1,0.7559999999999999,5.580763418629066,4.068763418629065,-0.174593970774735,0.46269198327939504,-7.430810151634257e-05,0.016018644460781436,-0.07104619653445803,9.835604243141562
4.768,0,4,1,29.55368363230744,2581.7693587311155,0.4489520048887492,4.801866866379739,160,9,1,-1,91,-2,0.5895,5.391366866379739,4.212366866379739,-0.17292101804088966,0.46528915602077725,-7.444936284668746e-05,0.0009583575796827115,-0.07774441949595803,9.846850558224176
4.8,0,4,1,29.55368363230744,2611.323042363423,0.0,4.802315818384628,160,9,1,0,91,1,0.6915,5.493815818384627,4.110815818384628,-0.17121277960512166,0.4678442263782047,-7.434994076824068e-05,-0.014492145379968043,-0.07146546683900996,9.84203738312088
4.832,0,4,1,29.10473162741869,2640.427773990842,-0.4489520048887492,4.825212370633954,160,9,1,1,92,1,0.7739999999999999,5.599212370633954,4.051212370633954,-0.16947101309110582,0.4703770719573097,-7.441412569216162e-05,0.0011416418497311909,-0.0597982754137185,9.80145709425005
4.864,0,4,1,29.10473162741869,2669.532505618261,0.0,4.8247634186290655,160,9,1,1,93,0,0.7725,5.5972634186290655,4.052263418629066,-0.16768132334863678,0.47289477421259946,-7.459497761675218e-05,0.01570446344839304,-0.06647096869316471,9.79530752895521
4.896,0,4,1,29.998681539528512,2699.5311871577896,0.8939499121098216,4.779171973111465,160,9,1,-2,91,-3,0.5055,5.284671973111465,4.273671973111465,-0.16584778340410528,0.47538052154134813,-7.476397060029484e-05,0.0010290614941015632,-0.07286821350186287,9.807511540459837
4.928,0,4,1,29.55368363230744,2729.0848707900973,-0.44499790722107235,4.8027608162918485,160,9,1,1,92,3,0.7919999999999999,5.594760816291848,4.010760816291849,-0.16399015333523154,0.47780944774313056,-7.449623360186383e-05,-0.02945980374795125,-0.07268493299650738,9.802496543631186
4.96,0,4,1,28.651828452648743,2757.736699242746,-0.9018551796586962,4.848310432547222,160,9,1,1,93,0,0.7725,5.620810432547222,4.075810432547222,-0.16209560730647316,0.4802304914652712,-7.468755183419849e-05,0.01662831265804752,-0.053069286682250014,9.883143544418312
4.992,0,4,1,29.10473162741869,2786.841430870165,0.452903174769947,4.824310515454296,160,9,1,-1,92,-2,0.597,5.421310515454296,4.227310515454295,-0.16013944675842953,0.48263993577000486,-7.48174662625195e-05,0.0299952547100313,-0.07340542357918062,9.82638150583678
5.024,0,4,1,28.651828452648743,2815.4932593228136,-0.452903174769947,4.847861480542333,160,9,1,1,93,2,0.7905,5.638361480542333,4.057361480542333,-0.15815215718642173,0.4850023328807778,-7.465917144155489e-05,-0.015121682563653538,-0.07365446010074622,9.84033262539554
5.056,0,4,1,29.55368363230744,2845.0469429551213,0.9018551796586962,4.801413963204969,160,9,1,-1,92,-2,0.597,5.39841396320497,4.204413963204969,-0.15612315429836807,0.48735014897015233,-7.481091009733758e-05,0.01653776149859491,-0.05992662989159033,9.789475521066546
5.088,0,4,1,29.10473162741869,2874.15167458254,-0.4489520048887492,4.825212370633954,160,9,1,0,92,1,0.699,5.524212370633954,4.126212370633954,-0.15407304224475574,0.4896383629559692,-7.464098853143981e-05,-0.029090674142289257,-0.07476758527203967,9.78741355686566
5.12,0,4,1,29.55368363230744,2903.705358214848,0.4489520048887492,4.801866866379739,160,9,1,-1,91,-1,0.5985,5.4003668663797395,4.2033668663797386,-0.15198225564136758,0.491910676066191,-7.463208073363661e-05,0.015961132084452153,-0.05995394813097821,9.846829971868686
5.152,0,4,1,29.55368363230744,2933.2590418471555,0.0,4.802315818384628,160,9,1,0,91,1,0.6915,5.493815818384627,4.110815818384628,-0.14986683235579148,0.4941386162656697,-7.445196443671073e-05,-0.014307323491089369,-0.06784043560848414,9.806002228668516
5.184,0,4,1,28.651828452648743,2961.910870299804,-0.9018551796586962,4.848310432547222,160,9,1,1,92,1,0.7739999999999999,5.622310432547222,4.074310432547222,-0.1477214102451198,0.4963386615239853,-7.442022572515597e-05,0.0014502634334695832,-0.06043973555144287,9.814966774108239
5.216,0,4,1,29.10473162741869,2991.015601927223,0.452903174769947,4.824310515454296,160,9,1,0,92,-1,0.6809999999999999,5.505310515454296,4.143310515454296,-0.14552060134163106,0.49852620468884606,-7.450605110641793e-05,0.03041466855260442,-0.06719710343241743,9.84175251389059
5.248,0,4,1,28.651828452648743,3019.667430379872,-0.452903174769947,4.847861480542333,160,9,1,1,93,1,0.7815,5.629361480542333,4.066361480542333,-0.14329294709078938,0.5006638396106183,-7.44516857427175e-05,-0.014117713117733502,-0.07374597355914565,9.861827475078954
5.28,0,4,1,28.651828452648743,3048.3192588325205,0.0,4.847408577367563,160,9,1,0,93,-1,0.6885,5.535908577367564,4.158908577367563,-0.14102118782583795,0.5027776559337984,-7.456690679956586e-05,0.016413632207690286,-0.06674048856256926,9.863590384112644
5.312,0,4,1,28.194979062462156,3076.5142378949827,-0.4568493901865871,4.870707896267079,160,9,1,0,93,0,0.6975,5.5682078962670785,4.173207896267079,-0.13871283575103255,0.5048503321332825,-7.454302785394468e-05,0.0003979173308120155,-0.07362170199918067,9.762094318320393
5.344,0,4,1,29.10473162741869,3105.6189695224016,0.9097525649565341,4.823853666064109,160,9,1,-1,92,-1,0.606,5.429853666064109,4.2178536660641095,-0.13636149985681592,0.5068967327321715,-7.453968421166669e-05,0.015496161413695383,-0.06694391226109322,9.790970023737662
5.376,0,4,1,28.194979062462156,3133.8139485848637,-0.9097525649565341,4.871160799441848,160,9,1,1,93,2,0.7905,5.661660799441848,4.080660799441849,-0.13400187070526312,0.5088861188418252,-7.43967401283744e-05,-0.029082139304176736,-0.06830974404229807,9.832555664198019
5.408,0,4,1,28.194979062462156,3162.008927647326,0.0,4.870251046876892,160,9,1,0,93,-1,0.6885,5.558751046876893,4.181751046876892,-0.13159133937598108,0.5108632315072519,-7.454551897912581e-05,0.031453319219923864,-0.0607058594757834,9.811122482458403
5.44,0,4,1,27.734190504985406,3189.743118152311,-0.46078855747675007,4.893751263308206,160,9,1,1,94,1,0.7889999999999999,5.682751263308206,4.104751263308207,-0.12914656586348192,0.5127961175202169,-7.452131100138884e-05,0.00011253984700629583,-0.07509055283658572,9.79396346629635
5.472,0,4,1,27.26947198845808,3217.012590140769,-0.4647185165273271,4.916991119093623,160,9,1,0,94,-1,0.696,5.612991119093623,4.220991119093624,-0.12665961230850345,0.514700281535424,-7.466225247406387e-05,0.016259278230535853,-0.06726189154502592,9.805364749059946
5.5040000000000004,0,4,1,28.651828452648743,3245.664418593418,1.3823564641906643,4.846026220903372,160,9,1,-2,92,-2,0.5219999999999999,5.3680262209033724,4.324026220903372,-0.12412750614577954,0.516568160319961,-7.464634422994602e-05,0.015161916459957103,-0.07539372536362993,9.855309355999395
5.5360000000000005,0,4,1,29.55368363230744,3275.2181022257255,0.9018551796586962,4.801413963204969,160,9,1,-3,89,-1,0.4335,5.234913963204969,4.36791396320497,-0.12160481237427305,0.5183689416416701,-7.435279368205559e-05,-0.04522191237965305,-0.06912668289204478,9.829622530329317
5.5680000000000005,0,4,1,27.734190504985406,3302.9522927307107,-1.8194931273220334,4.895109967878052,160,9,1,3,92,6,0.9689999999999999,5.864109967878052,3.926109967878052,-0.11908621328697969,0.5201240052602125,-7.391427261222751e-05,-0.028652093021234858,-0.05530117052142541,9.851026687216564
5.6000000000000005,0,4,1,28.194979062462156,3331.147271793173,0.46078855747675007,4.869790258319416,160,9,1,-1,91,-4,0.5715,5.441290258319416,4.298290258319415,-0.11649867602913683,0.5218907397086355,-7.434123436123041e-05,0.06253915512803818,-0.04790842512120461,9.832521094899706
5.632,0,4,1,27.734190504985406,3358.881462298158,-0.46078855747675007,4.893751263308206,160,9,1,1,92,2,0.7829999999999999,5.676751263308207,4.110751263308206,-0.11388759054610376,0.5235897891743865,-7.411358552845797e-05,-0.01616443020371459,-0.08904705208209715,9.81933360645101
5.664,0,4,1,27.734190504985406,3386.6156528031433,0.0,4.89329047475073,160,9,1,0,92,-1,0.6809999999999999,5.57429047475073,4.21229047475073,-0.11124094337622858,0.5252641171753742,-7.425222683846329e-05,0.017081593438604697,-0.059436050276630285,9.849349095909549
5.696,0,4,1,28.194979062462156,3414.8106318656055,0.46078855747675007,4.869790258319416,160,9,1,-1,91,-1,0.5985,5.468290258319415,4.271290258319416,-0.1085656234755502,0.5268905670795869,-7.423607751070975e-05,0.00029766289196268044,-0.07513042030070502,9.777921549172738
5.728,0,4,1,27.734190504985406,3442.5448223705907,-0.46078855747675007,4.893751263308206,160,9,1,1,92,2,0.7829999999999999,5.676751263308207,4.110751263308206,-0.10587937083010569,0.5284677377472725,-7.410215333093773e-05,-0.01466963550806402,-0.06810503669256422,9.800120555959232
5.76,0,4,1,27.734190504985406,3470.279012875576,0.0,4.89329047475073,160,9,1,1,93,0,0.7725,5.66579047475073,4.12079047475073,-0.10315782520813589,0.530016814668724,-7.426454209745817e-05,0.016969595398832846,-0.06134963548968418,9.829754470975805
5.792,0,4,1,27.734190504985406,3498.013203380561,0.0,4.89329047475073,160,9,1,-1,92,-2,0.597,5.490290474750729,4.29629047475073,-0.10040915540038198,0.5315169282104494,-7.44069674884721e-05,0.0011083782791407545,-0.07497380854018268,9.817789854165897
5.824,0,4,1,26.800834946954605,3524.814038327516,-0.9333555580308008,4.9408916082103005,160,9,1,0,92,1,0.699,5.6398916082103,4.241891608210301,-0.09763598424166209,0.5329680369671218,-7.42688842076903e-05,-0.00045058611135822115,-0.07403864707091254,9.839208493851514
5.856,0,4,1,26.800834946954605,3551.6148732744705,0.0,4.93995825265227,160,9,1,-2,90,-2,0.5069999999999999,5.446958252652269,4.43295825265227,-0.09481615711151128,0.5343960366769355,-7.428775482984026e-05,0.03112753414689885,-0.061089249159989756,9.791356951709094
5.888,0,4,1,27.26947198845808,3578.8843452629285,0.46863704150347374,4.916057763535592,160,9,1,-1,89,1,0.6015,5.517557763535592,4.314557763535593,-0.09197647058495725,0.5357785893034461,-7.397612427953275e-05,-0.001569630297948043,-0.06936589998961375,9.835574004293681
5.92,0,4,1,26.800834946954605,3605.685180209883,-0.46863704150347374,4.940426889693773,160,9,1,1,90,2,0.7679999999999999,5.708426889693773,4.1724268896937735,-0.08913494244643921,0.537122884675065,-7.38187184849172e-05,-0.01391113438696809,-0.055484014306507415,9.767125109055913
5.952,0,4,1,27.26947198845808,3632.954652198341,0.46863704150347374,4.916057763535592,160,9,1,0,90,-1,0.6659999999999999,5.582057763535593,4.250057763535592,-0.08626010410790877,0.5384355999179647,-7.391661198677055e-05,0.017440347174939447,-0.061740747113064265,9.797108821403958
5.984,0,4,1,28.194979062462156,3661.1496312608033,0.9255070740040772,4.8693255398028885,160,9,1,-2,88,-2,0.4919999999999999,5.3613255398028885,4.3773255398028885,-0.08337749379028221,0.5396913024695694,-7.384926428623262e-05,-0.014586851197027743,-0.07542837197734543,9.748960402240932
6.016,0,4,1,27.734190504985406,3688.8838217657885,-0.46078855747675007,4.893751263308206,160,9,1,0,88,2,0.6779999999999999,5.571751263308206,4.215751263308206,-0.08050548525913881,0.5408914742940657,-7.352257337468922e-05,-0.03013698867762368,-0.06674867543416195,9.800289736435476
6.048,0,4,1,27.26947198845808,3716.1532937542465,-0.4647185165273271,4.916991119093623,160,9,1,1,89,1,0.7515,5.668491119093623,4.165491119093623,-0.07760482273250788,0.5420666190097867,-7.350082292196386e-05,0.017202639980602806,-0.053631017376556844,9.80316302107195
6.08,0,4,1,26.328293105170882,3742.4815868594173,-0.941178883287197,4.964526523624743,160,9,1,2,91,1,0.8415,5.806026523624743,4.123026523624743,-0.07467177930121563,0.5432025508576797,-7.359122067274355e-05,0.016347262140306563,-0.06737768843104111,9.80187996872824
6.112,0,4,1,25.851862542060406,3768.3334494014775,-0.47643056311047616,4.98788330346009,160,9,1,2,93,0,0.8475,5.83538330346009,4.14038330346009,-0.07168996135383011,0.5442986544547658,-7.382545472896587e-05,0.032291515610369706,-0.07280618853587179,9.796331038703478
6.144,0,4,1,26.328293105170882,3794.6617425066484,0.47643056311047616,4.9631089141783455,160,9,1,-1,92,-3,0.588,5.551108914178346,4.3751089141783455,-0.06867282154436546,0.5453417099652277,-7.409639610461531e-05,0.016674194736711407,-0.079661592724097,9.848637073180084
6.176,0,4,1,27.734190504985406,3822.3959330116336,1.405897399814524,4.891884577350916,160,9,1,-4,88,-3,0.33299999999999996,5.224884577350916,4.5588845773509155,-0.06565376108243273,0.546320288222136,-7.39913730774637e-05,-0.01707732710878494,-0.08153134907327271,9.848745276867724
6.208,0,4,1,28.194979062462156,3850.5909120740957,0.46078855747675007,4.869790258319416,160,9,1,-2,86,2,0.513,5.382790258319416,4.356790258319416,-0.06266928085500299,0.5472448746813651,-7.347772988141113e-05,-0.04769900560404702,-0.06087374247819076,9.821780082235056
6.24,0,4,1,28.194979062462156,3878.785891136558,0.0,4.870251046876892,160,9,1,-1,85,1,0.5715,5.441751046876893,4.298751046876892,-0.05969066325680946,0.5481447575938991,-7.32669283688911e-05,-0.012206999117563764,-0.0419976626909482,9.821902615854631
6.272,0,4,1,28.194979062462156,3906.98087019902,0.0,4.870251046876892,160,9,1,0,85,1,0.6465,5.516751046876892,4.223751046876893,-0.05670154411061695,0.5490108952032187,-7.314183126072744e-05,0.0010193897535851826,-0.05500812879550515,9.786128910677427
6.304,0,4,1,27.26947198845808,3934.250342187478,-0.9255070740040772,4.9174519076511,160,9,1,2,87,2,0.8205,5.7379519076511,4.0969519076511,-0.05370088511549669,0.5498386694282154,-7.31252253526448e-05,0.0013681979883972146,-0.05950216965601415,9.78657982612014
6.336,0,4,1,26.800834946954605,3961.0511771344327,-0.46863704150347374,4.940426889693773,160,9,1,1,88,-1,0.7259999999999999,5.666426889693773,4.214426889693773,-0.05065719726144303,0.5506300866903078,-7.335637116868271e-05,0.0325635474983099,-0.06454566531685205,9.798199408482239
6.368,0,4,1,27.26947198845808,3988.3206491228907,0.46863704150347374,4.916057763535592,160,9,1,0,88,-1,0.6509999999999999,5.567057763535592,4.265057763535593,-0.047585324212866834,0.5513670466824295,-7.34447406396787e-05,0.01507104602049195,-0.0780039316159654,9.846285370687685
6.4,0,4,1,26.328293105170882,4014.6489422280615,-0.941178883287197,4.964526523624743,160,9,1,1,89,1,0.7515,5.716026523624743,4.213026523624743,-0.04451773059643367,0.5520490584752115,-7.34500545013176e-05,-0.015160731484414595,-0.07193088700675383,9.821125398717532
6.432,0,4,1,26.328293105170882,4040.9772353332323,0.0,4.963585344741456,160,9,1,0,89,-1,0.6585,5.622085344741456,4.305085344741456,-0.04140910254671078,0.5526918498763969,-7.361623426288891e-05,0.03205188147694933,-0.06537248395296198,9.78561012987108
6.464,0,4,1,27.26947198845808,4068.2467073216903,0.941178883287197,4.915585221693809,160,9,1,-2,87,-2,0.48449999999999993,5.400085221693809,4.4310852216938095,-0.03829207986884615,0.5532805402161524,-7.36461203726009e-05,-0.0011344360061492824,-0.07350439786541105,9.834294583038973
6.496,0,4,1,26.800834946954605,4095.047542268645,-0.46863704150347374,4.940426889693773,160,9,1,1,88,3,0.7619999999999999,5.702426889693773,4.178426889693774,-0.03520019041436885,0.5538167338574244,-7.340754820860107e-05,-0.032421011219253705,-0.0664693522966196,9.826686439006517
6.5280000000000005,0,4,1,27.26947198845808,4122.317014257103,0.46863704150347374,4.916057763535592,160,9,1,-1,87,-2,0.5595,5.475557763535592,4.3565577635355925,-0.03208351391836495,0.5543221492450021,-7.360210077421436e-05,0.019517856524775022,-0.053237596042461054,9.80505033905293
6.5600000000000005,0,4,1,26.800834946954605,4149.117849204058,-0.46863704150347374,4.940426889693773,160,9,1,0,87,1,0.6615,5.6019268896937735,4.278926889693773,-0.02897808275732438,0.5547703566089749,-7.345947029150854e-05,-0.0183738664889982,-0.07411813633241793,9.806532227230429
6.5920000000000005,0,4,1,26.328293105170882,4175.446142309229,-0.47254184178372327,4.96405788658324,160,9,1,1,88,1,0.7439999999999999,5.70805788658324,4.22005788658324,-0.02585083562705261,0.5551811476397024,-7.347219304231628e-05,0.016808240745402013,-0.05910809313389739,9.782926461205436
6.6240000000000006,0,4,1,26.800834946954605,4202.2469772561835,0.47254184178372327,4.9394857108104855,160,9,1,-1,87,-2,0.5595,5.498985710810485,4.379985710810486,-0.022693496411094246,0.55554530840401,-7.360755374375555e-05,0.02466395564176282,-0.06859953536027696,9.796986478276972
6.656000000000001,0,4,1,26.800834946954605,4229.047812203138,0.0,4.93995825265227,160,9,1,0,87,1,0.6615,5.60145825265227,4.278458252652269,-0.01956022973036148,0.5558552597145957,-7.344187249205998e-05,-0.028044524305785128,-0.07097055939923654,9.800983548909699
6.688,0,4,1,27.26947198845808,4256.317284191597,0.46863704150347374,4.916057763535592,160,9,1,-1,86,-1,0.561,5.477057763535592,4.3550577635355925,-0.016409222490055168,0.556123830882026,-7.344529385176247e-05,0.014280036470045356,-0.06193501194861091,9.784994628256626
6.72,0,4,1,26.800834946954605,4283.118119138551,-0.46863704150347374,4.940426889693773,160,9,1,0,86,1,0.654,5.594426889693773,4.286426889693773,-0.01327025972149472,0.5563442574550193,-7.32867256489321e-05,-0.01459421903225525,-0.0664617214157843,9.843414619351359
6.752,0,4,1,27.26947198845808,4310.38759112701,0.46863704150347374,4.916057763535592,160,9,1,0,86,0,0.645,5.561057763535592,4.271057763535593,-0.010113000415116726,0.5565270017648426,-7.326946246556144e-05,0.01613721030805903,-0.05811310347292997,9.84025125372264
6.784,0,4,1,27.26947198845808,4337.657063115468,0.0,4.916526400577096,160,9,1,0,86,0,0.645,5.561526400577096,4.2715264005770965,-0.00696887775905264,0.55666260401257,-7.323931448895322e-05,-0.014365537947660085,-0.06581025442273924,9.827424516903237
6.816,0,4,1,27.26947198845808,4364.926535103927,0.0,4.916526400577096,160,9,1,0,86,0,0.645,5.561526400577096,4.2715264005770965,-0.003822734734662146,0.5567527218301588,-7.321140651886382e-05,0.0011845844973000367,-0.06490396409059594,9.768213350796515
6.848,0,4,1,26.800834946954605,4391.727370050881,-0.46863704150347374,4.940426889693773,160,9,1,2,88,2,0.828,5.768426889693774,4.112426889693773,-0.0006755411945255346,0.5567972928415207,-7.318820165001447e-05,0.0008795664917206643,-0.06438913398065599,9.754024676900263
6.88,0,4,1,26.800834946954605,4418.528204997836,0.0,4.93995825265227,160,9,1,0,88,-2,0.6419999999999999,5.581958252652269,4.29795825265227,0.002488176170692838,0.5567966200615797,-7.3450521868813e-05,0.016830269813011924,-0.06381635395801273,9.7812290658707
6.912,0,4,1,27.26947198845808,4445.797676986294,0.46863704150347374,4.916057763535592,160,9,1,-1,87,-1,0.5685,5.484557763535593,4.347557763535592,0.005650714605591381,0.5567363550363119,-7.343832710392934e-05,0.0005750934935031961,-0.07831488939445942,9.845267063925105
6.944,0,4,1,27.734190504985406,4473.53186749128,0.4647185165273271,4.892825756234203,160,9,1,-1,86,0,0.5700000000000001,5.462825756234203,4.322825756234202,0.008796172109002201,0.5566313279224796,-7.331818364373494e-05,-0.014704577856106824,-0.06426774379315596,9.82314201362432
6.976,0,4,1,27.26947198845808,4500.801339479738,-0.4647185165273271,4.916991119093623,160,9,1,1,87,2,0.7454999999999999,5.662491119093623,4.1714911190936235,0.011924884961540082,0.556486583545752,-7.320777985475937e-05,-0.014162100307699625,-0.05961636059028005,9.810431867419515
7.008,0,4,1,27.26947198845808,4528.070811468197,0.0,4.916526400577096,160,9,1,-1,86,-2,0.552,5.468526400577096,4.3645264005770965,0.015067581206670072,0.5563014031184295,-7.336608585315797e-05,0.016462051077921782,-0.05856142250469111,9.796987066757165
7.04,0,4,1,27.26947198845808,4555.340283456655,0.0,4.916526400577096,160,9,1,0,86,1,0.654,5.570526400577096,4.262526400577096,0.0182058527002929,0.5560627519304054,-7.3212968826699e-05,9.736326227143933e-05,-0.0727369541830134,9.804032545338247
7.072,0,4,1,27.734190504985406,4583.07447396164,0.4647185165273271,4.892825756234203,160,9,1,-1,85,-1,0.5535,5.446325756234202,4.339325756234203,0.021341206622190613,0.5557860983605987,-7.322297687406901e-05,0.0008547059796867576,-0.05738054812242134,9.823093610138905
7.104,0,4,1,27.26947198845808,4610.343945950099,-0.4647185165273271,4.916991119093623,160,9,1,1,86,2,0.738,5.654991119093623,4.178991119093624,0.024456702170203567,0.5554674306067359,-7.30747506346753e-05,-0.014775861764727607,-0.06301196059399222,9.815739186919417
